%time,field.header.seq,field.header.stamp,field.pose.position.x,field.pose.position.y,field.pose.position.z,field.pose.orientation.x,field.pose.orientation.y,field.pose.orientation.z,field.pose.orientation.w,field.twist.twist.linear.x,field.twist.twist.linear.y,field.twist.twist.linear.z,field.twist.twist.angular.x,field.twist.twist.angular.y,field.twist.twist.angular.z
1683057395.425233354,0,1683057395.425233354,-5.98884e-05,0.000420777,0.000277884,2.65662e-05,-7.06638e-05,-6.67978e-05,1,0,0,0,0,0,0
1683057395.511519694,1,1683057395.511519694,-1.36795e-05,0.000600439,0.000525988,-0.00018866,-0.00012066,0.000181103,1,0,0,0,0,0,0
1683057395.531395070,2,1683057395.531395070,6.94804e-05,0.000546104,0.000760901,0.000107638,-5.94545e-05,-4.40771e-05,1,0,0,0,0,0,0
1683057395.613456027,3,1683057395.613456027,0.000327973,0.000550638,0.00132051,-0.000113323,-0.000202988,0.000152723,1,0,0,0,0,0,0
1683057395.655896561,4,1683057395.655896561,0.000480726,0.000986459,0.000497091,9.97894e-05,-0.000188911,-9.44264e-06,1,0,0,0,0,0,0
1683057395.723915026,5,1683057395.723915026,0.00089333,0.000800649,0.00104899,-8.27336e-05,-0.000116808,0.000110488,1,0,0,0,0,0,0
1683057395.761017363,6,1683057395.761017363,0.000158798,0.000643389,0.00134494,0.000147656,-2.52619e-05,-7.13878e-05,1,0,0,0,0,0,0
1683057395.821505886,7,1683057395.821505886,0.000345709,0.00045739,0.00209707,-0.000131027,-0.000197518,0.000119208,1,0,0,0,0,0,0
1683057395.857419405,8,1683057395.857419405,0.000519378,0.000513399,0.00195552,1.86495e-05,-0.000191832,-3.95257e-05,1,0,0,0,0,0,0
1683057395.930551723,9,1683057395.930551723,0.0013949,0.0016984,0.00181057,-8.15899e-05,-0.000118012,3.09424e-05,1,0,0,0,0,0,0
1683057395.975327749,10,1683057395.975327749,0.00173563,0.00145,0.00190851,9.57965e-05,-9.78766e-05,-0.000118285,1,0,0,0,0,0,0
1683057396.069490168,11,1683057396.069490168,0.00145574,-0.000757381,0.00231069,-2.01563e-05,-8.24872e-05,4.19833e-05,1,0,0,0,0,0,0
1683057396.087124233,12,1683057396.087124233,0.00121096,-0.00070045,0.00245309,0.000158586,-6.81262e-05,-8.74169e-05,1,0,0,0,0,0,0
1683057396.153694843,13,1683057396.153694843,0.000246276,-0.00159494,0.00269849,6.23956e-06,-5.19941e-05,1.5045e-05,1,0,0,0,0,0,0
1683057396.168665148,14,1683057396.168665148,-7.88719e-05,-0.00101254,0.0023718,9.8185e-05,-4.34458e-05,-5.23084e-05,1,0,0,0,0,0,0
1683057396.212787029,15,1683057396.212787029,0.0013336,0.00076829,0.000686966,-7.55956e-06,-8.89001e-05,-3.10805e-05,1,0,0,0,0,0,0
1683057396.239034177,16,1683057396.239034177,0.0016721,0.00115606,0.000812662,0.000206221,-4.91301e-05,-0.000241889,1,0,0,0,0,0,0
1683057396.326198101,17,1683057396.326198101,0.000521181,0.0026509,-0.000608519,-2.65614e-05,-0.000134686,-7.78747e-06,1,0,0,0,0,0,0
1683057396.368383032,18,1683057396.368383032,0.000640404,0.00168978,0.000221499,0.000177946,-0.000148088,-0.000164777,1,0,0,0,0,0,0
1683057396.410569668,19,1683057396.410569668,0.00179219,0.00120104,-0.00125555,2.18726e-05,-0.000104382,-1.92126e-05,1,0,0,0,0,0,0
1683057396.435323908,20,1683057396.435323908,0.00194897,0.000120581,-0.000838194,0.000302416,-6.18113e-05,-0.000261467,1,0,0,0,0,0,0
1683057396.531210877,21,1683057396.531210877,0.00404047,0.00199036,0.00209542,-3.84386e-05,-7.75111e-05,3.04639e-05,1,0,0,0,0,0,0
1683057396.572284757,22,1683057396.572284757,0.0038017,0.00200031,0.00304635,0.000117872,-7.15738e-05,-0.000176395,1,0,0,0,0,0,0
1683057396.623209002,23,1683057396.623209002,0.00286838,0.00054044,0.00173531,-4.35893e-05,-6.49375e-05,3.32625e-05,1,0,0,0,0,0,0
1683057396.663091153,24,1683057396.663091153,0.00210131,0.000496031,0.00167518,0.000187639,5.20499e-05,-0.000124163,1,0,0,0,0,0,0
1683057396.720098159,25,1683057396.720098159,0.00132974,0.000417885,0.00132278,-6.4524e-05,-0.000106852,7.73513e-05,1,0,0,0,0,0,0
1683057396.743757704,26,1683057396.743757704,0.00116398,0.00015619,0.00142288,0.000125709,-9.93202e-05,-0.000113048,1,0,0,0,0,0,0
1683057396.823533186,27,1683057396.823533186,0.00209004,0.00214589,0.00248633,1.22564e-05,-6.24098e-05,5.36237e-05,1,0,0,0,0,0,0
1683057396.843272470,28,1683057396.843272470,0.00224525,0.00226332,0.00289906,0.000196659,8.79512e-06,-0.000100722,1,0,0,0,0,0,0
1683057396.933275178,29,1683057396.933275178,0.00151168,0.00252842,0.004116,-7.02723e-06,-2.58857e-05,3.49023e-05,1,0,0,0,0,0,0
1683057396.952970632,30,1683057396.952970632,0.00163071,0.0020443,0.00389922,0.000127479,-5.55881e-05,-0.000113836,1,0,0,0,0,0,0
1683057397.031702742,31,1683057397.031702742,0.0037487,0.000616056,0.00318582,-1.35078e-05,-1.95895e-05,7.97666e-05,1,0,0,0,0,0,0
1683057397.052375031,32,1683057397.052375031,0.00316936,0.000722024,0.002542,0.000136358,6.74194e-05,-7.01784e-05,1,0,0,0,0,0,0
1683057397.131082119,33,1683057397.131082119,0.0048257,-0.000407865,0.0019576,7.5926e-06,-7.33027e-05,4.30767e-05,1,0,0,0,0,0,0
1683057397.150938468,34,1683057397.150938468,0.00428746,3.74059e-05,0.00180443,0.000144531,-4.80999e-05,-8.36043e-05,1,0,0,0,0,0,0
1683057397.248230377,35,1683057397.248230377,0.00397596,-0.000787302,0.00323161,3.24751e-05,-1.68322e-05,0.000114893,1,0,0,0,0,0,0
1683057397.264411190,36,1683057397.264411190,0.00286473,8.73575e-05,0.00280009,0.000111668,-2.16713e-07,2.29498e-05,1,0,0,0,0,0,0
1683057397.312991822,37,1683057397.312991822,0.000435248,0.00183207,2.64053e-05,6.84802e-05,-0.000120144,5.64258e-05,1,0,0,0,0,0,0
1683057397.338196770,38,1683057397.338196770,-4.33442e-05,0.00175394,0.000148897,0.000259658,-0.000122705,-0.000147849,1,0,0,0,0,0,0
1683057397.411832820,39,1683057397.411832820,0.00075421,0.00101021,4.63624e-05,6.73113e-06,-0.000131575,8.07132e-05,1,0,0,0,0,0,0
1683057397.437216027,40,1683057397.437216027,0.000736162,0.000507933,0.000838818,0.000241862,-4.58393e-06,-0.000103297,1,0,0,0,0,0,0
1683057397.524760182,41,1683057397.524760182,-0.00233315,-0.00052296,0.00161292,-5.0433e-05,-0.00010896,0.000199532,1,0,0,0,0,0,0
1683057397.538290655,42,1683057397.538290655,-0.00299441,-0.000942212,0.00155895,0.000220709,-6.2166e-06,-1.56215e-05,1,0,0,0,0,0,0
1683057397.622382727,43,1683057397.622382727,-0.00224871,0.00180561,0.00139552,-4.21956e-05,-9.6279e-05,0.00016104,1,0,0,0,0,0,0
1683057397.638950859,44,1683057397.638950859,-0.00197824,0.00160697,0.00199051,0.000156069,-0.000108212,-3.19014e-06,1,0,0,0,0,0,0
1683057397.719633500,45,1683057397.719633500,0.000240216,0.00278499,0.00166807,-1.87153e-05,-7.84851e-05,0.000147295,1,0,0,0,0,0,0
1683057397.736874670,46,1683057397.736874670,0.00073965,0.00209158,0.00197894,0.000157019,-9.17807e-05,-3.32953e-05,1,0,0,0,0,0,0
1683057397.831179065,47,1683057397.831179065,-0.00112363,7.13523e-05,0.00237573,-2.94503e-05,-1.28654e-05,0.000160704,1,0,0,0,0,0,0
1683057397.845806038,48,1683057397.845806038,-0.0010281,-0.000278613,0.00195379,0.000153281,5.97623e-05,2.69685e-05,1,0,0,0,0,0,0
1683057397.937895206,49,1683057397.937895206,0.00269487,0.000593197,0.00289638,-1.58441e-06,-3.29996e-05,4.18754e-05,1,0,0,0,0,0,0
1683057397.953121920,50,1683057397.953121920,0.00269233,0.000884176,0.00271107,0.000176254,1.86923e-05,-0.000111803,1,0,0,0,0,0,0
1683057398.029977470,51,1683057398.029977470,0.0029613,0.000891723,0.00285059,1.76591e-06,-2.93898e-05,0.000113913,1,0,0,0,0,0,0
1683057398.043708282,52,1683057398.043708282,0.00266041,0.00110857,0.00254085,0.000113688,-3.97132e-05,-1.36247e-05,1,0,0,0,0,0,0
1683057398.148085357,53,1683057398.148085357,0.000464719,-0.000108557,0.00363503,3.17168e-05,-9.35493e-06,4.68222e-05,1,0,0,0,0,0,0
1683057398.162357705,54,1683057398.162357705,6.06292e-05,6.05694e-05,0.00303288,0.000143228,9.1528e-06,-5.02137e-05,1,0,0,0,0,0,0
1683057398.212128282,55,1683057398.212128282,-0.000752415,0.00220501,2.88348e-05,2.3809e-05,-0.000114681,0.000157456,1,0,0,0,0,0,0
1683057398.239526264,56,1683057398.239526264,-0.000990693,0.00176079,-0.000277693,0.000239998,-5.91051e-05,-5.01744e-05,1,0,0,0,0,0,0
1683057398.311596112,57,1683057398.311596112,-0.000694107,0.00277045,-0.000646175,8.81812e-06,-0.000136149,0.000187818,1,0,0,0,0,0,0
1683057398.339389777,58,1683057398.339389777,-0.00103732,0.00175066,7.97565e-05,0.000212839,-0.000167,1.8861e-05,1,0,0,0,0,0,0
1683057398.411480606,59,1683057398.411480606,-0.00336168,0.00150431,-0.00031701,-1.01676e-05,-9.49336e-05,0.000139608,1,0,0,0,0,0,0
1683057398.437634462,60,1683057398.437634462,-0.00331096,0.000387958,0.000161561,0.0001985,-7.47793e-05,-2.43605e-05,1,0,0,0,0,0,0
1683057398.509875416,61,1683057398.509875416,-0.00232964,0.00263861,-0.000406544,1.86102e-05,-0.000125234,0.00020933,1,0,0,0,0,0,0
1683057398.540436093,62,1683057398.540436093,-0.00218332,0.00181001,0.000339889,0.00017868,-0.000151949,1.56725e-05,1,0,0,0,0,0,0
1683057398.621451033,63,1683057398.621451033,-0.00149523,0.000168258,0.00133222,-5.26418e-06,-6.67736e-05,0.000121835,1,0,0,0,0,0,0
1683057398.639001794,64,1683057398.639001794,-0.00136683,-0.000191869,0.00142981,0.000229973,-1.18489e-05,-4.57909e-05,1,0,0,0,0,0,0
1683057398.720625930,65,1683057398.720625930,-0.000708597,0.00366052,0.000865235,-5.93902e-05,-0.0001081,0.000141438,1,0,0,0,0,0,0
1683057398.735469817,66,1683057398.735469817,-0.000561465,0.00326605,0.00134099,0.000192795,-8.77724e-05,-3.76283e-05,1,0,0,0,0,0,0
1683057398.822805217,67,1683057398.822805217,0.00182771,0.00266506,0.00245069,4.34519e-06,-4.30067e-05,0.000133456,1,0,0,0,0,0,0
1683057398.838482435,68,1683057398.838482435,0.00190171,0.00174957,0.00263135,0.00018822,8.10317e-06,-5.03425e-05,1,0,0,0,0,0,0
1683057398.931904678,69,1683057398.931904678,-0.000513667,0.00085239,0.00322739,-2.84493e-05,-2.12149e-05,0.000104245,1,0,0,0,0,0,0
1683057398.945259118,70,1683057398.945259118,-0.00126806,0.000387551,0.00318513,0.000118746,-4.17816e-05,-6.54107e-05,1,0,0,0,0,0,0
1683057399.029960721,71,1683057399.029960721,-0.000411628,-0.000605361,0.00373361,1.73819e-07,-1.33258e-05,0.000114444,1,0,0,0,0,0,0
1683057399.044728471,72,1683057399.044728471,-0.00101116,-0.000475799,0.00346242,0.000127179,-5.21903e-06,-2.58042e-05,1,0,0,0,0,0,0
1683057399.131157161,73,1683057399.131157161,-0.000707486,0.0020743,0.00357625,-4.91406e-06,-5.88439e-05,0.000132865,1,0,0,0,0,0,0
1683057399.143305563,74,1683057399.143305563,-0.000950605,0.00188129,0.00387559,0.000128566,-1.85326e-05,2.10076e-05,1,0,0,0,0,0,0
1683057399.242065252,75,1683057399.242065252,-0.000973213,0.00218234,0.00366251,4.15364e-05,1.2139e-05,0.000140724,1,0,0,0,0,0,0
1683057399.258570049,76,1683057399.258570049,-0.0012474,0.00166416,0.00395304,0.00014295,-1.4294e-06,5.17051e-05,1,0,0,0,0,0,0
1683057399.313200666,77,1683057399.313200666,-0.00421761,0.00326627,0.000491287,3.16344e-05,-9.01456e-05,9.18163e-05,1,0,0,0,0,0,0
1683057399.348585629,78,1683057399.348585629,-0.00464936,0.00126751,0.000440657,0.000260595,-4.53965e-05,-0.000148717,1,0,0,0,0,0,0
1683057399.412338220,79,1683057399.412338220,-0.00247133,0.00357324,-0.000374874,2.77149e-05,-0.000104869,0.000136133,1,0,0,0,0,0,0
1683057399.443375043,80,1683057399.443375043,-0.00235481,0.00159478,0.000861639,0.000244503,-8.33747e-05,-6.86745e-05,1,0,0,0,0,0,0
1683057399.515024343,81,1683057399.515024343,-0.00144069,0.00279005,-5.764e-05,1.12987e-05,-0.0001252,0.000225046,1,0,0,0,0,0,0
1683057399.539105036,82,1683057399.539105036,-0.00170932,0.00134189,0.00120178,0.000268557,-7.32119e-05,2.8533e-05,1,0,0,0,0,0,0
1683057399.611176208,83,1683057399.611176208,5.64846e-05,0.00341639,0.000988905,1.41723e-05,-0.000122967,0.000161635,1,0,0,0,0,0,0
1683057399.641861245,84,1683057399.641861245,-0.000281195,0.00182807,0.00240119,0.000214729,-0.000132555,-7.72579e-05,1,0,0,0,0,0,0
1683057399.723051771,85,1683057399.723051771,-0.00165356,0.00342642,0.0024093,-1.96121e-05,-6.78757e-05,0.000205806,1,0,0,0,0,0,0
1683057399.738088035,86,1683057399.738088035,-0.00234835,0.00232953,0.0036564,0.000194596,-2.04005e-05,4.01127e-05,1,0,0,0,0,0,0
1683057399.820127170,87,1683057399.820127170,-0.0029618,0.00402067,0.00287967,5.63981e-05,-5.15148e-05,0.000138576,1,0,0,0,0,0,0
1683057399.837465538,88,1683057399.837465538,-0.00320768,0.00252439,0.0037875,0.000160437,-8.87074e-05,-2.28202e-05,1,0,0,0,0,0,0
1683057399.933340158,89,1683057399.933340158,-0.0034394,0.0019255,0.00399028,2.87747e-05,-2.22595e-05,0.000191078,1,0,0,0,0,0,0
1683057399.946673756,90,1683057399.946673756,-0.00361327,0.000408084,0.00470085,0.000237397,-3.01378e-06,1.94515e-05,1,0,0,0,0,0,0
1683057400.032152188,91,1683057400.032152188,-0.000354452,0.00426233,0.00420488,3.52226e-05,-4.15339e-05,8.63417e-05,1,0,0,0,0,0,0
1683057400.049400975,92,1683057400.049400975,-0.000196119,0.00347939,0.00482056,0.000155942,-3.37369e-05,-3.10144e-05,1,0,0,0,0,0,0
1683057400.140292514,93,1683057400.140292514,0.00408702,0.00641011,0.00392879,2.60158e-05,3.09217e-05,8.3058e-05,1,0,0,0,0,0,0
1683057400.154751021,94,1683057400.154751021,0.00438077,0.00525208,0.00434933,0.000172842,4.70261e-05,-2.41148e-05,1,0,0,0,0,0,0
1683057400.241077876,95,1683057400.241077876,0.000735368,0.00209097,0.00376312,6.14664e-05,4.63981e-06,7.17914e-05,1,0,0,0,0,0,0
1683057400.255060802,96,1683057400.255060802,-0.000300842,0.000879121,0.00406067,0.0001293,2.08701e-06,-7.03628e-06,1,0,0,0,0,0,0
1683057400.310254762,97,1683057400.310254762,-0.00248721,0.00278409,0.000446889,2.55017e-05,-0.000100429,0.000128454,1,0,0,0,0,0,0
1683057400.341195619,98,1683057400.341195619,-0.00386648,0.000792206,-0.000306292,0.0002713,-1.08038e-05,-4.0783e-05,1,0,0,0,0,0,0
1683057400.410629814,99,1683057400.410629814,-0.00370974,0.00410542,-0.000196416,-2.33246e-05,-0.000140275,0.000225205,1,0,0,0,0,0,0
1683057400.437185590,100,1683057400.437185590,-0.00508835,0.00308077,0.000755286,0.000226256,-0.000142893,4.94781e-05,1,0,0,0,0,0,0
1683057400.510744235,101,1683057400.510744235,-0.00564901,0.00509912,3.37007e-05,3.20928e-05,-9.99528e-05,9.96068e-05,1,0,0,0,0,0,0
1683057400.551494279,102,1683057400.551494279,-0.00623586,0.00285438,0.000549258,0.000198172,-0.000106334,-0.000106993,1,0,0,0,0,0,0
1683057400.611748578,103,1683057400.611748578,-0.000642147,0.000443245,0.00304127,2.58017e-06,-2.58055e-05,0.000136986,1,0,0,0,0,0,0
1683057400.639503758,104,1683057400.639503758,-0.000872113,-0.00152442,0.00428078,0.000193663,-3.06591e-05,-7.71378e-05,1,0,0,0,0,0,0
1683057400.722419497,105,1683057400.722419497,0.000670122,0.00434515,0.00349859,2.46011e-05,-4.89524e-05,7.66359e-05,1,0,0,0,0,0,0
1683057400.752655038,106,1683057400.752655038,0.000558607,0.00379338,0.00445861,0.000242319,1.57533e-05,-0.000118673,1,0,0,0,0,0,0
1683057400.835142713,107,1683057400.835142713,-0.00220708,0.00333287,0.00569332,1.86874e-05,-1.10572e-05,0.000170536,1,0,0,0,0,0,0
1683057400.851978593,108,1683057400.851978593,-0.0029735,0.00156054,0.00634567,0.000204677,6.05778e-05,2.7368e-05,1,0,0,0,0,0,0
1683057400.931764289,109,1683057400.931764289,-0.00324094,0.000404948,0.00560072,4.31634e-05,6.58438e-06,0.000204752,1,0,0,0,0,0,0
1683057400.958834337,110,1683057400.958834337,-0.0038585,-0.00045535,0.0061423,0.000178898,5.73631e-06,5.12263e-05,1,0,0,0,0,0,0
1683057401.036529776,111,1683057401.036529776,0.000189587,0.00123644,0.00499114,5.5921e-05,5.1442e-05,8.8637e-05,1,0,0,0,0,0,0
1683057401.064509794,112,1683057401.064509794,0.000160824,0.000847485,0.005312,0.000187248,3.48959e-05,-3.45201e-05,1,0,0,0,0,0,0
1683057401.144739858,113,1683057401.144739858,-0.00273651,0.00110778,0.00454541,9.71799e-05,4.58363e-05,0.000195424,1,0,0,0,0,0,0
1683057401.156537952,114,1683057401.156537952,-0.00310567,0.000105552,0.00499265,0.00018534,5.16336e-05,0.000106983,1,0,0,0,0,0,0
1683057401.212552181,115,1683057401.212552181,-0.00635907,0.0016262,0.000919491,4.39901e-05,-9.81123e-05,0.000165053,1,0,0,0,0,0,0
1683057401.244569848,116,1683057401.244569848,-0.00804088,1.92533e-05,-0.000458535,0.00027755,-4.82521e-05,-8.68895e-05,1,0,0,0,0,0,0
1683057401.310463304,117,1683057401.310463304,-0.00500098,0.00420557,0.000997573,2.30314e-05,-6.66475e-05,0.000186785,1,0,0,0,0,0,0
1683057401.340412827,118,1683057401.340412827,-0.00549063,0.0025675,0.00187581,0.000257204,-4.81118e-05,3.55429e-06,1,0,0,0,0,0,0
1683057401.414946237,119,1683057401.414946237,-0.00770291,0.00196141,0.00142028,5.13491e-05,-7.58472e-05,0.000229731,1,0,0,0,0,0,0
1683057401.461743778,120,1683057401.461743778,-0.00867405,-0.00045939,0.00223534,0.000264703,-5.16669e-05,4.78773e-05,1,0,0,0,0,0,0
1683057401.510585659,121,1683057401.510585659,-0.00810517,0.00277484,0.00101157,7.7414e-05,-7.84342e-05,0.000154123,1,0,0,0,0,0,0
1683057401.540438686,122,1683057401.540438686,-0.00859876,0.000792953,0.00111966,0.000332495,-1.56962e-05,-7.22602e-05,1,0,0,0,0,0,0
1683057401.641685975,123,1683057401.641685975,-0.00668707,0.00274937,0.00203808,-8.75026e-06,-8.93364e-05,0.000189498,1,0,0,0,0,0,0
1683057401.657718660,124,1683057401.657718660,-0.00691071,0.000945948,0.00271219,0.000259261,3.14184e-06,-1.65144e-05,1,0,0,0,0,0,0
1683057401.744176535,125,1683057401.744176535,-0.00567511,0.00119135,0.00245216,3.70415e-05,-5.23011e-05,0.000225014,1,0,0,0,0,0,0
1683057401.758658669,126,1683057401.758658669,-0.00614164,-0.000203394,0.00296865,0.000210586,-4.75116e-05,2.92323e-05,1,0,0,0,0,0,0
1683057401.820991262,127,1683057401.820991262,-0.00546879,0.00245338,0.00322339,3.09993e-05,-4.36755e-05,0.000176894,1,0,0,0,0,0,0
1683057401.837284286,128,1683057401.837284286,-0.00593342,0.0010759,0.00351979,0.000210186,1.38968e-06,-1.39203e-05,1,0,0,0,0,0,0
1683057401.930359207,129,1683057401.930359207,-0.00576825,0.0017719,0.0045307,7.92351e-06,2.58676e-05,0.000228953,1,0,0,0,0,0,0
1683057401.943357360,130,1683057401.943357360,-0.00585252,0.000173108,0.00536002,0.000192527,3.77289e-05,9.18855e-05,1,0,0,0,0,0,0
1683057402.030314964,131,1683057402.030314964,-0.00512733,0.00031592,0.00417627,4.83379e-05,-1.15603e-05,0.000187636,1,0,0,0,0,0,0
1683057402.043111889,132,1683057402.043111889,-0.00548061,-0.000716621,0.00453723,0.00018627,1.09452e-05,4.3162e-05,1,0,0,0,0,0,0
1683057402.131180654,133,1683057402.131180654,0.000612078,0.00252675,0.00476452,3.48842e-05,2.03201e-05,0.000105592,1,0,0,0,0,0,0
1683057402.146074496,134,1683057402.146074496,0.00086971,0.00172505,0.00537293,0.00015886,2.51827e-05,-3.49566e-05,1,0,0,0,0,0,0
1683057402.229786131,135,1683057402.229786131,-0.00250182,0.00118148,0.00498624,0.000113564,4.53635e-05,0.00017665,1,0,0,0,0,0,0
1683057402.243093169,136,1683057402.243093169,-0.00311934,-4.75963e-05,0.00539822,0.000218738,4.56433e-05,6.86933e-05,1,0,0,0,0,0,0
1683057402.309570047,137,1683057402.309570047,-0.00332032,0.00300413,0.00113063,5.26155e-05,-7.45672e-05,8.58867e-05,1,0,0,0,0,0,0
1683057402.338216461,138,1683057402.338216461,-0.00425842,0.00113677,-0.000677947,0.000312226,-1.51778e-05,-0.000119239,1,0,0,0,0,0,0
1683057402.416763899,139,1683057402.416763899,-0.00158833,0.003253,4.48472e-06,4.4089e-06,-7.81956e-05,6.67044e-05,1,0,0,0,0,0,0
1683057402.437134044,140,1683057402.437134044,-0.0020752,0.00105925,-0.000265649,0.000229969,1.48192e-05,-0.000166245,1,0,0,0,0,0,0
1683057402.511037596,141,1683057402.511037596,-0.00573808,0.00209064,0.000384836,4.14485e-05,-0.000113732,0.000168329,1,0,0,0,0,0,0
1683057402.538837187,142,1683057402.538837187,-0.00739869,0.000284957,0.00186556,0.000264995,-0.000129583,-2.71876e-05,1,0,0,0,0,0,0
1683057402.610724499,143,1683057402.610724499,-0.00782852,0.00155584,0.000616573,6.37881e-05,-0.000125521,0.000187818,1,0,0,0,0,0,0
1683057402.638611190,144,1683057402.638611190,-0.00888988,-0.000979791,0.00110286,0.000301612,-7.14017e-05,-2.85063e-05,1,0,0,0,0,0,0
1683057402.743585104,145,1683057402.743585104,-0.00380778,0.00204313,0.00244943,3.17107e-05,-3.19644e-05,0.000183703,1,0,0,0,0,0,0
1683057402.763032251,146,1683057402.763032251,-0.00340481,0.000125319,0.0042097,0.000202582,-3.11775e-06,-1.02138e-05,1,0,0,0,0,0,0
1683057402.822334236,147,1683057402.822334236,-0.00337882,0.00245115,0.00290828,2.92862e-05,-6.63567e-05,0.000139244,1,0,0,0,0,0,0
1683057402.837213333,148,1683057402.837213333,-0.0033719,0.00112929,0.00393867,0.000249044,-2.32522e-05,-5.54768e-05,1,0,0,0,0,0,0
1683057402.922099910,149,1683057402.922099910,-0.00114329,0.00323452,0.00382528,2.8997e-05,-5.76193e-05,0.000137208,1,0,0,0,0,0,0
1683057402.937049929,150,1683057402.937049929,-0.000814587,0.00129714,0.00487429,0.000237789,1.1754e-05,-4.94913e-05,1,0,0,0,0,0,0
1683057403.031746215,151,1683057403.031746215,-0.00108763,0.00151577,0.00389777,2.74676e-05,1.39565e-05,0.000162077,1,0,0,0,0,0,0
1683057403.045366058,152,1683057403.045366058,-0.00143432,-0.000215522,0.00442702,0.000206817,5.81936e-05,1.85036e-05,1,0,0,0,0,0,0
1683057403.142532334,153,1683057403.142532334,-0.00339899,0.00082413,0.00528372,6.06134e-05,5.27156e-05,0.00024915,1,0,0,0,0,0,0
1683057403.156583773,154,1683057403.156583773,-0.00349133,-0.000201053,0.00610828,0.000172232,-1.47826e-05,0.000130901,1,0,0,0,0,0,0
1683057403.231306766,155,1683057403.231306766,0.000202558,0.00288462,0.00524146,5.76648e-05,5.74242e-05,0.000129248,1,0,0,0,0,0,0
1683057403.246428069,156,1683057403.246428069,-1.1131e-05,0.00213994,0.00596189,0.000188056,0.00012334,1.04865e-05,1,0,0,0,0,0,0
1683057403.341841799,157,1683057403.341841799,-0.00412908,0.00223049,0.00522568,9.91364e-05,-2.67678e-06,0.000145012,1,0,0,0,0,0,0
1683057403.354036394,158,1683057403.354036394,-0.00430646,0.00113509,0.0057685,0.000210741,1.82711e-05,1.87202e-05,1,0,0,0,0,0,0
1683057403.413836924,159,1683057403.413836924,-0.00511184,0.00201071,0.00115067,4.31456e-05,-8.03175e-05,0.000160573,1,0,0,0,0,0,0
1683057403.440810617,160,1683057403.440810617,-0.00680398,0.000522668,-0.000628846,0.000296849,-3.07986e-05,-1.26786e-05,1,0,0,0,0,0,0
1683057403.503881924,161,1683057403.503881924,-0.00592077,0.000177019,0.000270879,4.75004e-05,-9.0044e-05,0.000157189,1,0,0,0,0,0,0
1683057403.539573679,162,1683057403.539573679,-0.00694641,-0.00141722,-0.000308458,0.000252929,-8.34232e-05,-4.26513e-05,1,0,0,0,0,0,0
1683057403.619340559,163,1683057403.619340559,-0.00599925,0.00191428,0.00108204,4.64239e-05,-6.82438e-05,0.000264134,1,0,0,0,0,0,0
1683057403.637342674,164,1683057403.637342674,-0.00583606,0.000974389,0.00229972,0.000314043,-2.36871e-06,3.00393e-05,1,0,0,0,0,0,0
1683057403.711766324,165,1683057403.711766324,-0.00403649,0.0008782,0.00138187,4.44838e-05,-0.000111289,0.000216511,1,0,0,0,0,0,0
1683057403.737858235,166,1683057403.737858235,-0.00412786,0.000880904,0.00203037,0.000304135,-9.27653e-05,-2.84484e-05,1,0,0,0,0,0,0
1683057403.823550778,167,1683057403.823550778,-0.00431129,0.00155378,0.00339424,3.82108e-05,-3.12815e-05,0.000246668,1,0,0,0,0,0,0
1683057403.837788008,168,1683057403.837788008,-0.0042343,0.000237612,0.00506273,0.0002418,-3.83455e-05,2.60445e-05,1,0,0,0,0,0,0
1683057403.921573194,169,1683057403.921573194,-0.00492608,0.00192564,0.00434216,9.14022e-05,-1.41418e-05,0.000244182,1,0,0,0,0,0,0
1683057403.936632759,170,1683057403.936632759,-0.00470457,0.000677073,0.00503401,0.000281434,-2.63244e-05,5.41654e-05,1,0,0,0,0,0,0
1683057404.024369697,171,1683057404.024369697,-0.00354091,0.00301098,0.00282315,3.38701e-05,-3.94311e-05,0.000141846,1,0,0,0,0,0,0
1683057404.039178144,172,1683057404.039178144,-0.0032293,0.0020306,0.00283678,0.00019615,1.36757e-05,-4.59987e-05,1,0,0,0,0,0,0
1683057404.132034692,173,1683057404.132034692,-0.00139449,0.000904732,0.0036534,1.06454e-05,1.8773e-05,0.000195742,1,0,0,0,0,0,0
1683057404.146509535,174,1683057404.146509535,-0.00159887,-0.00031104,0.00425207,0.000198965,9.54319e-05,3.54668e-05,1,0,0,0,0,0,0
1683057404.234447504,175,1683057404.234447504,-0.00352934,-2.14563e-05,0.00555283,4.11843e-05,1.57725e-05,0.000283908,1,0,0,0,0,0,0
1683057404.247101948,176,1683057404.247101948,-0.00404078,-0.000117353,0.00672376,0.000157367,-1.753e-05,0.000112471,1,0,0,0,0,0,0
1683057404.333650588,177,1683057404.333650588,-0.00447522,-0.000324123,0.00677935,8.06514e-05,2.55982e-05,0.000206752,1,0,0,0,0,0,0
1683057404.347135948,178,1683057404.347135948,-0.0047184,-0.000692838,0.00734924,0.000210842,4.75686e-05,5.7074e-05,1,0,0,0,0,0,0
1683057404.439684182,179,1683057404.439684182,-0.00495969,0.000874,0.00538134,8.21059e-05,3.7225e-05,0.000219986,1,0,0,0,0,0,0
1683057404.452553754,180,1683057404.452553754,-0.00508573,-4.98705e-05,0.00547868,0.000167505,3.00203e-05,0.000116331,1,0,0,0,0,0,0
1683057404.520728070,181,1683057404.520728070,-0.00590406,0.00286856,0.00100352,6.5979e-05,-8.73911e-05,0.000198741,1,0,0,0,0,0,0
1683057404.539215847,182,1683057404.539215847,-0.00660581,0.00301795,-0.000551277,0.000388458,-3.04654e-05,2.36011e-05,1,0,0,0,0,0,0
1683057404.610497755,183,1683057404.610497755,-0.00807291,0.00278714,-0.000152004,1.40294e-05,-9.542e-05,0.000179898,1,0,0,0,0,0,0
1683057404.640890159,184,1683057404.640890159,-0.00896902,0.000664129,-2.01132e-05,0.00029107,-0.000136764,-1.27597e-06,1,0,0,0,0,0,0
1683057404.710648352,185,1683057404.710648352,-0.00967235,-8.73226e-05,0.000812342,6.54537e-05,-3.26759e-05,0.000312017,1,0,0,0,0,0,0
1683057404.736842580,186,1683057404.736842580,-0.0106945,-0.00321401,0.00180266,0.000311234,2.11218e-05,9.9699e-05,1,0,0,0,0,0,0
1683057404.810139041,187,1683057404.810139041,-0.011065,0.00142224,0.000944205,7.3343e-05,-9.17532e-05,0.000291311,1,0,0,0,0,0,0
1683057404.836965559,188,1683057404.836965559,-0.011698,0.00195162,0.00171241,0.000250636,-2.52932e-05,9.22521e-05,1,0,0,0,0,0,0
1683057404.922086261,189,1683057404.922086261,-0.00997045,0.00214167,0.00390174,1.74699e-05,-4.57486e-05,0.000286392,1,0,0,0,0,0,0
1683057404.938704723,190,1683057404.938704723,-0.00987923,0.000822412,0.0054187,0.00023921,7.92667e-05,9.06397e-05,1,0,0,0,0,0,0
1683057405.020540865,191,1683057405.020540865,-0.00987272,0.00160215,0.00316747,4.34875e-05,-7.92988e-05,0.000256311,1,0,0,0,0,0,0
1683057405.037574967,192,1683057405.037574967,-0.00962315,0.00065748,0.00371305,0.000256151,-4.14012e-05,4.86954e-05,1,0,0,0,0,0,0
1683057405.120728731,193,1683057405.120728731,-0.00818125,-0.000320101,0.00409058,7.55932e-05,-1.56852e-05,0.000265353,1,0,0,0,0,0,0
1683057405.137707989,194,1683057405.137707989,-0.00822256,-0.00123942,0.00491081,0.000288915,4.21631e-05,6.74571e-05,1,0,0,0,0,0,0
1683057405.233546455,195,1683057405.233546455,-0.00564387,0.000556513,0.00488983,6.05403e-05,1.63429e-05,0.000283129,1,0,0,0,0,0,0
1683057405.245210583,196,1683057405.245210583,-0.005558,3.75137e-05,0.00550417,0.000196313,2.27139e-05,0.000127336,1,0,0,0,0,0,0
1683057405.312076000,197,1683057405.312076000,-0.00729899,0.000524083,0.000518689,7.33505e-05,-0.000104565,0.000171681,1,0,0,0,0,0,0
1683057405.336990496,198,1683057405.336990496,-0.00749771,-0.00118379,-0.00122386,0.00033775,-4.87516e-05,-2.17552e-05,1,0,0,0,0,0,0
1683057405.412723795,199,1683057405.412723795,-0.00756776,9.53544e-05,-0.00123861,3.13827e-05,-0.000118503,0.000256781,1,0,0,0,0,0,0
1683057405.436744517,200,1683057405.436744517,-0.00783075,-0.00149795,-0.00121833,0.000321226,-8.38815e-05,3.58401e-05,1,0,0,0,0,0,0
1683057405.513444722,201,1683057405.513444722,-0.00638972,0.00145776,-0.000525904,7.57414e-05,-8.09014e-05,0.000192976,1,0,0,0,0,0,0
1683057405.566768468,202,1683057405.566768468,-0.00646074,0.000262293,0.000544739,0.000332096,-6.05717e-05,1.00377e-06,1,0,0,0,0,0,0
1683057405.717230025,203,1683057405.717230025,-0.00714979,0.000417789,-0.000575473,6.90888e-05,-0.000116173,0.000265523,1,0,0,0,0,0,0
1683057405.735343533,204,1683057405.735343533,-0.00728199,-0.00150549,-6.31077e-05,0.000284133,-6.84779e-05,8.53996e-05,1,0,0,0,0,0,0
1683057405.796879575,205,1683057405.796879575,-0.00737607,0.00152076,0.00295633,2.64386e-05,-5.11434e-05,0.00019022,1,0,0,0,0,0,0
1683057405.826467740,206,1683057405.826467740,-0.00777479,0.000881908,0.00471219,0.000235179,3.58443e-07,-2.25467e-05,1,0,0,0,0,0,0
1683057405.889955494,207,1683057405.889955494,-0.0061168,0.00143467,0.00314356,4.82452e-05,-7.56904e-05,0.000295127,1,0,0,0,0,0,0
1683057405.917335993,208,1683057405.917335993,-0.00611854,0.000685454,0.00397169,0.000285637,-1.04837e-05,8.39966e-05,1,0,0,0,0,0,0
1683057405.938421483,209,1683057405.938421483,-0.00754252,0.000830059,0.00352318,6.25912e-05,-3.78608e-05,0.000245355,1,0,0,0,0,0,0
1683057405.954538300,210,1683057405.954538300,-0.00795588,0.00033346,0.0042232,0.000309139,-3.38159e-05,3.32274e-05,1,0,0,0,0,0,0
1683057406.031541532,211,1683057406.031541532,-0.00726469,-0.000370338,0.00449299,5.49721e-05,3.10876e-05,0.000238629,1,0,0,0,0,0,0
1683057406.048126664,212,1683057406.048126664,-0.00782995,-0.00127989,0.00522587,0.000201559,3.9348e-05,7.65403e-05,1,0,0,0,0,0,0
1683057406.187016481,213,1683057406.187016481,-0.00629984,-0.000419312,0.00489399,5.2307e-05,2.55372e-05,0.000266872,1,0,0,0,0,0,0
1683057406.201739250,214,1683057406.201739250,-0.00684597,-0.000719435,0.00549997,0.00022817,4.47685e-05,7.85506e-05,1,0,0,0,0,0,0
1683057406.243441315,215,1683057406.243441315,-0.00681384,-0.00103821,0.00568519,0.000107389,1.68314e-05,0.000264154,1,0,0,0,0,0,0
1683057406.256836369,216,1683057406.256836369,-0.00758479,-0.00164338,0.00597096,0.000220523,5.25191e-05,0.000158232,1,0,0,0,0,0,0
1683057406.367579762,217,1683057406.367579762,-0.0080579,-0.00131738,0.000959298,9.19925e-05,-8.16045e-05,0.000272409,1,0,0,0,0,0,0
1683057406.403439873,218,1683057406.403439873,-0.00894539,-0.00296298,-0.000824337,0.000370091,-5.62377e-05,7.73815e-05,1,0,0,0,0,0,0
1683057406.436064895,219,1683057406.436064895,-0.00511302,0.000412246,-0.00104508,6.65134e-05,-5.67265e-05,0.000303896,1,0,0,0,0,0,0
1683057406.470080026,220,1683057406.470080026,-0.00577708,0.000187577,-0.00126972,0.00029961,-6.47092e-05,0.000133746,1,0,0,0,0,0,0
1683057406.514873399,221,1683057406.514873399,-0.00574829,0.000560517,0.000510335,5.82236e-05,-4.08598e-05,0.000271509,1,0,0,0,0,0,0
1683057406.549552692,222,1683057406.549552692,-0.00657767,-0.0011258,0.0017399,0.000339029,5.11544e-05,9.16796e-05,1,0,0,0,0,0,0
1683057406.612473059,223,1683057406.612473059,-0.00536495,0.000322525,0.000707089,8.70057e-05,-7.30529e-05,0.00022715,1,0,0,0,0,0,0
1683057406.650366701,224,1683057406.650366701,-0.00563631,-0.00135266,0.00148613,0.000333676,-3.2124e-05,3.59043e-05,1,0,0,0,0,0,0
1683057406.725301134,225,1683057406.725301134,-0.00760188,-0.00118985,0.00278145,2.45399e-05,-5.18374e-05,0.000320491,1,0,0,0,0,0,0
1683057406.743286251,226,1683057406.743286251,-0.00872034,-0.00286735,0.0038473,0.000240445,-7.46159e-06,0.000113613,1,0,0,0,0,0,0
1683057406.826607497,227,1683057406.826607497,-0.0093069,-0.00122028,0.00197186,5.34718e-05,-4.89098e-05,0.000312731,1,0,0,0,0,0,0
1683057406.840272951,228,1683057406.840272951,-0.010265,-0.00232322,0.00219901,0.000225769,-2.75305e-05,0.00011123,1,0,0,0,0,0,0
1683057406.921926442,229,1683057406.921926442,-0.00987548,-0.00105519,0.0025507,9.02611e-05,9.36318e-06,0.00035212,1,0,0,0,0,0,0
1683057406.936841675,230,1683057406.936841675,-0.0105568,-0.00216817,0.00311152,0.000249187,6.21322e-05,0.000173781,1,0,0,0,0,0,0
1683057407.034096799,231,1683057407.034096799,-0.0094486,-0.00228121,0.00443151,4.10523e-05,-2.15171e-06,0.000367156,1,0,0,0,0,0,0
1683057407.051647187,232,1683057407.051647187,-0.0100285,-0.00360872,0.00534671,0.00021662,2.54036e-05,0.000207231,1,0,0,0,0,0,0
1683057407.137946408,233,1683057407.137946408,-0.0087532,-0.001652,0.00480361,4.48526e-05,-1.87945e-05,0.000299389,1,0,0,0,0,0,0
1683057407.155261588,234,1683057407.155261588,-0.00929795,-0.00249564,0.00522994,0.000192493,4.3055e-06,0.000163064,1,0,0,0,0,0,0
1683057407.232821498,235,1683057407.232821498,-0.00953487,-0.00253969,0.00389464,6.12771e-05,3.90277e-05,0.000329155,1,0,0,0,0,0,0
1683057407.245397829,236,1683057407.245397829,-0.0102009,-0.003447,0.00395553,0.000184052,2.47576e-05,0.000191924,1,0,0,0,0,0,0
1683057407.341740307,237,1683057407.341740307,-0.00697424,-0.00298794,0.0026718,3.33697e-05,1.04513e-05,0.000262368,1,0,0,0,0,0,0
1683057407.354876128,238,1683057407.354876128,-0.00703468,-0.00369692,0.00283278,0.000104998,1.96971e-05,0.000165282,1,0,0,0,0,0,0
1683057407.415792812,239,1683057407.415792812,-0.00817554,0.000284571,0.00037754,5.93692e-05,-0.000106815,0.000269544,1,0,0,0,0,0,0
1683057407.438584680,240,1683057407.438584680,-0.00880861,0.0007985,-0.000122433,0.000331694,2.64997e-05,6.61969e-05,1,0,0,0,0,0,0
1683057407.512009067,241,1683057407.512009067,-0.00924094,0.00201864,-0.000217455,5.26621e-05,-7.56395e-05,0.000204693,1,0,0,0,0,0,0
1683057407.536837414,242,1683057407.536837414,-0.0103229,0.0012002,0.000370092,0.000285983,-6.04274e-05,-2.57337e-05,1,0,0,0,0,0,0
1683057407.610283163,243,1683057407.610283163,-0.00850532,0.000248079,-0.000633006,8.71755e-05,-5.72444e-05,0.0002504,1,0,0,0,0,0,0
1683057407.636944282,244,1683057407.636944282,-0.00877085,-0.00247465,-8.37153e-05,0.000325586,-5.55864e-06,5.91566e-05,1,0,0,0,0,0,0
1683057407.711154295,245,1683057407.711154295,-0.00719038,0.000420166,-0.000614042,5.74934e-05,-6.49856e-05,0.00031009,1,0,0,0,0,0,0
1683057407.736688572,246,1683057407.736688572,-0.00735466,-0.000291828,0.000188215,0.000278375,-2.67258e-05,6.02326e-05,1,0,0,0,0,0,0
1683057407.819301062,247,1683057407.819301062,-0.00949198,-0.00151629,0.00196222,4.41487e-05,-5.75933e-05,0.000360169,1,0,0,0,0,0,0
1683057407.836643546,248,1683057407.836643546,-0.0100336,-0.00329432,0.0034592,0.000294452,2.10272e-05,0.000128315,1,0,0,0,0,0,0
1683057407.922933133,249,1683057407.922933133,-0.00907253,-0.00141445,0.00201236,7.3374e-05,-7.34983e-05,0.000331286,1,0,0,0,0,0,0
1683057407.936713500,250,1683057407.936713500,-0.00948019,-0.00244401,0.00230886,0.000282817,-5.21696e-05,0.000144982,1,0,0,0,0,0,0
1683057408.018807441,251,1683057408.018807441,-0.00895905,-5.52022e-05,0.00158945,5.1459e-05,-2.25371e-05,0.00032057,1,0,0,0,0,0,0
1683057408.035812708,252,1683057408.035812708,-0.00936869,-0.000321741,0.00194559,0.000239251,6.148e-07,0.00014661,1,0,0,0,0,0,0
1683057408.130949691,253,1683057408.130949691,-0.0107274,-0.00106191,0.00459069,3.20363e-05,3.95267e-05,0.000328038,1,0,0,0,0,0,0
1683057408.144159547,254,1683057408.144159547,-0.0113366,-0.00190439,0.00571167,0.000177249,5.90668e-05,0.000183184,1,0,0,0,0,0,0
1683057408.230584815,255,1683057408.230584815,-0.00886124,-0.00103565,0.00544184,6.83012e-05,4.20192e-05,0.000276336,1,0,0,0,0,0,0
1683057408.242662968,256,1683057408.242662968,-0.00908799,-0.00154764,0.00592224,0.000185396,8.82748e-05,0.000141116,1,0,0,0,0,0,0
1683057408.332203500,257,1683057408.332203500,-0.00839522,-0.00238215,0.00446063,0.000110171,4.21011e-05,0.000322609,1,0,0,0,0,0,0
1683057408.343774125,258,1683057408.343774125,-0.00886679,-0.00345451,0.00416576,0.000260442,6.34187e-05,0.000185252,1,0,0,0,0,0,0
1683057408.441057148,259,1683057408.441057148,-0.00908748,-0.00252136,0.00343943,6.96615e-05,6.38446e-07,0.000319967,1,0,0,0,0,0,0
1683057408.453540418,260,1683057408.453540418,-0.00943631,-0.00332624,0.00350074,0.000191698,-2.27371e-05,0.000210467,1,0,0,0,0,0,0
1683057408.511963927,261,1683057408.511963927,-0.00882454,-0.00308776,0.000698547,0.00010275,-5.43147e-05,0.00025141,1,0,0,0,0,0,0
1683057408.535740458,262,1683057408.535740458,-0.0092483,-0.00483148,-0.000208446,0.000422323,7.38351e-06,2.99786e-05,1,0,0,0,0,0,0
1683057408.612390670,263,1683057408.612390670,-0.00823151,-0.00127954,-0.00194503,7.87921e-05,-7.46387e-05,0.000200021,1,0,0,0,0,0,0
1683057408.637078042,264,1683057408.637078042,-0.0085668,-0.00112965,-0.00253463,0.000308524,-6.5268e-06,-3.41006e-05,1,0,0,0,0,0,0
1683057408.712357059,265,1683057408.712357059,-0.00900454,-0.0010166,-0.00191958,3.46055e-05,-8.26392e-05,0.000312184,1,0,0,0,0,0,0
1683057408.737720290,266,1683057408.737720290,-0.00978493,-0.00187331,-0.00140878,0.000346298,2.69145e-05,0.000102602,1,0,0,0,0,0,0
1683057408.823479700,267,1683057408.823479700,-0.0083876,-0.00145759,0.000966012,-6.45851e-06,-6.44894e-05,0.000269331,1,0,0,0,0,0,0
1683057408.839794364,268,1683057408.839794364,-0.00890485,-0.00361974,0.00281079,0.00022265,-8.44725e-05,5.78574e-05,1,0,0,0,0,0,0
1683057408.926233392,269,1683057408.926233392,-0.00989474,-0.000827363,0.00151794,5.18537e-05,-5.15254e-05,0.000298667,1,0,0,0,0,0,0
1683057408.938343987,270,1683057408.938343987,-0.010346,-0.0020794,0.00210077,0.000291791,7.81588e-06,0.000109169,1,0,0,0,0,0,0
1683057409.021211582,271,1683057409.021211582,-0.00876975,-0.000187611,0.0017172,6.02225e-05,-2.58366e-05,0.000273227,1,0,0,0,0,0,0
1683057409.037526131,272,1683057409.037526131,-0.00880429,-0.00153982,0.00217873,0.000257397,6.83016e-06,7.51102e-05,1,0,0,0,0,0,0
1683057409.122488377,273,1683057409.122488377,-0.00899891,-0.000893182,0.00211626,3.65754e-05,-3.64904e-05,0.000405715,1,0,0,0,0,0,0
1683057409.136580891,274,1683057409.136580891,-0.0093303,-0.00232997,0.0024538,0.00023215,4.66224e-05,0.000219502,1,0,0,0,0,0,0
1683057409.230804628,275,1683057409.230804628,-0.00914608,-0.000824719,0.00201548,-1.02143e-05,-1.94364e-05,0.000337425,1,0,0,0,0,0,0
1683057409.242727974,276,1683057409.242727974,-0.00940228,-0.00152193,0.00241719,0.000162406,2.2528e-05,0.000188556,1,0,0,0,0,0,0
1683057409.332716252,277,1683057409.332716252,-0.00981821,-0.000172407,0.00339181,3.33547e-05,1.15647e-05,0.000288224,1,0,0,0,0,0,0
1683057409.344416414,278,1683057409.344416414,-0.0102373,-0.000627067,0.00396837,0.000116186,-1.0207e-05,0.00017952,1,0,0,0,0,0,0
1683057409.412105967,279,1683057409.412105967,-0.00952918,5.76815e-05,7.51509e-05,9.05137e-05,-4.82082e-05,0.000196502,1,0,0,0,0,0,0
1683057409.436272714,280,1683057409.436272714,-0.0103471,-0.000882879,-0.000829437,0.000378625,2.837e-06,-4.48646e-05,1,0,0,0,0,0,0
1683057409.510125680,281,1683057409.510125680,-0.0065207,0.00206794,-0.00196149,4.52852e-05,-6.59895e-05,0.000206977,1,0,0,0,0,0,0
1683057409.535862946,282,1683057409.535862946,-0.00628188,0.00169821,-0.00239193,0.000330661,3.66459e-07,-3.49202e-06,1,0,0,0,0,0,0
1683057409.612665182,283,1683057409.612665182,-0.00438995,0.00276537,-0.00213749,4.25626e-05,-0.000120283,0.000205694,1,0,0,0,0,0,0
1683057409.635863707,284,1683057409.635863707,-0.00418405,0.00185,-0.00178053,0.000290336,-7.10749e-05,-1.98162e-05,1,0,0,0,0,0,0
1683057409.723974374,285,1683057409.723974374,-0.00880645,-0.000804944,0.00172966,1.72689e-05,-3.34985e-05,0.000374948,1,0,0,0,0,0,0
1683057409.737538443,286,1683057409.737538443,-0.0101141,-0.00350571,0.00329294,0.000225229,-1.08859e-05,0.000170683,1,0,0,0,0,0,0
1683057409.823034543,287,1683057409.823034543,-0.00926681,-0.000500295,0.00274947,7.25896e-05,-3.19641e-06,0.00032971,1,0,0,0,0,0,0
1683057409.838390294,288,1683057409.838390294,-0.010151,-0.000989722,0.00336906,0.000267105,2.65066e-05,0.000122234,1,0,0,0,0,0,0
1683057409.922648827,289,1683057409.922648827,-0.0109719,-0.00200464,0.000636811,4.7357e-05,-6.73083e-05,0.000402724,1,0,0,0,0,0,0
1683057409.936680037,290,1683057409.936680037,-0.0120886,-0.00311372,0.0003259,0.000216158,-1.71713e-06,0.000228807,1,0,0,0,0,0,0
1683057410.024860588,291,1683057410.024860588,-0.0112422,-0.00166955,-0.000392122,2.10088e-05,-0.000102699,0.000298318,1,0,0,0,0,0,0
1683057410.037601374,292,1683057410.037601374,-0.0119829,-0.00207707,-0.000239611,0.000172832,-3.81985e-05,0.000146458,1,0,0,0,0,0,0
1683057410.133529892,293,1683057410.133529892,-0.0105311,-0.000514639,0.00246134,9.21218e-06,-1.43583e-05,0.000338444,1,0,0,0,0,0,0
1683057410.146426264,294,1683057410.146426264,-0.0110592,-0.0009307,0.0035438,0.000142234,4.41007e-06,0.000193029,1,0,0,0,0,0,0
1683057410.235969925,295,1683057410.235969925,-0.0103095,-9.23646e-05,0.0042043,5.85085e-05,4.60105e-05,0.000301503,1,0,0,0,0,0,0
1683057410.252273137,296,1683057410.252273137,-0.0106455,-0.000748708,0.00483156,0.000145177,3.67601e-05,0.000163761,1,0,0,0,0,0,0
1683057410.331103641,297,1683057410.331103641,-0.00954224,-0.00154653,0.00351527,4.79526e-05,3.22059e-05,0.000309667,1,0,0,0,0,0,0
1683057410.342705900,298,1683057410.342705900,-0.00985656,-0.00243263,0.00343823,0.000128452,6.79616e-05,0.000207961,1,0,0,0,0,0,0
1683057410.414557802,299,1683057410.414557802,-0.00985006,0.000144239,-0.00112194,8.7994e-05,-5.98643e-05,0.000214309,1,0,0,0,0,0,0
1683057410.439695795,300,1683057410.439695795,-0.0102081,0.000271547,-0.00356498,0.000336815,-3.93448e-05,9.78415e-07,1,0,0,0,0,0,0
1683057410.514291105,301,1683057410.514291105,-0.00916713,-0.000273336,-0.00279249,2.30851e-05,-0.000106925,0.00032586,1,0,0,0,0,0,0
1683057410.546354023,302,1683057410.546354023,-0.00934887,-0.00123953,-0.00367674,0.000330486,-3.72105e-05,9.81136e-05,1,0,0,0,0,0,0
1683057410.629205200,303,1683057410.629205200,-0.0110578,-0.00148472,-0.0036,6.96205e-05,-0.000119818,0.000298516,1,0,0,0,0,0,0
1683057410.644762188,304,1683057410.644762188,-0.0122326,-0.00265669,-0.00338444,0.000367727,-0.000108628,5.96082e-05,1,0,0,0,0,0,0
1683057410.710498945,305,1683057410.710498945,-0.0115918,-0.000556634,-0.00248996,6.44381e-05,-9.37891e-05,0.00031309,1,0,0,0,0,0,0
1683057410.739977695,306,1683057410.739977695,-0.0125687,-0.000871507,-0.00141425,0.000299731,3.49061e-05,0.000104802,1,0,0,0,0,0,0
1683057410.821248527,307,1683057410.821248527,-0.0116336,0.000771803,-0.00138844,3.14044e-05,-0.000127585,0.000308811,1,0,0,0,0,0,0
1683057410.849731900,308,1683057410.849731900,-0.0124133,0.000200736,-0.000326731,0.000311645,-3.65603e-05,0.000111675,1,0,0,0,0,0,0
1683057410.947832753,309,1683057410.947832753,-0.0108703,-0.00033056,0.000994363,5.05452e-05,-5.27864e-05,0.000334131,1,0,0,0,0,0,0
1683057410.974399333,310,1683057410.974399333,-0.0113725,-0.00148941,0.00218989,0.000281251,1.28246e-05,0.000113965,1,0,0,0,0,0,0
1683057411.022126425,311,1683057411.022126425,-0.00946385,-0.000968403,0.00236912,8.18703e-05,-6.88037e-06,0.000364019,1,0,0,0,0,0,0
1683057411.039283297,312,1683057411.039283297,-0.00973202,-0.00165555,0.00310677,0.000256603,1.08119e-05,0.000206399,1,0,0,0,0,0,0
1683057411.124288062,313,1683057411.124288062,-0.0111288,0.000126188,0.000355795,8.42351e-05,-6.62216e-05,0.000345265,1,0,0,0,0,0,0
1683057411.138800142,314,1683057411.138800142,-0.0120102,-0.000117765,6.5915e-05,0.000214142,-1.26404e-05,0.000142579,1,0,0,0,0,0,0
1683057411.233838599,315,1683057411.233838599,-0.00992025,-0.000804396,0.00219464,4.19697e-05,-7.9302e-06,0.000356569,1,0,0,0,0,0,0
1683057411.263574808,316,1683057411.263574808,-0.0104286,-0.00157971,0.00303701,0.00020658,6.31051e-05,0.000212221,1,0,0,0,0,0,0
1683057411.331502385,317,1683057411.331502385,-0.0110133,-0.00148338,0.00415079,3.62563e-05,-1.40215e-05,0.000392613,1,0,0,0,0,0,0
1683057411.356966540,318,1683057411.356966540,-0.0115519,-0.0019325,0.00484108,0.000171436,-1.77038e-05,0.000273017,1,0,0,0,0,0,0
1683057411.432294239,319,1683057411.432294239,-0.0107825,-0.00285664,0.00416722,6.41602e-05,2.79972e-05,0.000336831,1,0,0,0,0,0,0
1683057411.447780173,320,1683057411.447780173,-0.0112599,-0.003409,0.00436825,0.000167796,4.13071e-05,0.00022953,1,0,0,0,0,0,0
1683057411.523743415,321,1683057411.523743415,-0.00969789,-0.00196365,-0.000727371,7.85313e-05,-9.02881e-05,0.000295867,1,0,0,0,0,0,0
1683057411.540872769,322,1683057411.540872769,-0.00933322,-0.00222683,-0.00352752,0.000279173,-3.91253e-05,6.30827e-05,1,0,0,0,0,0,0
1683057411.618489246,323,1683057411.618489246,-0.00948402,-0.00157161,-0.00189328,4.46815e-05,-3.26286e-05,0.00033797,1,0,0,0,0,0,0
1683057411.637469856,324,1683057411.637469856,-0.00935643,-0.00180773,-0.00272526,0.00032113,0.000105007,0.000168682,1,0,0,0,0,0,0
1683057411.712833318,325,1683057411.712833318,-0.00948196,-0.00170948,-0.0032925,8.68766e-05,-0.000122891,0.00035914,1,0,0,0,0,0,0
1683057411.735786121,326,1683057411.735786121,-0.0100576,-0.00254828,-0.00367004,0.000375574,-0.000116269,0.000159089,1,0,0,0,0,0,0
1683057411.822887293,327,1683057411.822887293,-0.00778643,-0.000725044,-0.00186316,8.92908e-05,-2.07226e-05,0.000273482,1,0,0,0,0,0,0
1683057411.842291469,328,1683057411.842291469,-0.00747138,-0.000786455,-0.00128945,0.000335478,3.58907e-05,6.55351e-05,1,0,0,0,0,0,0
1683057411.938750337,329,1683057411.938750337,-0.00472676,-0.000548962,0.000258636,6.73274e-05,-5.58939e-05,0.000269405,1,0,0,0,0,0,0
1683057411.951605767,330,1683057411.951605767,-0.00438561,-0.00107727,0.00104623,0.000187752,-5.48849e-06,8.34736e-05,1,0,0,0,0,0,0
1683057412.023734324,331,1683057412.023734324,-0.00675839,-0.00244013,9.85084e-05,5.81127e-05,-5.9044e-05,0.00026354,1,0,0,0,0,0,0
1683057412.039378487,332,1683057412.039378487,-0.00720837,-0.00319705,3.61201e-05,0.000210706,2.7572e-05,9.84369e-05,1,0,0,0,0,0,0
1683057412.132809323,333,1683057412.132809323,-0.00899802,-0.00217713,0.00274344,3.24402e-05,-4.79041e-05,0.00032652,1,0,0,0,0,0,0
1683057412.144875606,334,1683057412.144875606,-0.00979495,-0.00242056,0.00362871,0.000161811,6.91427e-06,0.000197196,1,0,0,0,0,0,0
1683057412.211164385,335,1683057412.211164385,-0.0101198,-0.00182329,-0.00178083,0.000130662,-5.36637e-05,0.000299468,1,0,0,0,0,0,0
1683057412.245677402,336,1683057412.245677402,-0.0106018,-0.00237835,-0.00415177,0.000369518,-2.24992e-05,6.43763e-05,1,0,0,0,0,0,0
1683057412.361984927,337,1683057412.361984927,-0.00716241,-4.22001e-05,-0.00282996,5.60811e-05,-6.66725e-05,0.000324494,1,0,0,0,0,0,0
1683057412.376020088,338,1683057412.376020088,-0.00673698,0.000146303,-0.00337726,0.000304085,2.61995e-05,0.000119396,1,0,0,0,0,0,0
1683057412.416398900,339,1683057412.416398900,-0.0092797,-8.41007e-05,-0.00242801,4.97073e-05,-7.75909e-05,0.000265255,1,0,0,0,0,0,0
1683057412.437938060,340,1683057412.437938060,-0.00966437,-0.000834965,-0.00205039,0.000282937,-2.7147e-06,5.05789e-05,1,0,0,0,0,0,0
1683057412.517148882,341,1683057412.517148882,-0.00996487,-0.00057892,0.0005439,2.78486e-05,-7.8041e-05,0.000348273,1,0,0,0,0,0,0
1683057412.537356279,342,1683057412.537356279,-0.010485,-0.00136296,0.00227536,0.000250214,-8.33467e-05,0.000145164,1,0,0,0,0,0,0
1683057412.619415802,343,1683057412.619415802,-0.00785427,-0.00267457,0.00105821,7.86056e-05,-5.40962e-05,0.000316734,1,0,0,0,0,0,0
1683057412.642192395,344,1683057412.642192395,-0.00784129,-0.00362978,0.00157951,0.000259959,-2.55135e-06,0.000129023,1,0,0,0,0,0,0
1683057412.726256648,345,1683057412.726256648,-0.00821361,-0.000540466,-0.00052656,3.86652e-05,-4.95396e-05,0.000287298,1,0,0,0,0,0,0
1683057412.737376554,346,1683057412.737376554,-0.00838396,6.8354e-05,-0.000659601,0.000197639,-5.84099e-05,8.17517e-05,1,0,0,0,0,0,0
1683057412.822068190,347,1683057412.822068190,-0.00915785,-0.000599071,-0.000516657,4.14227e-05,-7.78082e-05,0.000331569,1,0,0,0,0,0,0
1683057412.838104059,348,1683057412.838104059,-0.00943654,-0.00090163,-6.00358e-05,0.000272616,1.70989e-05,0.000173907,1,0,0,0,0,0,0
1683057412.940740988,349,1683057412.940740988,-0.0122929,-0.00341715,0.00219343,2.00708e-05,-4.57423e-05,0.000403363,1,0,0,0,0,0,0
1683057412.955528209,350,1683057412.955528209,-0.0135284,-0.00374063,0.00350663,0.000160678,-1.87745e-05,0.000258637,1,0,0,0,0,0,0
1683057413.033064180,351,1683057413.033064180,-0.00923237,-0.00297451,0.00409401,7.73394e-05,2.26219e-05,0.000302061,1,0,0,0,0,0,0
1683057413.044684737,352,1683057413.044684737,-0.00949488,-0.00261542,0.00490081,0.000161565,7.97966e-05,0.000148545,1,0,0,0,0,0,0
1683057413.112539545,353,1683057413.112539545,-0.0100629,-0.00170202,-0.000697195,8.40456e-05,-7.5358e-05,0.000307147,1,0,0,0,0,0,0
1683057413.135858902,354,1683057413.135858902,-0.00987241,-0.00159638,-0.00314484,0.000308455,6.50113e-06,6.39552e-05,1,0,0,0,0,0,0
1683057413.210328748,355,1683057413.210328748,-0.00988699,-0.00203695,-0.00256245,2.18476e-05,-8.07462e-05,0.000257634,1,0,0,0,0,0,0
1683057413.235629504,356,1683057413.235629504,-0.00983088,-0.00185665,-0.00332126,0.000288939,3.55777e-05,5.81284e-05,1,0,0,0,0,0,0
1683057413.312740685,357,1683057413.312740685,-0.00889172,0.000383957,-0.00174603,4.58932e-05,-5.28457e-05,0.000256904,1,0,0,0,0,0,0
1683057413.335293040,358,1683057413.335293040,-0.00844749,0.000976366,-0.00116772,0.000296914,3.50007e-05,1.99166e-05,1,0,0,0,0,0,0
1683057413.421772344,359,1683057413.421772344,-0.010223,-0.00117442,0.000775544,1.79627e-05,-5.13831e-05,0.000336493,1,0,0,0,0,0,0
1683057413.436227156,360,1683057413.436227156,-0.0105697,-0.0010431,0.00220883,0.00019895,-1.83901e-05,0.000138021,1,0,0,0,0,0,0
1683057413.520262678,361,1683057413.520262678,-0.00838304,-0.00100095,0.0010062,7.52076e-05,-2.33567e-05,0.000371302,1,0,0,0,0,0,0
1683057413.539745629,362,1683057413.539745629,-0.00836129,-0.00020512,0.00180086,0.000222348,-1.15218e-05,0.00018243,1,0,0,0,0,0,0
1683057413.630071110,363,1683057413.630071110,-0.00966209,-0.00155032,0.00185607,1.43222e-05,-4.51589e-05,0.000250426,1,0,0,0,0,0,0
1683057413.642341735,364,1683057413.642341735,-0.00998971,-0.00116639,0.00227911,0.00015446,-3.5497e-05,6.7936e-05,1,0,0,0,0,0,0
1683057413.731145499,365,1683057413.731145499,-0.00644641,-0.00180485,0.00228123,6.30412e-05,-7.53928e-06,0.000311458,1,0,0,0,0,0,0
1683057413.742690736,366,1683057413.742690736,-0.00615846,-0.00220102,0.0028058,0.00020196,9.16635e-05,0.000149714,1,0,0,0,0,0,0
1683057413.833160370,367,1683057413.833160370,-0.00866897,-0.00264651,0.0036015,6.52995e-05,-3.68294e-05,0.000328043,1,0,0,0,0,0,0
1683057413.844949982,368,1683057413.844949982,-0.00938118,-0.00211785,0.00418059,0.000125432,-2.8199e-05,0.000184489,1,0,0,0,0,0,0
1683057413.936162724,369,1683057413.936162724,-0.006886,-0.00282432,0.00435313,7.08737e-05,5.99286e-05,0.000369101,1,0,0,0,0,0,0
1683057413.947992083,370,1683057413.947992083,-0.00725255,-0.00219508,0.00464439,0.00016744,8.33518e-05,0.000254451,1,0,0,0,0,0,0
1683057414.010586991,371,1683057414.010586991,-0.00530217,-0.00152633,-0.00182401,9.03923e-05,-6.00634e-05,0.000208302,1,0,0,0,0,0,0
1683057414.035808249,372,1683057414.035808249,-0.00462261,-0.00134805,-0.00505257,0.000291389,-2.6885e-05,2.5984e-05,1,0,0,0,0,0,0
1683057414.113351459,373,1683057414.113351459,-0.00541419,-0.000204729,-0.00260756,5.44043e-05,-4.38168e-05,0.000313943,1,0,0,0,0,0,0
1683057414.136700881,374,1683057414.136700881,-0.00531856,-9.48392e-05,-0.00325649,0.00029721,6.48615e-05,7.96064e-05,1,0,0,0,0,0,0
1683057414.213153507,375,1683057414.213153507,-0.0071683,-0.000776949,-0.00321242,8.90284e-05,-0.000109899,0.000287572,1,0,0,0,0,0,0
1683057414.236857605,376,1683057414.236857605,-0.00740844,-0.00134964,-0.0032613,0.000292628,-8.29735e-05,7.92041e-05,1,0,0,0,0,0,0
1683057414.312200510,377,1683057414.312200510,-0.00813107,-0.0014987,-0.00255752,0.000148468,-2.82097e-05,0.00029268,1,0,0,0,0,0,0
1683057414.335648244,378,1683057414.335648244,-0.00858681,-0.00173487,-0.00233016,0.000390302,3.32044e-05,9.84741e-05,1,0,0,0,0,0,0
1683057414.422504722,379,1683057414.422504722,-0.0107825,-0.00144491,-0.000209329,4.95768e-05,-7.35788e-05,0.000349864,1,0,0,0,0,0,0
1683057414.436221392,380,1683057414.436221392,-0.0111671,-0.00138093,0.0012606,0.000250516,-6.96816e-05,0.000157919,1,0,0,0,0,0,0
1683057414.521272545,381,1683057414.521272545,-0.012564,-0.00319042,0.000459866,7.73876e-05,-6.71307e-05,0.00032181,1,0,0,0,0,0,0
1683057414.536838333,382,1683057414.536838333,-0.0133967,-0.00341708,0.000583662,0.0002611,3.66208e-05,0.000130071,1,0,0,0,0,0,0
1683057414.622959888,383,1683057414.622959888,-0.0133203,-0.000341624,-6.62339e-05,6.74214e-05,-4.90249e-05,0.000389841,1,0,0,0,0,0,0
1683057414.636129900,384,1683057414.636129900,-0.0133092,0.000433286,0.000335299,0.000214125,-1.58956e-05,0.000190806,1,0,0,0,0,0,0
1683057414.732151987,385,1683057414.732151987,-0.011046,-0.00157133,0.00272791,2.77694e-05,-2.55706e-05,0.000392443,1,0,0,0,0,0,0
1683057414.743386571,386,1683057414.743386571,-0.0108584,-0.00161381,0.00357273,0.000182429,3.2458e-05,0.000222452,1,0,0,0,0,0,0
1683057414.833799910,387,1683057414.833799910,-0.00970467,-0.00111862,0.0026048,8.12301e-05,4.30621e-06,0.000358889,1,0,0,0,0,0,0
1683057414.845257417,388,1683057414.845257417,-0.00968809,-0.00080699,0.00306344,0.000183075,2.44592e-05,0.000206393,1,0,0,0,0,0,0
1683057414.932428097,389,1683057414.932428097,-0.0102858,-0.0023221,0.00212039,0.000102465,-2.25942e-05,0.000388012,1,0,0,0,0,0,0
1683057414.943404243,390,1683057414.943404243,-0.0104001,-0.00196924,0.00227858,0.000197712,5.06852e-05,0.000253454,1,0,0,0,0,0,0
1683057415.042895871,391,1683057415.042895871,-0.00658999,-0.00371115,0.00358055,3.98107e-05,-1.4838e-05,0.000347021,1,0,0,0,0,0,0
1683057415.054795653,392,1683057415.054795653,-0.00643568,-0.00394265,0.00394443,0.000123135,5.06362e-06,0.000236996,1,0,0,0,0,0,0
1683057415.113991935,393,1683057415.113991935,-0.0081798,-0.00210881,-0.00161091,0.000151266,-3.74991e-05,0.000248225,1,0,0,0,0,0,0
1683057415.138763049,394,1683057415.138763049,-0.00792911,-0.00114075,-0.00438638,0.000436756,5.83419e-05,1.79413e-05,1,0,0,0,0,0,0
1683057415.214879825,395,1683057415.214879825,-0.00924245,0.000267139,-0.00290201,6.0064e-05,-6.23166e-05,0.000259226,1,0,0,0,0,0,0
1683057415.236767067,396,1683057415.236767067,-0.00906593,0.000639038,-0.00363488,0.000265114,-5.69573e-05,3.45191e-05,1,0,0,0,0,0,0
1683057415.314314543,397,1683057415.314314543,-0.0118563,-0.000559304,-0.00219878,6.9931e-05,-7.87983e-05,0.000258965,1,0,0,0,0,0,0
1683057415.339799256,398,1683057415.339799256,-0.012709,-0.000869322,-0.00195105,0.000318211,6.28031e-05,4.65875e-05,1,0,0,0,0,0,0
1683057415.411632260,399,1683057415.411632260,-0.0109799,-0.000579875,-0.00270178,9.27773e-05,-0.000106219,0.000342922,1,0,0,0,0,0,0
1683057415.436391649,400,1683057415.436391649,-0.0106028,-0.00116924,-0.00266184,0.000256136,-7.93832e-05,0.000130382,1,0,0,0,0,0,0
1683057415.520771433,401,1683057415.520771433,-0.00856236,-0.00185399,0.000232059,3.54865e-05,-5.96395e-05,0.000320814,1,0,0,0,0,0,0
1683057415.555588170,402,1683057415.555588170,-0.00810606,-0.00126315,0.00225261,0.000249115,1.55354e-05,0.000138088,1,0,0,0,0,0,0
1683057415.718398386,403,1683057415.718398386,-0.0084508,-0.0027103,0.00162718,8.86065e-05,-3.06316e-05,0.000348891,1,0,0,0,0,0,0
1683057415.738835651,404,1683057415.738835651,-0.00808202,-0.00311492,0.00239667,0.000275138,-6.72653e-05,0.000162237,1,0,0,0,0,0,0
1683057415.825059215,405,1683057415.825059215,-0.00756307,-0.0019668,0.00064984,0.00010175,-5.14741e-05,0.000349364,1,0,0,0,0,0,0
1683057415.853959731,406,1683057415.853959731,-0.00719769,-0.0018107,0.000572617,0.000321675,6.6383e-05,0.000144609,1,0,0,0,0,0,0
1683057415.995299138,407,1683057415.995299138,-0.0077112,-0.00155249,0.00231301,2.29457e-05,-4.45251e-05,0.000349097,1,0,0,0,0,0,0
1683057416.011937950,408,1683057416.011937950,-0.0081677,-0.000819079,0.00306264,0.000147049,3.50709e-06,0.000180326,1,0,0,0,0,0,0
1683057416.084495795,409,1683057416.084495795,-0.00806511,-0.00345881,0.00382969,4.1179e-05,-1.4764e-05,0.00036757,1,0,0,0,0,0,0
1683057416.099738366,410,1683057416.099738366,-0.00811706,-0.00408959,0.00487883,0.000162201,6.94133e-05,0.000220944,1,0,0,0,0,0,0
1683057416.114684722,411,1683057416.114684722,-0.00837491,-0.00362483,0.00336535,7.10359e-05,-2.16026e-05,0.000349365,1,0,0,0,0,0,0
1683057416.127165388,412,1683057416.127165388,-0.00899215,-0.00300623,0.00343938,0.000163002,-6.3514e-05,0.000211444,1,0,0,0,0,0,0
1683057416.148181804,413,1683057416.148181804,-0.00808266,-0.00304291,0.00410096,8.42911e-05,6.9272e-05,0.000358563,1,0,0,0,0,0,0
1683057416.161139160,414,1683057416.161139160,-0.0087547,-0.00191143,0.00446975,0.000155965,0.00014633,0.000227754,1,0,0,0,0,0,0
1683057416.201633386,415,1683057416.201633386,-0.00928912,-0.00107246,-0.000272744,0.000118949,-7.39436e-05,0.000283128,1,0,0,0,0,0,0
1683057416.240004073,416,1683057416.240004073,-0.00904616,-0.00014373,-0.00285699,0.000386955,-7.53016e-05,4.52525e-05,1,0,0,0,0,0,0
1683057416.314837053,417,1683057416.314837053,-0.00913997,-0.000896562,-0.00250635,5.36445e-05,-8.73815e-05,0.000250226,1,0,0,0,0,0,0
1683057416.339581112,418,1683057416.339581112,-0.00879208,-0.00147321,-0.00343066,0.00026184,-2.52891e-05,4.95707e-05,1,0,0,0,0,0,0
1683057416.414676995,419,1683057416.414676995,-0.00757277,-4.53255e-05,-0.00296133,8.73609e-05,-6.96838e-05,0.000267404,1,0,0,0,0,0,0
1683057416.443550123,420,1683057416.443550123,-0.00697053,-0.000229755,-0.00300559,0.000357722,5.76124e-06,6.41017e-05,1,0,0,0,0,0,0
1683057416.512483197,421,1683057416.512483197,-0.00875722,0.000700234,-0.00323528,0.000102713,-8.42493e-05,0.000288852,1,0,0,0,0,0,0
1683057416.538719497,422,1683057416.538719497,-0.00898602,0.000623224,-0.00311646,0.000311624,-0.000108906,6.70434e-05,1,0,0,0,0,0,0
1683057416.622585928,423,1683057416.622585928,-0.00839504,-0.000828772,-0.00114119,3.19297e-05,-7.96184e-05,0.000364782,1,0,0,0,0,0,0
1683057416.648416747,424,1683057416.648416747,-0.00813387,-0.00161193,0.000243699,0.000283432,1.84402e-05,0.00013821,1,0,0,0,0,0,0
1683057416.730357703,425,1683057416.730357703,-0.0064425,-0.000932373,0.000230253,4.0793e-05,-5.95856e-05,0.000326305,1,0,0,0,0,0,0
1683057416.749911043,426,1683057416.749911043,-0.00666655,-0.000751265,0.000551717,0.000220805,-6.8043e-05,0.000138338,1,0,0,0,0,0,0
1683057416.828610354,427,1683057416.828610354,-0.00488863,0.000760157,-0.00113841,4.48883e-05,-6.05847e-05,0.00031405,1,0,0,0,0,0,0
1683057416.839931102,428,1683057416.839931102,-0.00400866,0.00078178,-0.00146845,0.000245837,3.84406e-05,0.000108469,1,0,0,0,0,0,0
1683057416.934918988,429,1683057416.934918988,-0.00403244,-0.00138735,0.00196401,1.03911e-05,-2.3958e-05,0.000331334,1,0,0,0,0,0,0
1683057416.967553138,430,1683057416.967553138,-0.00397981,-0.00205123,0.00313611,9.85601e-05,-7.07795e-05,0.000130114,1,0,0,0,0,0,0
1683057417.057174378,431,1683057417.057174378,-0.00760221,-0.00151855,0.00155173,8.08959e-05,-5.40635e-06,0.000316187,1,0,0,0,0,0,0
1683057417.084719272,432,1683057417.084719272,-0.00817957,-0.00150781,0.00218253,0.000261512,0.000119113,0.000147891,1,0,0,0,0,0,0
1683057417.137216802,433,1683057417.137216802,-0.0092149,-0.00131449,0.00352507,4.95405e-05,-5.62279e-05,0.000332675,1,0,0,0,0,0,0
1683057417.148947357,434,1683057417.148947357,-0.00988707,-0.00125827,0.0037595,0.000119306,-1.47591e-05,0.000233128,1,0,0,0,0,0,0
1683057417.267986912,435,1683057417.267986912,-0.0112156,-0.00208728,0.00172468,9.26406e-05,6.90993e-06,0.000310259,1,0,0,0,0,0,0
1683057417.279958691,436,1683057417.279958691,-0.0119672,-0.00254548,0.00171984,0.000189956,5.34586e-05,0.000202412,1,0,0,0,0,0,0
1683057417.354584092,437,1683057417.354584092,-0.00843934,-0.000526393,-0.00260301,6.33474e-05,-0.00012649,0.000305012,1,0,0,0,0,0,0
1683057417.366473346,438,1683057417.366473346,-0.00779911,0.000311915,-0.00540837,0.000305605,-9.79405e-05,0.000116346,1,0,0,0,0,0,0
1683057417.444370682,439,1683057417.444370682,-0.00623856,0.000352657,-0.001993,4.4107e-05,-4.29103e-05,0.000284676,1,0,0,0,0,0,0
1683057417.456387214,440,1683057417.456387214,-0.00472877,0.000213514,-0.0017045,0.000323512,8.164e-05,3.02247e-05,1,0,0,0,0,0,0
1683057417.513416503,441,1683057417.513416503,-0.00803324,-0.000255572,-0.00204006,5.78389e-05,-8.15804e-05,0.000266051,1,0,0,0,0,0,0
1683057417.536154678,442,1683057417.536154678,-0.00849377,-0.000341545,-0.00123167,0.000275188,1.20496e-05,6.63251e-05,1,0,0,0,0,0,0
1683057417.618353694,443,1683057417.618353694,-0.0074925,-0.00131262,-0.00185749,9.27122e-05,-2.634e-05,0.000327601,1,0,0,0,0,0,0
1683057417.637428958,444,1683057417.637428958,-0.00802899,-0.00217105,-0.000902278,0.000321251,2.82893e-05,0.000145369,1,0,0,0,0,0,0
1683057417.724839001,445,1683057417.724839001,-0.00952947,-0.000569564,-0.000614248,5.80225e-05,-5.83691e-05,0.000336448,1,0,0,0,0,0,0
1683057417.741665204,446,1683057417.741665204,-0.010133,-0.000305742,2.20394e-06,0.000254793,-2.80503e-05,0.000123273,1,0,0,0,0,0,0
1683057417.823427071,447,1683057417.823427071,-0.00910398,-0.00276338,-1.22551e-05,2.46927e-05,-7.16418e-05,0.000371423,1,0,0,0,0,0,0
1683057417.841134765,448,1683057417.841134765,-0.00950256,-0.00480507,0.000858953,0.000223454,9.44337e-06,0.000172666,1,0,0,0,0,0,0
1683057417.922530664,449,1683057417.922530664,-0.00924782,-0.00132685,0.00100317,6.75781e-05,-6.31258e-05,0.000337544,1,0,0,0,0,0,0
1683057417.936309555,450,1683057417.936309555,-0.00951822,-0.000932453,0.00099292,0.000234897,-1.31632e-05,0.000163953,1,0,0,0,0,0,0
1683057418.022463278,451,1683057418.022463278,-0.00810016,-0.000544167,-0.000307532,5.70852e-05,-1.28157e-05,0.000370332,1,0,0,0,0,0,0
1683057418.037086012,452,1683057418.037086012,-0.00844844,-0.000650451,0.000146365,0.000189676,4.66632e-05,0.000189763,1,0,0,0,0,0,0
1683057418.133100689,453,1683057418.133100689,-0.00720041,-0.00142036,0.00156141,3.26756e-05,-2.56483e-05,0.000381708,1,0,0,0,0,0,0
