%time,field.header.seq,field.header.stamp,field.pose.position.x,field.pose.position.y,field.pose.position.z,field.pose.orientation.x,field.pose.orientation.y,field.pose.orientation.z,field.pose.orientation.w,field.twist.twist.linear.x,field.twist.twist.linear.y,field.twist.twist.linear.z,field.twist.twist.angular.x,field.twist.twist.angular.y,field.twist.twist.angular.z
1609045333348801840,0,1609045333348801840,0.000261657,-0.000294875,0.000176824,3.38379e-05,-3.99452e-05,1.33415e-05,1,0,0,0,0,0,0
1609045333451408127,1,1609045333451408127,0.000737624,-0.000728036,0.000749484,0.000116332,-0.000118499,-2.10098e-05,1,0,0,0,0,0,0
1609045333554259442,2,1609045333554259442,0.00126294,-0.000333972,0.000484506,0.000147728,-3.13205e-05,-6.88154e-05,1,0,0,0,0,0,0
1609045333657127079,3,1609045333657127079,0.000902955,-0.000826822,0.00148277,0.000102666,-0.000113851,-5.66251e-05,1,0,0,0,0,0,0
1609045333760306807,4,1609045333760306807,0.000757302,0.0013527,0.00104721,8.51885e-05,-8.34553e-05,-6.58303e-06,1,0,0,0,0,0,0
1609045333863747823,5,1609045333863747823,-0.00111472,-0.00133113,0.00125665,0.000136887,-6.48015e-05,4.03647e-07,1,0,0,0,0,0,0
1609045333934010280,6,1609045333934010280,-0.00232454,-0.00251198,0.00139488,0.000169616,-7.90479e-06,-3.09038e-05,1,0,0,0,0,0,0
1609045334035312750,7,1609045334035312750,-0.00144931,0.000205982,-0.000123176,0.000122039,-6.89943e-05,-9.07565e-05,1,0,0,0,0,0,0
1609045334138331775,8,1609045334138331775,-0.00156757,0.00173109,-0.00164886,0.000103984,-9.51347e-05,-9.37215e-05,1,0,0,0,0,0,0
1609045334241468648,9,1609045334241468648,-0.000390784,0.000859714,-0.00280093,0.000155072,-7.59751e-05,-4.77365e-05,1,0,0,0,0,0,0
1609045334344986375,10,1609045334344986375,-2.29621e-05,0.00128745,0.000154253,7.46864e-05,-6.19699e-05,-4.90485e-07,1,0,0,0,0,0,0
1609045334448817033,11,1609045334448817033,-0.00187409,-0.000995467,0.000520067,0.000103633,-4.90825e-05,3.69021e-05,1,0,0,0,0,0,0
1609045334550580743,12,1609045334550580743,-0.00264981,-0.000276941,-2.1617e-05,6.56514e-05,-8.66566e-05,0.000131284,1,0,0,0,0,0,0
1609045334654011082,13,1609045334654011082,-0.00105342,0.00259237,0.0010314,0.000141594,-4.19837e-05,2.52152e-05,1,0,0,0,0,0,0
1609045334756903906,14,1609045334756903906,-0.000813203,0.00218745,0.00260945,0.000112794,-3.72624e-06,-3.43439e-05,1,0,0,0,0,0,0
1609045334860278746,15,1609045334860278746,0.00220176,-0.000598945,0.00216829,9.00907e-05,1.80478e-05,5.98359e-06,1,0,0,0,0,0,0
1609045334962992249,16,1609045334962992249,0.00128818,-0.001042,0.00117113,0.000110566,-3.8644e-05,6.7969e-05,1,0,0,0,0,0,0
1609045335036881994,17,1609045335036881994,-4.56914e-05,-0.00157017,0.0023407,0.000166386,1.00629e-05,0.000129014,1,0,0,0,0,0,0
1609045335140093684,18,1609045335140093684,-0.00448964,0.000995344,-0.000793986,0.000199087,-0.000104948,1.99695e-05,1,0,0,0,0,0,0
1609045335243832046,19,1609045335243832046,-0.00303685,0.000211392,-0.00112091,0.00011461,-8.95374e-05,4.78306e-05,1,0,0,0,0,0,0
1609045335346648794,20,1609045335346648794,-0.00559746,-0.00017667,0.000491544,7.60785e-05,-7.58969e-05,0.000239292,1,0,0,0,0,0,0
1609045335450445708,21,1609045335450445708,-0.00528175,0.00151991,0.000686088,9.0952e-05,-6.36039e-05,9.6732e-05,1,0,0,0,0,0,0
1609045335553537074,22,1609045335553537074,-0.00424384,0.00241595,0.000498064,0.000103651,-5.44315e-05,0.000173738,1,0,0,0,0,0,0
1609045335657122533,23,1609045335657122533,-0.00655954,-4.75606e-05,0.000973621,9.65377e-05,-4.14165e-06,0.00022447,1,0,0,0,0,0,0
1609045335758650635,24,1609045335758650635,-0.00320104,-0.000105802,0.0021524,0.000123936,-1.95007e-05,9.3223e-05,1,0,0,0,0,0,0
1609045335861435989,25,1609045335861435989,-0.00305439,-3.89055e-05,0.00193775,0.000122362,-2.44267e-05,0.000173656,1,0,0,0,0,0,0
1609045335933333316,26,1609045335933333316,-0.00425782,-0.000920319,0.00292382,0.000161903,2.25079e-06,5.31401e-05,1,0,0,0,0,0,0
1609045336033698866,27,1609045336033698866,-0.00576413,0.00169826,-0.000678861,0.000128811,-0.000102156,0.000203443,1,0,0,0,0,0,0
1609045336137942855,28,1609045336137942855,-0.00687617,0.00140306,-0.00192769,0.000124106,-0.000124475,0.000227354,1,0,0,0,0,0,0
1609045336240868301,29,1609045336240868301,-0.00967468,8.49409e-05,-0.00152228,0.000110787,-8.88395e-05,0.000163132,1,0,0,0,0,0,0
1609045336342889199,30,1609045336342889199,-0.00662302,0.00172954,-0.0014671,0.000148432,-0.000113942,0.000266754,1,0,0,0,0,0,0
1609045336445773839,31,1609045336445773839,-0.00630348,-0.000446779,0.000656331,0.000116615,-6.42696e-05,0.000112669,1,0,0,0,0,0,0
1609045336550275340,32,1609045336550275340,-0.00586914,0.00207481,0.000474114,8.41727e-05,-9.67464e-05,0.000210573,1,0,0,0,0,0,0
1609045336652543720,33,1609045336652543720,-0.00271397,0.00276667,0.00156414,0.000140798,-3.08625e-05,0.000209588,1,0,0,0,0,0,0
1609045336755619516,34,1609045336755619516,-0.0047566,0.000128598,0.00222928,9.65368e-05,-7.83024e-06,0.000142258,1,0,0,0,0,0,0
1609045336858505284,35,1609045336858505284,-0.00348606,-0.000650993,0.00279524,0.000125098,-2.2972e-07,0.000157704,1,0,0,0,0,0,0
1609045336961292435,36,1609045336961292435,-0.00463325,0.00144173,0.00210289,0.000111535,-5.97703e-05,0.000160532,1,0,0,0,0,0,0
1609045337034416236,37,1609045337034416236,-0.00617706,0.00130257,0.00249164,0.000170591,3.02686e-05,0.000234201,1,0,0,0,0,0,0
1609045337133888768,38,1609045337133888768,-0.00983368,0.00220261,-0.000780182,0.000159957,-8.83293e-05,0.000211899,1,0,0,0,0,0,0
1609045337237661233,39,1609045337237661233,-0.00845549,0.00280489,-0.00135681,0.000139812,-9.11798e-05,0.000204301,1,0,0,0,0,0,0
1609045337339965043,40,1609045337339965043,-0.00576385,0.00263906,-0.00127017,0.000134984,-0.00011627,0.000228936,1,0,0,0,0,0,0
1609045337442790301,41,1609045337442790301,-0.0053374,0.0030339,-0.000101565,0.000131723,-0.000114911,0.000190983,1,0,0,0,0,0,0
1609045337550874594,42,1609045337550874594,-0.00653557,0.0020901,0.00149555,0.000105847,-4.09835e-05,0.000300698,1,0,0,0,0,0,0
1609045337653517084,43,1609045337653517084,-0.00809714,0.00262356,0.00168093,0.000178704,-3.71813e-05,0.000223414,1,0,0,0,0,0,0
1609045337758701331,44,1609045337758701331,-0.00753068,0.00118718,0.00292277,0.000152652,3.76218e-06,0.000265019,1,0,0,0,0,0,0
1609045337861159235,45,1609045337861159235,-0.00551241,0.00135524,0.00346749,0.000155911,-2.7053e-05,0.000187794,1,0,0,0,0,0,0
1609045337964150116,46,1609045337964150116,-0.000748369,0.00454611,0.00333953,0.000159403,4.22236e-05,0.000178023,1,0,0,0,0,0,0
1609045338033470182,47,1609045338033470182,-0.00441283,0.00175747,0.00303552,0.000187344,2.73849e-05,0.000187475,1,0,0,0,0,0,0
1609045338135342352,48,1609045338135342352,-0.0075309,0.00189505,-0.000143324,0.000148815,-8.21236e-05,0.000167065,1,0,0,0,0,0,0
1609045338240126520,49,1609045338240126520,-0.00847268,0.00298664,-0.000854841,9.74853e-05,-0.000126397,0.000294941,1,0,0,0,0,0,0
1609045338341446165,50,1609045338341446165,-0.00933333,0.00463327,-0.000560815,0.000156845,-7.3738e-05,9.856e-05,1,0,0,0,0,0,0
1609045338446226256,51,1609045338446226256,-0.00560651,0.00116992,0.00226636,0.000130399,-6.87408e-06,0.000174986,1,0,0,0,0,0,0
1609045338552102091,52,1609045338552102091,-0.00509489,0.00313052,0.00290589,0.000165439,-3.12749e-05,0.000162562,1,0,0,0,0,0,0
1609045338655307359,53,1609045338655307359,-0.00894142,0.00213693,0.00460158,0.000146021,-7.5885e-06,0.000234648,1,0,0,0,0,0,0
1609045338758886290,54,1609045338758886290,-0.00798758,0.000965638,0.00442762,0.000140471,1.8316e-05,0.000289027,1,0,0,0,0,0,0
1609045338861420384,55,1609045338861420384,-0.00219842,0.00182083,0.00371054,0.000175892,6.53952e-05,0.000117387,1,0,0,0,0,0,0
1609045338933745887,56,1609045338933745887,-0.00396755,0.000768374,0.00351072,0.000214432,7.21183e-05,0.000262532,1,0,0,0,0,0,0
1609045339033212980,57,1609045339033212980,-0.00871063,0.00182195,-5.3538e-05,0.000149671,-7.6288e-05,0.000194976,1,0,0,0,0,0,0
1609045339136552111,58,1609045339136552111,-0.00753778,0.00454518,-0.000209041,0.000126672,-4.39699e-05,0.000257389,1,0,0,0,0,0,0
1609045339239628696,59,1609045339239628696,-0.010788,0.00192859,0.000510303,0.000167041,-6.4823e-05,0.000266174,1,0,0,0,0,0,0
1609045339343123773,60,1609045339343123773,-0.0120456,0.000805987,0.000508479,0.000205009,-6.43479e-05,0.000236811,1,0,0,0,0,0,0
1609045339445812238,61,1609045339445812238,-0.0107726,0.00193953,0.00165271,9.89774e-05,-6.20994e-05,0.000279431,1,0,0,0,0,0,0
1609045339548739986,62,1609045339548739986,-0.0111718,0.00087057,0.00170746,0.000156657,-3.45343e-05,0.000308841,1,0,0,0,0,0,0
1609045339651870893,63,1609045339651870893,-0.00997307,0.00169383,0.00259925,0.000157211,-1.59928e-05,0.000262476,1,0,0,0,0,0,0
1609045339758233429,64,1609045339758233429,-0.0089039,0.00148541,0.00383734,0.000118736,4.13268e-05,0.000286647,1,0,0,0,0,0,0
1609045339858290330,65,1609045339858290330,-0.00731416,0.0005953,0.00342103,0.00016307,1.5855e-05,0.000289139,1,0,0,0,0,0,0
1609045339961101515,66,1609045339961101515,-0.00314589,0.00153075,0.00383909,0.000146342,4.03975e-05,0.00016034,1,0,0,0,0,0,0
1609045340032992629,67,1609045340032992629,-0.00730898,0.000497442,0.00404041,0.000219006,6.23316e-05,0.000249491,1,0,0,0,0,0,0
1609045340133539304,68,1609045340133539304,-0.00711371,0.00318914,0.000382229,0.000168751,-5.41398e-05,0.000153601,1,0,0,0,0,0,0
1609045340237145459,69,1609045340237145459,-0.00437958,0.00304343,-0.00079399,0.000114634,-5.48938e-05,0.000107618,1,0,0,0,0,0,0
1609045340339724833,70,1609045340339724833,-0.00784978,0.00120167,-7.56001e-05,0.000147028,-9.24746e-05,0.00025889,1,0,0,0,0,0,0
1609045340442773242,71,1609045340442773242,-0.00981737,0.000936113,-0.000205662,0.000173162,-0.000114422,0.000235981,1,0,0,0,0,0,0
1609045340546105457,72,1609045340546105457,-0.00623517,0.00147236,0.0016327,0.000139811,-1.21472e-05,0.00025271,1,0,0,0,0,0,0
1609045340649161791,73,1609045340649161791,-0.00677695,0.0019021,0.00170388,0.000143796,-5.8369e-05,0.000198441,1,0,0,0,0,0,0
1609045340754080604,74,1609045340754080604,-0.00545994,0.00111597,0.00262611,0.000134679,-4.53707e-05,0.000197941,1,0,0,0,0,0,0
1609045340855360345,75,1609045340855360345,-0.00484305,0.000308702,0.00274311,0.000134958,2.38449e-05,0.000228125,1,0,0,0,0,0,0
1609045340958522376,76,1609045340958522376,-0.00726275,0.000440562,0.0040801,0.000178337,6.19806e-05,0.000319315,1,0,0,0,0,0,0
1609045341062419645,77,1609045341062419645,-0.00455794,0.00149079,0.00369394,0.000171716,6.22965e-05,0.000238263,1,0,0,0,0,0,0
1609045341133512727,78,1609045341133512727,-0.00976161,0.00076881,0.00381804,0.00019725,8.32753e-06,0.000270684,1,0,0,0,0,0,0
1609045341233565143,79,1609045341233565143,-0.0131032,0.00100475,3.1335e-05,0.000160102,-8.14485e-05,0.000232282,1,0,0,0,0,0,0
1609045341337487823,80,1609045341337487823,-0.0106721,-0.000135395,-0.000740276,0.000172881,-7.32825e-05,0.000220573,1,0,0,0,0,0,0
1609045341439461642,81,1609045341439461642,-0.0109939,0.00152325,-6.99327e-05,0.000147422,-5.96486e-05,0.000282304,1,0,0,0,0,0,0
1609045341543758735,82,1609045341543758735,-0.00551879,0.00122597,6.25396e-06,0.000147167,-9.42323e-05,0.00025868,1,0,0,0,0,0,0
1609045341645858638,83,1609045341645858638,-0.00624354,0.00202023,0.00213499,0.000143898,-1.47457e-05,0.000282026,1,0,0,0,0,0,0
1609045341748830484,84,1609045341748830484,-0.00819406,0.00233251,0.00313037,0.000202609,-1.00729e-06,0.000288907,1,0,0,0,0,0,0
1609045341852291177,85,1609045341852291177,-0.00730315,0.00237202,0.00216334,0.000163522,-1.86018e-05,0.000176305,1,0,0,0,0,0,0
1609045341954957247,86,1609045341954957247,-0.00599605,0.000822166,0.00260305,0.000131779,2.59589e-05,0.000230929,1,0,0,0,0,0,0
1609045342058225368,87,1609045342058225368,-0.00739742,-0.000458651,0.00436568,0.000159544,3.05179e-05,0.000361865,1,0,0,0,0,0,0
1609045342161844020,88,1609045342161844020,-0.00986805,-0.000795155,0.00583695,0.000195048,3.32907e-05,0.000265873,1,0,0,0,0,0,0
1609045342232941724,89,1609045342232941724,-0.00993347,0.000523892,0.00493622,0.000226793,5.45725e-05,0.000289303,1,0,0,0,0,0,0
1609045342333453700,90,1609045342333453700,-0.00937298,0.00206348,0.000358001,0.000193568,-7.84441e-05,0.000261903,1,0,0,0,0,0,0
1609045342436954943,91,1609045342436954943,-0.0128826,0.00220926,-0.00134077,0.000125811,-8.68081e-05,0.000250755,1,0,0,0,0,0,0
1609045342540521104,92,1609045342540521104,-0.0146308,-0.000113033,-0.000572107,0.000168675,-2.24205e-05,0.000364594,1,0,0,0,0,0,0
1609045342642505278,93,1609045342642505278,-0.0168687,0.000980553,-0.000463585,0.000187586,-9.26547e-05,0.000325588,1,0,0,0,0,0,0
1609045342745962502,94,1609045342745962502,-0.0156538,0.00123775,0.00185607,0.000118506,-3.05045e-05,0.000423976,1,0,0,0,0,0,0
1609045342849233953,95,1609045342849233953,-0.0179224,0.000217908,0.00111676,0.000157547,-7.8369e-05,0.000345785,1,0,0,0,0,0,0
1609045342954205413,96,1609045342954205413,-0.0146611,-0.000160772,0.00269956,0.000185997,-7.57479e-06,0.000368324,1,0,0,0,0,0,0
1609045343033104257,97,1609045343033104257,-0.010254,-0.000201414,0.00413673,0.00019766,2.90682e-05,0.000371537,1,0,0,0,0,0,0
1609045343133380431,98,1609045343133380431,-0.00928144,0.000719019,-0.000528402,0.000204144,-8.08756e-05,0.000181053,1,0,0,0,0,0,0
1609045343236848341,99,1609045343236848341,-0.00941731,1.31204e-05,-0.00236411,0.000136292,-0.00010661,0.00028305,1,0,0,0,0,0,0
1609045343339487350,100,1609045343339487350,-0.00918127,0.00137965,-0.00142083,0.000204222,-6.66115e-05,0.00021183,1,0,0,0,0,0,0
1609045343443235894,101,1609045343443235894,-0.0142577,0.000464714,-0.00166844,0.000189382,-0.000118382,0.000337751,1,0,0,0,0,0,0
1609045343545778106,102,1609045343545778106,-0.0152645,0.000434724,0.00158911,0.000147774,-4.99264e-05,0.000258169,1,0,0,0,0,0,0
1609045343648859831,103,1609045343648859831,-0.0121929,0.000356232,0.00202257,0.000183251,-6.40066e-05,0.000382482,1,0,0,0,0,0,0
1609045343753595104,104,1609045343753595104,-0.0139223,0.000794815,0.00233633,0.000186109,-3.14112e-05,0.00032241,1,0,0,0,0,0,0
1609045343854918286,105,1609045343854918286,-0.0138158,-0.000535143,0.00323362,0.000166637,3.20437e-05,0.000298687,1,0,0,0,0,0,0
1609045343962770516,106,1609045343962770516,-0.0122234,-0.000774592,0.00387852,0.000170246,2.82639e-05,0.000311775,1,0,0,0,0,0,0
1609045344032966014,107,1609045344032966014,-0.0132898,-0.00210879,0.00450256,0.000227157,2.27504e-05,0.000370176,1,0,0,0,0,0,0
1609045344135595890,108,1609045344135595890,-0.0145904,-0.00193594,-0.000181412,0.000206443,-7.99364e-05,0.000300494,1,0,0,0,0,0,0
1609045344237783511,109,1609045344237783511,-0.0116992,6.86439e-05,-0.00215058,0.000181183,-6.45454e-05,0.000332834,1,0,0,0,0,0,0
1609045344340911982,110,1609045344340911982,-0.0100899,2.59232e-05,-0.000106822,0.00018848,-2.72127e-05,0.000286438,1,0,0,0,0,0,0
1609045344444251477,111,1609045344444251477,-0.00911029,-7.46038e-05,-0.000315021,0.000211897,-6.71956e-05,0.000313776,1,0,0,0,0,0,0
1609045344547606511,112,1609045344547606511,-0.0127105,-0.0011116,0.00171668,0.000143813,-3.53311e-05,0.000356463,1,0,0,0,0,0,0
1609045344650313554,113,1609045344650313554,-0.0146637,-0.000731845,0.00115056,0.000187719,-3.96144e-05,0.000364532,1,0,0,0,0,0,0
1609045344753411880,114,1609045344753411880,-0.0148959,-0.00172355,0.0016126,0.000226615,1.84663e-05,0.000423962,1,0,0,0,0,0,0
1609045344856489234,115,1609045344856489234,-0.0144718,-0.00227331,0.00339613,0.000162858,5.51263e-06,0.000440375,1,0,0,0,0,0,0
1609045344959580776,116,1609045344959580776,-0.0150893,-0.00155056,0.00392506,0.000180282,-9.46358e-06,0.000380205,1,0,0,0,0,0,0
1609045345064863021,117,1609045345064863021,-0.0149877,-0.00254824,0.00313213,0.000196157,3.88454e-05,0.000424438,1,0,0,0,0,0,0
1609045345133845112,118,1609045345133845112,-0.0124395,-0.00233118,0.00152838,0.000133784,1.86252e-05,0.000387351,1,0,0,0,0,0,0
1609045345235021969,119,1609045345235021969,-0.0132614,0.000588106,-0.000904989,0.00017702,-0.000106194,0.000371863,1,0,0,0,0,0,0
1609045345337998674,120,1609045345337998674,-0.0153064,0.00227851,-0.00138021,0.000165043,-7.17458e-05,0.000298219,1,0,0,0,0,0,0
1609045345441191372,121,1609045345441191372,-0.0153968,0.00021738,-0.00198539,0.00019794,-6.13046e-05,0.000327726,1,0,0,0,0,0,0
1609045345544755271,122,1609045345544755271,-0.0136449,0.000697967,-0.0016809,0.000174173,-6.62418e-05,0.000423076,1,0,0,0,0,0,0
1609045345647147953,123,1609045345647147953,-0.0152442,-0.000926848,0.00115872,0.00017676,-5.30517e-05,0.00047427,1,0,0,0,0,0,0
1609045345750727221,124,1609045345750727221,-0.0151093,-0.000657511,0.000470849,0.000179676,-7.38089e-05,0.000453008,1,0,0,0,0,0,0
1609045345853605062,125,1609045345853605062,-0.0147051,-0.000427155,0.000401536,0.000172078,-2.61897e-05,0.000426234,1,0,0,0,0,0,0
1609045345956710336,126,1609045345956710336,-0.0169512,-0.00123783,0.00352843,0.000160963,4.39035e-05,0.000408846,1,0,0,0,0,0,0
1609045346059508582,127,1609045346059508582,-0.0157439,-0.000571882,0.00452453,0.000188393,4.26411e-05,0.000431865,1,0,0,0,0,0,0
1609045346162642933,128,1609045346162642933,-0.0161453,-0.00181501,0.00337669,0.00023558,3.19292e-05,0.000459498,1,0,0,0,0,0,0
1609045346234099899,129,1609045346234099899,-0.0164911,-0.00120707,0.00259057,0.000202884,4.96066e-06,0.000431135,1,0,0,0,0,0,0
1609045346336392983,130,1609045346336392983,-0.0134531,-0.00131956,-0.000488509,0.000223176,-5.39048e-05,0.000309242,1,0,0,0,0,0,0
1609045346439334769,131,1609045346439334769,-0.0119188,-0.00031458,-0.00286025,0.000196763,-6.52613e-05,0.00026616,1,0,0,0,0,0,0
1609045346542101244,132,1609045346542101244,-0.0130555,-0.00116308,-0.00245754,0.000170259,-7.94675e-05,0.000378108,1,0,0,0,0,0,0
1609045346644128131,133,1609045346644128131,-0.0121811,-0.00179636,0.000207934,0.000119825,-6.36812e-05,0.000360143,1,0,0,0,0,0,0
1609045346747209980,134,1609045346747209980,-0.016273,-0.000954761,0.000798016,0.000170785,-4.8252e-05,0.000423976,1,0,0,0,0,0,0
1609045346850269992,135,1609045346850269992,-0.0141998,2.66927e-05,0.000902107,0.000184632,-2.06062e-05,0.000363887,1,0,0,0,0,0,0
1609045346956470099,136,1609045346956470099,-0.0154577,-0.000927732,0.00104568,0.000164021,-4.01865e-05,0.000464267,1,0,0,0,0,0,0
1609045347061722613,137,1609045347061722613,-0.0165114,-0.000549021,0.0012332,0.000100588,-1.96111e-05,0.000478857,1,0,0,0,0,0,0
1609045347133174611,138,1609045347133174611,-0.0162481,0.000333681,0.00265511,0.000157938,1.89683e-05,0.000356335,1,0,0,0,0,0,0
1609045347233131213,139,1609045347233131213,-0.0147379,0.000723091,-0.000585113,0.000218996,-4.10654e-05,0.00030511,1,0,0,0,0,0,0
1609045347336453616,140,1609045347336453616,-0.0134415,0.00140066,-0.00288501,0.000163403,-6.89692e-05,0.00029333,1,0,0,0,0,0,0
1609045347443693918,141,1609045347443693918,-0.0109971,0.00229548,-0.00316869,0.000158692,-0.00011952,0.000322789,1,0,0,0,0,0,0
1609045347545498599,142,1609045347545498599,-0.0148131,-0.000170205,0.000955697,0.000145981,-3.78657e-05,0.000418323,1,0,0,0,0,0,0
1609045347648868296,143,1609045347648868296,-0.0152055,-0.00100555,0.00213972,0.000201084,-3.75892e-06,0.000415489,1,0,0,0,0,0,0
1609045347752139386,144,1609045347752139386,-0.0179458,-0.00213949,1.24721e-05,0.000180913,-6.30966e-05,0.000582341,1,0,0,0,0,0,0
1609045347856669716,145,1609045347856669716,-0.0180133,-0.00165132,-0.00122972,0.00014796,-9.22743e-05,0.000459567,1,0,0,0,0,0,0
1609045347957723281,146,1609045347957723281,-0.0174679,-0.00053903,0.00151859,0.000124424,-1.44207e-05,0.000480142,1,0,0,0,0,0,0
1609045348061068369,147,1609045348061068369,-0.0176591,-0.000581451,0.0034715,0.000183102,5.08719e-05,0.000444757,1,0,0,0,0,0,0
1609045348133418607,148,1609045348133418607,-0.0158267,-0.00184973,0.00282433,0.000184051,2.92579e-05,0.000479333,1,0,0,0,0,0,0
1609045348232813749,149,1609045348232813749,-0.0169102,0.000134682,-0.00200754,0.000209953,-5.89364e-05,0.000334695,1,0,0,0,0,0,0
1609045348336083941,150,1609045348336083941,-0.0159408,-8.9278e-05,-0.00349076,0.000142541,-0.000109962,0.000449085,1,0,0,0,0,0,0
1609045348439252345,151,1609045348439252345,-0.0184872,-0.00185621,-0.00410213,0.000194849,-0.000118636,0.000439578,1,0,0,0,0,0,0
1609045348542086435,152,1609045348542086435,-0.0187318,-1.63629e-05,-0.00364261,0.000168497,-9.54259e-05,0.000475767,1,0,0,0,0,0,0
1609045348645901599,153,1609045348645901599,-0.0200582,0.00116809,-0.00220866,0.000139134,-0.000126278,0.000404446,1,0,0,0,0,0,0
1609045348748370624,154,1609045348748370624,-0.0181794,-0.000969939,0.000320262,0.00016644,-5.87393e-05,0.000409239,1,0,0,0,0,0,0
1609045348851533809,155,1609045348851533809,-0.0178023,-0.00157271,0.00180027,0.000204518,-4.09618e-06,0.00045705,1,0,0,0,0,0,0
1609045348954504972,156,1609045348954504972,-0.0190211,-0.00017643,-0.00022078,0.000207895,-6.26394e-05,0.000427194,1,0,0,0,0,0,0
1609045349057685126,157,1609045349057685126,-0.0162524,0.000187043,0.00160025,0.000153059,-8.87652e-06,0.000469863,1,0,0,0,0,0,0
1609045349160915264,158,1609045349160915264,-0.0169653,-0.000929965,0.00381418,0.00017797,-5.77154e-06,0.000477235,1,0,0,0,0,0,0
1609045349233337181,159,1609045349233337181,-0.0151476,-0.00240853,0.0039912,0.000203526,3.16637e-05,0.000445719,1,0,0,0,0,0,0
1609045349332709694,160,1609045349332709694,-0.013038,-0.000767494,-0.0012802,0.000192359,-8.10557e-05,0.000387994,1,0,0,0,0,0,0
1609045349435904172,161,1609045349435904172,-0.0133508,-0.000261541,-0.00229873,0.00016307,-2.05107e-05,0.000467029,1,0,0,0,0,0,0
1609045349538886330,162,1609045349538886330,-0.0149487,-0.00166101,-0.00372119,0.000211795,-0.000122676,0.000434523,1,0,0,0,0,0,0
1609045349646875283,163,1609045349646875283,-0.0130457,-2.07963e-06,-0.00270299,0.000201384,-2.62536e-05,0.000414416,1,0,0,0,0,0,0
1609045349749678574,164,1609045349749678574,-0.0121984,-0.000239324,-0.000330459,0.000189701,-5.79031e-05,0.000404,1,0,0,0,0,0,0
1609045349859791316,165,1609045349859791316,-0.0140343,-0.00241908,-0.000443921,0.000191069,-5.47519e-05,0.000419557,1,0,0,0,0,0,0
1609045349934590373,166,1609045349934590373,-0.0152603,-0.00151898,0.00215126,0.000146971,-3.54249e-05,0.000407941,1,0,0,0,0,0,0
1609045350035774272,167,1609045350035774272,-0.0164832,-0.00130339,-0.00206884,0.000258604,-4.25016e-05,0.000415778,1,0,0,0,0,0,0
1609045350139122796,168,1609045350139122796,-0.0137097,-0.000497425,-0.00338306,0.00018607,-6.2127e-05,0.000425517,1,0,0,0,0,0,0
1609045350242171406,169,1609045350242171406,-0.0161188,-0.00028986,-0.00302883,0.00017668,-7.80772e-05,0.000375341,1,0,0,0,0,0,0
1609045350346286440,170,1609045350346286440,-0.0171554,-0.000872619,9.1974e-05,0.000149084,-6.936e-05,0.000507724,1,0,0,0,0,0,0
1609045350448590109,171,1609045350448590109,-0.0153723,-0.00260916,0.000332663,0.000196258,-4.60181e-05,0.000440685,1,0,0,0,0,0,0
1609045350550964356,172,1609045350550964356,-0.0148163,-0.000212457,-0.00114669,0.000158611,-5.2769e-05,0.000377613,1,0,0,0,0,0,0
1609045350654372284,173,1609045350654372284,-0.0161056,-0.00064347,-0.000975562,0.00015489,-8.23238e-05,0.000461066,1,0,0,0,0,0,0
1609045350757294824,174,1609045350757294824,-0.02066,-0.00393751,0.00155035,0.00013416,-4.63579e-05,0.000492709,1,0,0,0,0,0,0
1609045350832198524,175,1609045350832198524,-0.0170378,-0.0027485,0.00308772,0.000187425,2.23158e-05,0.000525592,1,0,0,0,0,0,0
1609045350935307209,176,1609045350935307209,-0.0167702,-0.00194472,-0.00153077,0.00019283,-7.7179e-05,0.000411987,1,0,0,0,0,0,0
1609045351038373711,177,1609045351038373711,-0.017294,-0.00212671,-0.00340851,0.000128393,-8.18943e-05,0.00030895,1,0,0,0,0,0,0
1609045351142491982,178,1609045351142491982,-0.0168479,-0.000189141,-0.00257798,0.000163694,-5.38255e-05,0.00035903,1,0,0,0,0,0,0
1609045351246604335,179,1609045351246604335,-0.0175151,-0.0020108,9.12346e-05,0.000142421,-4.99744e-05,0.000478691,1,0,0,0,0,0,0
1609045351352691730,180,1609045351352691730,-0.0156649,-0.00158185,0.00057725,0.000201757,-2.37844e-05,0.000475721,1,0,0,0,0,0,0
1609045351455860272,181,1609045351455860272,-0.0167654,-0.00209913,0.00119518,0.000130064,-3.69988e-05,0.000388349,1,0,0,0,0,0,0
1609045351558960132,182,1609045351558960132,-0.0148698,-0.00256244,0.00168015,0.000183987,-1.35457e-05,0.000445751,1,0,0,0,0,0,0
1609045351662139371,183,1609045351662139371,-0.0174456,-0.00257959,0.00309418,0.000178015,-3.63005e-05,0.000437105,1,0,0,0,0,0,0
1609045351733428057,184,1609045351733428057,-0.0157249,-0.00432511,0.00299795,0.00018184,4.69353e-05,0.000512852,1,0,0,0,0,0,0
1609045351833963332,185,1609045351833963332,-0.0127593,-0.00286617,-0.00271969,0.000201142,-7.22855e-05,0.000329047,1,0,0,0,0,0,0
1609045351937256915,186,1609045351937256915,-0.0119555,-0.000706021,-0.00321285,0.000167999,-4.41614e-05,0.000440737,1,0,0,0,0,0,0
1609045352041355923,187,1609045352041355923,-0.0128861,-0.00095297,-0.00374489,0.000208159,-9.74053e-05,0.000386309,1,0,0,0,0,0,0
1609045352143471456,188,1609045352143471456,-0.0150208,-0.00189898,-0.00407865,0.000241859,-3.61983e-05,0.000393145,1,0,0,0,0,0,0
1609045352247821602,189,1609045352247821602,-0.0184364,-0.00203733,-0.00108744,0.000152361,-7.83713e-05,0.000464296,1,0,0,0,0,0,0
1609045352351258818,190,1609045352351258818,-0.0201922,-0.00273125,-0.000166823,0.000183189,-7.79617e-05,0.000421452,1,0,0,0,0,0,0
1609045352453060502,191,1609045352453060502,-0.020145,-0.00166118,-0.000617007,0.000175972,-4.7543e-05,0.000493096,1,0,0,0,0,0,0
1609045352555871972,192,1609045352555871972,-0.0184396,-0.00212477,0.00188325,0.000143766,-3.08015e-05,0.000536339,1,0,0,0,0,0,0
1609045352658162422,193,1609045352658162422,-0.0166166,-0.00140804,0.00169403,0.000191057,-6.10291e-07,0.000468215,1,0,0,0,0,0,0
1609045352761680599,194,1609045352761680599,-0.0162517,-0.00198496,0.0012794,0.000220289,-2.40502e-05,0.000522837,1,0,0,0,0,0,0
1609045352831988320,195,1609045352831988320,-0.0139304,-0.00435297,0.00294044,0.000163822,-1.96344e-05,0.000470664,1,0,0,0,0,0,0
1609045352934341775,196,1609045352934341775,-0.015807,-0.00227181,-0.00226425,0.00026463,-3.58976e-05,0.000354412,1,0,0,0,0,0,0
1609045353037779825,197,1609045353037779825,-0.0161585,-9.75974e-05,-0.00350428,0.000177487,-6.45828e-05,0.000366479,1,0,0,0,0,0,0
1609045353140322372,198,1609045353140322372,-0.0168133,-0.000900336,-0.0027456,0.000182049,-7.29121e-05,0.000379803,1,0,0,0,0,0,0
1609045353243667422,199,1609045353243667422,-0.0164647,-0.001357,-0.00333461,0.000202151,-0.000106677,0.000495526,1,0,0,0,0,0,0
1609045353346687912,200,1609045353346687912,-0.0157719,-0.00203585,-0.000204166,0.000148912,-5.48843e-05,0.000469319,1,0,0,0,0,0,0
1609045353449727959,201,1609045353449727959,-0.0154461,-0.00307088,0.0012699,0.000202391,-3.2943e-05,0.000478651,1,0,0,0,0,0,0
1609045353553206008,202,1609045353553206008,-0.0143075,-0.00259568,0.0002803,0.000204813,-4.77571e-05,0.000515634,1,0,0,0,0,0,0
1609045353655855956,203,1609045353655855956,-0.0152838,-0.00173364,0.00152987,0.000127917,-5.60019e-05,0.000504647,1,0,0,0,0,0,0
1609045353758787959,204,1609045353758787959,-0.0154058,-0.00362889,0.00277762,0.00014372,-2.38617e-05,0.00050021,1,0,0,0,0,0,0
1609045353862223810,205,1609045353862223810,-0.0162312,-0.0031919,0.00265902,0.000184105,-2.16783e-05,0.00050581,1,0,0,0,0,0,0
1609045353932296081,206,1609045353932296081,-0.0168524,-0.00378524,0.00325297,0.00018464,6.15065e-05,0.000540627,1,0,0,0,0,0,0
1609045354034006678,207,1609045354034006678,-0.0171585,-0.00216886,-0.000890457,0.000224366,-7.8255e-05,0.00038152,1,0,0,0,0,0,0
1609045354137630540,208,1609045354137630540,-0.0178027,-0.00110923,-0.00279811,0.000173639,-8.81734e-05,0.000363134,1,0,0,0,0,0,0
1609045354240041135,209,1609045354240041135,-0.0156345,-0.00109113,-0.0035615,0.000192898,-7.57215e-05,0.000368107,1,0,0,0,0,0,0
1609045354345477887,210,1609045354345477887,-0.01439,-0.000254534,-0.00364045,0.000208253,-7.81334e-05,0.000367214,1,0,0,0,0,0,0
1609045354446232118,211,1609045354446232118,-0.0141261,-0.000976402,-0.00169934,0.000142495,-7.59437e-05,0.000467386,1,0,0,0,0,0,0
1609045354549063652,212,1609045354549063652,-0.0148727,-0.0019502,-0.000239787,0.00015687,-6.03629e-05,0.000443524,1,0,0,0,0,0,0
1609045354652084637,213,1609045354652084637,-0.015815,-0.000981529,-0.00150312,0.00015665,-6.89058e-05,0.00047059,1,0,0,0,0,0,0
1609045354755288363,214,1609045354755288363,-0.0136958,-0.00292919,0.00122638,0.000114439,-2.30335e-05,0.000520098,1,0,0,0,0,0,0
1609045354862078669,215,1609045354862078669,-0.017055,-0.00266027,0.000790485,0.000187613,-8.90945e-06,0.000448248,1,0,0,0,0,0,0
1609045354961490962,216,1609045354961490962,-0.0173363,-0.00194327,0.00261772,0.000164156,-6.26088e-05,0.000468547,1,0,0,0,0,0,0
1609045355032277603,217,1609045355032277603,-0.0181537,-0.00195022,0.00123024,0.000191781,-3.04584e-06,0.000478884,1,0,0,0,0,0,0
1609045355133394787,218,1609045355133394787,-0.0145723,-0.00235698,-0.00285656,0.000180366,-0.000119384,0.000422894,1,0,0,0,0,0,0
1609045355237012348,219,1609045355237012348,-0.0129518,-9.41519e-05,-0.00273282,0.000160214,-4.79203e-05,0.00038946,1,0,0,0,0,0,0
1609045355339962808,220,1609045355339962808,-0.0165427,-0.00106704,-0.00246888,0.000176889,-7.67035e-05,0.000406518,1,0,0,0,0,0,0
1609045355442709562,221,1609045355442709562,-0.0169712,-0.00200767,-0.00259538,0.000198706,-2.98628e-05,0.000431214,1,0,0,0,0,0,0
1609045355545970181,222,1609045355545970181,-0.0180663,-0.00132146,-0.0013523,0.000173787,-5.87908e-05,0.000476719,1,0,0,0,0,0,0
1609045355649053131,223,1609045355649053131,-0.0147606,-0.002726,-0.000562308,0.000130223,-7.00204e-05,0.000433652,1,0,0,0,0,0,0
1609045355752284467,224,1609045355752284467,-0.0162462,-0.00114818,0.000471539,0.000164221,-6.19862e-05,0.00043058,1,0,0,0,0,0,0
1609045355855209619,225,1609045355855209619,-0.0154266,-0.00145833,-0.000815064,0.000176987,-1.29847e-05,0.00049852,1,0,0,0,0,0,0
1609045355958298876,226,1609045355958298876,-0.01367,-0.00127335,0.000853625,0.000142994,-2.01802e-05,0.000470664,1,0,0,0,0,0,0
1609045356061548102,227,1609045356061548102,-0.0122586,-0.00178242,0.00206602,0.000193208,-1.38428e-05,0.000482442,1,0,0,0,0,0,0
1609045356131896013,228,1609045356131896013,-0.0144525,-0.00332332,0.00188334,0.00018659,-2.72239e-05,0.000488357,1,0,0,0,0,0,0
1609045356233950809,229,1609045356233950809,-0.0177748,-0.000322293,-0.00242994,0.00016022,-0.000150465,0.000426099,1,0,0,0,0,0,0
1609045356337673123,230,1609045356337673123,-0.0164262,-0.00291944,-0.00291381,0.0001568,-7.24372e-05,0.000478697,1,0,0,0,0,0,0
1609045356439819787,231,1609045356439819787,-0.0171877,-0.00223604,-0.00193821,0.000160372,-2.72621e-05,0.000507613,1,0,0,0,0,0,0
1609045356542840458,232,1609045356542840458,-0.0173452,-0.00292149,-0.00412064,0.000163412,-0.000123372,0.000418867,1,0,0,0,0,0,0
1609045356646822884,233,1609045356646822884,-0.0150735,-0.00228951,-0.0016314,0.000118396,-6.70771e-05,0.000400824,1,0,0,0,0,0,0
1609045356755345145,234,1609045356755345145,-0.0157817,-0.000636227,-0.00169668,0.000197827,-5.74672e-05,0.000498205,1,0,0,0,0,0,0
1609045356858776973,235,1609045356858776973,-0.0150017,-0.00182774,0.000813084,0.000165861,-1.71747e-05,0.000437857,1,0,0,0,0,0,0
1609045356962072761,236,1609045356962072761,-0.0156845,-0.000914901,0.00147472,0.000175352,-5.29739e-05,0.000543849,1,0,0,0,0,0,0
1609045357031393476,237,1609045357031393476,-0.0145151,-0.00130463,7.60244e-05,0.000191959,-1.41498e-05,0.000407258,1,0,0,0,0,0,0
1609045357135709932,238,1609045357135709932,-0.0138402,-0.000441209,-0.0032229,0.000172769,-0.000112084,0.000430651,1,0,0,0,0,0,0
1609045357238911050,239,1609045357238911050,-0.0142847,-0.00082906,-0.0024972,0.000154117,-7.58103e-05,0.000384791,1,0,0,0,0,0,0
1609045357340174750,240,1609045357340174750,-0.0143423,-0.00104264,-0.00266911,0.000191533,-9.10094e-05,0.000349909,1,0,0,0,0,0,0
1609045357443092620,241,1609045357443092620,-0.0165567,-0.00183671,-0.00256548,0.00017491,-8.1027e-05,0.000468128,1,0,0,0,0,0,0
1609045357546181604,242,1609045357546181604,-0.0164438,-0.00143713,-0.00108059,0.000163857,-6.09015e-05,0.000491376,1,0,0,0,0,0,0
1609045357649516562,243,1609045357649516562,-0.0137365,-0.0028527,-0.00164051,0.000179842,-8.81339e-05,0.00050451,1,0,0,0,0,0,0
1609045357752487234,244,1609045357752487234,-0.0134235,-0.0021254,-0.000773656,0.000135356,-6.54396e-05,0.000462295,1,0,0,0,0,0,0
1609045357855449276,245,1609045357855449276,-0.0125963,-0.00215974,0.00116328,0.000138479,-3.91672e-05,0.000544893,1,0,0,0,0,0,0
1609045357958674578,246,1609045357958674578,-0.010077,-4.24992e-05,0.00160289,0.000168247,-2.52498e-05,0.000453696,1,0,0,0,0,0,0
1609045358061515872,247,1609045358061515872,-0.0128663,-0.000443617,0.00190619,0.000222728,-1.37335e-06,0.000529177,1,0,0,0,0,0,0
1609045358131766432,248,1609045358131766432,-0.0127644,-0.000987815,0.00167826,0.000210519,-5.82277e-05,0.00043964,1,0,0,0,0,0,0
1609045358233575711,249,1609045358233575711,-0.0117824,-2.50564e-05,-0.0014171,0.000166307,-0.000101483,0.000319433,1,0,0,0,0,0,0
1609045358336685476,250,1609045358336685476,-0.0100401,0.000212206,-0.00320165,0.000193919,-5.82587e-05,0.000339232,1,0,0,0,0,0,0
1609045358440450801,251,1609045358440450801,-0.0100919,0.000630224,-0.00235312,0.0002011,-5.18358e-05,0.000367839,1,0,0,0,0,0,0
1609045358542962090,252,1609045358542962090,-0.0126564,-0.00155239,-0.00145766,0.000180553,-6.18523e-05,0.000373937,1,0,0,0,0,0,0
1609045358646140982,253,1609045358646140982,-0.0134728,-0.00283763,-0.00204156,0.000152438,-8.57996e-05,0.000447037,1,0,0,0,0,0,0
1609045358749271656,254,1609045358749271656,-0.012622,-0.00282969,-0.00092222,0.000169655,-3.94038e-05,0.000443816,1,0,0,0,0,0,0
1609045358852361650,255,1609045358852361650,-0.0112349,-0.00121947,-0.00024051,0.000169721,-2.46287e-05,0.000366853,1,0,0,0,0,0,0
1609045358955761405,256,1609045358955761405,-0.0130415,-0.00181783,-2.47737e-05,0.000154568,-5.6089e-05,0.000476978,1,0,0,0,0,0,0
1609045359058362411,257,1609045359058362411,-0.0125014,-0.00261648,0.001216,0.000141296,-4.21114e-05,0.000485369,1,0,0,0,0,0,0
1609045359160843410,258,1609045359160843410,-0.0125755,-0.00363867,0.00125142,0.000164018,1.88752e-05,0.00043494,1,0,0,0,0,0,0
1609045359231533405,259,1609045359231533405,-0.0120339,-0.00119252,0.00179698,0.000189154,-1.25525e-05,0.000441534,1,0,0,0,0,0,0
1609045359436570157,260,1609045359436570157,-0.0141142,-0.00136894,-0.00252413,0.00024152,-8.77177e-05,0.000409,1,0,0,0,0,0,0
1609045359436570157,261,1609045359436570157,-0.014256,-0.00180169,-0.0036665,0.000166488,-0.000117952,0.000455616,1,0,0,0,0,0,0
1609045359539655059,262,1609045359539655059,-0.0137091,-0.00132597,-0.00321479,0.000194468,-7.43969e-05,0.000412437,1,0,0,0,0,0,0
1609045359642843858,263,1609045359642843858,-0.0126484,-0.000661319,-0.00265174,0.000159373,-8.16144e-05,0.000402553,1,0,0,0,0,0,0
1609045359745853147,264,1609045359745853147,-0.0121325,-0.00212501,-0.00113864,0.000141707,-7.81173e-05,0.000531461,1,0,0,0,0,0,0
1609045359849003418,265,1609045359849003418,-0.0127684,-0.00170809,-0.00200873,0.000164762,-0.000106993,0.00049025,1,0,0,0,0,0,0
1609045359952252140,266,1609045359952252140,-0.0115785,-0.000637205,-0.000656445,0.000149377,-2.57982e-05,0.000459705,1,0,0,0,0,0,0
1609045360055291793,267,1609045360055291793,-0.0109129,-0.000776654,0.000718072,0.000209519,-1.4356e-05,0.000430746,1,0,0,0,0,0,0
1609045360158235687,268,1609045360158235687,-0.00953167,-0.0018771,0.00126175,0.000170093,4.30232e-06,0.000451491,1,0,0,0,0,0,0
1609045360261337455,269,1609045360261337455,-0.0130507,-0.00375146,0.000378344,0.000180121,-5.96791e-05,0.000550041,1,0,0,0,0,0,0
1609045360331643381,270,1609045360331643381,-0.0109451,-0.00134706,0.00132501,0.000184397,-4.84705e-05,0.000422247,1,0,0,0,0,0,0
1609045360433461210,271,1609045360433461210,-0.0125055,0.000211143,-0.00202091,0.000227506,-5.85027e-05,0.000407258,1,0,0,0,0,0,0
1609045360536498368,272,1609045360536498368,-0.0121196,-0.00146594,-0.0031507,0.000158957,-7.30481e-05,0.000397553,1,0,0,0,0,0,0
1609045360639825522,273,1609045360639825522,-0.0125086,-0.00130493,-0.00335959,0.000170237,-0.000109643,0.000375325,1,0,0,0,0,0,0
1609045360742610443,274,1609045360742610443,-0.0121539,-0.000502204,-0.00181313,0.000180991,-4.88371e-05,0.000447538,1,0,0,0,0,0,0
1609045360845783132,275,1609045360845783132,-0.0144417,-0.00138579,-0.00185127,0.000184588,-3.94456e-05,0.000430965,1,0,0,0,0,0,0
1609045360948768697,276,1609045360948768697,-0.015215,-0.00219691,-0.000728853,0.000168675,-4.72566e-05,0.000493753,1,0,0,0,0,0,0
1609045361051917961,277,1609045361051917961,-0.0150253,-0.000937408,-0.000942903,0.00016031,-9.31109e-05,0.000477217,1,0,0,0,0,0,0
1609045361154649397,278,1609045361154649397,-0.0132881,-0.000155094,-0.00121731,0.000133809,-8.24644e-05,0.00041836,1,0,0,0,0,0,0
1609045361257855997,279,1609045361257855997,-0.0112404,-0.000371405,0.0014027,0.000164224,-2.02475e-05,0.000521271,1,0,0,0,0,0,0
1609045361360918005,280,1609045361360918005,-0.010331,-0.000531677,0.00212176,0.000199901,-2.83979e-05,0.000488604,1,0,0,0,0,0,0
1609045361431264984,281,1609045361431264984,-0.0102402,-0.00252627,0.00118584,0.000219613,-3.52226e-05,0.000449573,1,0,0,0,0,0,0
1609045361533029100,282,1609045361533029100,-0.0106767,-0.00109868,-0.00206572,0.000222115,-7.23143e-05,0.000384522,1,0,0,0,0,0,0
1609045361636012600,283,1609045361636012600,-0.0125937,-0.000404809,-0.00173631,0.000149657,-2.3847e-05,0.000401416,1,0,0,0,0,0,0
1609045361739069057,284,1609045361739069057,-0.0144363,-0.000611464,-0.00304552,0.000154369,-0.000143913,0.000440147,1,0,0,0,0,0,0
1609045361842687221,285,1609045361842687221,-0.0118337,0.000433452,-0.00234005,0.000139846,-5.9325e-05,0.000471365,1,0,0,0,0,0,0
1609045361945674739,286,1609045361945674739,-0.0125744,0.000784585,-0.0014925,0.000166781,-5.70558e-05,0.000446851,1,0,0,0,0,0,0
1609045362048807830,287,1609045362048807830,-0.0129836,-0.00143267,-0.000136947,0.000137396,-2.28391e-05,0.000464001,1,0,0,0,0,0,0
1609045362151858497,288,1609045362151858497,-0.0109067,-0.00111336,-0.000194049,0.000176311,-2.34515e-05,0.000490153,1,0,0,0,0,0,0
1609045362255241532,289,1609045362255241532,-0.0119826,-0.000836615,-0.00152457,0.000162167,-0.000105541,0.000489069,1,0,0,0,0,0,0
1609045362358287092,290,1609045362358287092,-0.0109038,-0.00219963,0.00167084,0.000127166,-4.26171e-05,0.000372761,1,0,0,0,0,0,0
1609045362461383926,291,1609045362461383926,-0.00993335,-0.00192498,0.00127188,0.000196592,-4.20818e-05,0.000477644,1,0,0,0,0,0,0
1609045362531601590,292,1609045362531601590,-0.00996072,-0.000951141,-0.000278617,0.000205459,-5.49841e-06,0.000444573,1,0,0,0,0,0,0
1609045362633414294,293,1609045362633414294,-0.0101945,-0.000156736,-0.00208517,0.000186564,-6.19887e-05,0.000394751,1,0,0,0,0,0,0
1609045362736429576,294,1609045362736429576,-0.0103672,-0.00123922,-0.00160933,0.000175049,-3.64172e-05,0.000392726,1,0,0,0,0,0,0
1609045362839648578,295,1609045362839648578,-0.00786375,0.00048767,-0.00259207,0.000197017,-7.0383e-05,0.00041495,1,0,0,0,0,0,0
1609045362942562841,296,1609045362942562841,-0.011396,0.000331191,-0.00328699,0.000188028,-0.000117999,0.000427407,1,0,0,0,0,0,0
1609045363045731340,297,1609045363045731340,-0.0111602,0.00101678,-0.00275614,0.00013382,-0.000103339,0.000414632,1,0,0,0,0,0,0
1609045363148877600,298,1609045363148877600,-0.0110509,-0.000903094,-0.0012761,0.000141985,-6.0745e-05,0.00046799,1,0,0,0,0,0,0
1609045363252388119,299,1609045363252388119,-0.0101841,-0.00158649,-0.000391077,0.000160343,-5.97517e-05,0.000388173,1,0,0,0,0,0,0
1609045363355829807,300,1609045363355829807,-0.00943633,-0.000164977,-0.000283639,0.000180972,-1.8575e-05,0.000461025,1,0,0,0,0,0,0
1609045363457896675,301,1609045363457896675,-0.0105926,-7.20174e-05,0.000778361,0.000180736,-9.06454e-06,0.000511448,1,0,0,0,0,0,0
1609045363561176046,302,1609045363561176046,-0.00962033,-0.000613333,-7.34419e-05,0.000168452,-7.93647e-05,0.000562564,1,0,0,0,0,0,0
1609045363631530930,303,1609045363631530930,-0.00978589,-0.000738774,0.000142624,0.000168068,-2.60202e-05,0.00044781,1,0,0,0,0,0,0
1609045363733346105,304,1609045363733346105,-0.00933205,-0.000271237,-0.00180304,0.000176882,-8.48139e-05,0.000420503,1,0,0,0,0,0,0
1609045363836479125,305,1609045363836479125,-0.00837468,0.000275615,-0.00216671,0.000172131,-6.92719e-05,0.000461218,1,0,0,0,0,0,0
1609045363939492731,306,1609045363939492731,-0.00675576,0.00018217,-0.000919905,0.000102244,-6.24313e-05,0.000389908,1,0,0,0,0,0,0
1609045364042618385,307,1609045364042618385,-0.00932529,0.000513333,-0.00204833,0.000162495,-9.8428e-05,0.000416411,1,0,0,0,0,0,0
1609045364145671697,308,1609045364145671697,-0.011033,0.000954353,-0.00377502,0.000153527,-0.000132233,0.000478669,1,0,0,0,0,0,0
1609045364352055733,309,1609045364352055733,-0.0106898,0.000602119,-0.000185421,0.000103585,-1.9638e-05,0.000460031,1,0,0,0,0,0,0
1609045364455469109,310,1609045364455469109,-0.0106281,-0.000489507,-0.000685156,0.00016895,-6.93827e-05,0.000395508,1,0,0,0,0,0,0
1609045364558759317,311,1609045364558759317,-0.00913978,-0.000122897,-0.000625667,0.000109525,-7.43394e-05,0.000473081,1,0,0,0,0,0,0
1609045364558759317,312,1609045364558759317,-0.00894438,-0.000972241,0.00078831,0.00013256,-2.47864e-05,0.000457286,1,0,0,0,0,0,0
1609045364661556811,313,1609045364661556811,-0.00962861,-0.00143981,0.00116592,0.000190728,-1.96608e-05,0.000460094,1,0,0,0,0,0,0
1609045364731485649,314,1609045364731485649,-0.0106057,-0.000592575,0.000672427,0.000201173,3.06637e-05,0.000442494,1,0,0,0,0,0,0
1609045364833323228,315,1609045364833323228,-0.0107386,-0.0011564,-0.00225344,0.000146973,-0.000110188,0.000360956,1,0,0,0,0,0,0
1609045364936540105,316,1609045364936540105,-0.00792913,-0.000249211,-0.00291862,0.000174167,-2.57106e-05,0.000460564,1,0,0,0,0,0,0
1609045365038935023,317,1609045365038935023,-0.00878829,-0.000171727,-0.00142377,0.000138887,-7.33861e-05,0.000400254,1,0,0,0,0,0,0
1609045365141975416,318,1609045365141975416,-0.00954416,-0.000672711,-0.00151461,0.000150365,-9.47469e-05,0.000369586,1,0,0,0,0,0,0
1609045365245730326,319,1609045365245730326,-0.0107273,0.000208681,-0.00222701,0.000140586,-0.00010914,0.000413743,1,0,0,0,0,0,0
1609045365348766370,320,1609045365348766370,-0.0113998,-0.00146335,-0.00109099,0.000125069,-3.78406e-05,0.000501799,1,0,0,0,0,0,0
1609045365452180860,321,1609045365452180860,-0.00951436,0.000269436,-0.00104533,0.000157893,-6.7846e-06,0.000431532,1,0,0,0,0,0,0
1609045365555227333,322,1609045365555227333,-0.0103586,-0.000606331,-0.00117858,8.52451e-05,-9.3168e-05,0.000512523,1,0,0,0,0,0,0
1609045365658289450,323,1609045365658289450,-0.00863231,-0.00134435,0.000621674,0.00011043,-3.84624e-05,0.000505135,1,0,0,0,0,0,0
1609045365761258466,324,1609045365761258466,-0.00893584,-0.00198086,0.00048361,0.000153125,-5.41394e-05,0.000489911,1,0,0,0,0,0,0
1609045365831453296,325,1609045365831453296,-0.00610704,-0.00177337,0.00108022,0.000217359,1.67351e-05,0.000459419,1,0,0,0,0,0,0
1609045365933325881,326,1609045365933325881,-0.00693563,0.000174181,-0.00236405,0.000181014,-0.00010485,0.000441217,1,0,0,0,0,0,0
1609045366036532118,327,1609045366036532118,-0.00909203,-0.000160772,-0.00227978,0.000146161,-5.85541e-05,0.00039595,1,0,0,0,0,0,0
1609045366140005333,328,1609045366140005333,-0.00924077,0.00124867,-0.00170812,0.000143018,-5.95668e-05,0.000363581,1,0,0,0,0,0,0
1609045366242765271,329,1609045366242765271,-0.00768013,0.0005261,-0.00210545,0.00014689,-5.58575e-05,0.000301175,1,0,0,0,0,0,0
1609045366345786890,330,1609045366345786890,-0.00708513,0.000111543,-0.00225121,0.000115431,-0.000111257,0.000395288,1,0,0,0,0,0,0
1609045366448918126,331,1609045366448918126,-0.00706842,0.00155135,-0.00108997,0.000122493,-4.34679e-05,0.000380676,1,0,0,0,0,0,0
1609045366551988559,332,1609045366551988559,-0.00912909,-0.00024469,0.000453757,0.000123199,-3.76646e-05,0.000414609,1,0,0,0,0,0,0
1609045366655180291,333,1609045366655180291,-0.0104662,-0.00205099,-0.000374687,0.000161748,-3.61229e-05,0.000488127,1,0,0,0,0,0,0
1609045366758187461,334,1609045366758187461,-0.00889788,-0.0013407,-0.000281628,0.000129256,-5.50047e-05,0.000534216,1,0,0,0,0,0,0
1609045366861323911,335,1609045366861323911,-0.00758164,-0.00119362,0.000142936,0.000166037,-4.31608e-05,0.000431263,1,0,0,0,0,0,0
1609045366931638399,336,1609045366931638399,-0.00667264,-0.000152553,-9.1103e-05,0.000156135,-2.68237e-05,0.000499626,1,0,0,0,0,0,0
1609045367033211989,337,1609045367033211989,-0.00915833,0.000147368,-0.00220459,0.00021049,-8.07547e-05,0.000338322,1,0,0,0,0,0,0
1609045367136453237,338,1609045367136453237,-0.00776902,0.00084557,-0.00314019,0.000175524,-0.000101412,0.00040503,1,0,0,0,0,0,0
1609045367239051652,339,1609045367239051652,-0.00793344,0.000719158,-0.00199104,0.000126944,-0.000105877,0.000400881,1,0,0,0,0,0,0
1609045367342326356,340,1609045367342326356,-0.00843193,-0.000971679,-0.000124502,0.000159136,-3.51811e-05,0.00039827,1,0,0,0,0,0,0
1609045367445249321,341,1609045367445249321,-0.00821902,-7.71605e-05,-0.00136775,0.000184502,-6.14829e-05,0.000436815,1,0,0,0,0,0,0
1609045367548366040,342,1609045367548366040,-0.00637376,-7.64478e-05,0.000998233,0.000114093,-1.59384e-06,0.000439259,1,0,0,0,0,0,0
1609045367651268078,343,1609045367651268078,-0.0069269,-0.000755226,0.00154231,0.000130978,-2.07284e-05,0.000386671,1,0,0,0,0,0,0
1609045367754429549,344,1609045367754429549,-0.00832576,0.000287979,0.00164661,0.000130482,-1.52251e-05,0.000461311,1,0,0,0,0,0,0
1609045367857505083,345,1609045367857505083,-0.0110879,-0.000261759,0.00022709,0.000113828,-3.21445e-05,0.000517932,1,0,0,0,0,0,0
1609045367960665580,346,1609045367960665580,-0.0113402,-0.000204836,0.000930119,0.000159288,-3.79767e-05,0.000538579,1,0,0,0,0,0,0
1609045368030850506,347,1609045368030850506,-0.0093046,-0.00183995,0.0016711,0.000196587,2.56956e-05,0.000497516,1,0,0,0,0,0,0
1609045368132719552,348,1609045368132719552,-0.00948944,-8.30134e-05,-0.00112477,0.000172402,-6.6989e-05,0.00035814,1,0,0,0,0,0,0
1609045368236078558,349,1609045368236078558,-0.00916575,-0.000502555,-0.00347672,0.00015945,-0.000124026,0.00048409,1,0,0,0,0,0,0
1609045368338953723,350,1609045368338953723,-0.00918758,0.000217776,-0.00277909,9.42736e-05,-0.000106775,0.000380635,1,0,0,0,0,0,0
1609045368442005887,351,1609045368442005887,-0.00915082,0.000513321,-0.00194,0.000163045,-9.97236e-05,0.000451147,1,0,0,0,0,0,0
1609045368545081652,352,1609045368545081652,-0.00769036,0.000153487,-0.00200674,0.00015809,-8.57008e-05,0.000486767,1,0,0,0,0,0,0
1609045368648285711,353,1609045368648285711,-0.00607507,0.000682223,0.000306879,9.18735e-05,-3.17384e-05,0.000368716,1,0,0,0,0,0,0
1609045368751024089,354,1609045368751024089,-0.00869135,-0.00227348,-3.35885e-05,0.000155877,-1.95965e-05,0.000548662,1,0,0,0,0,0,0
1609045368854365980,355,1609045368854365980,-0.0097713,-0.00211139,-0.000974669,9.63277e-05,-7.68303e-05,0.000519451,1,0,0,0,0,0,0
1609045368957562096,356,1609045368957562096,-0.00846816,-0.00217442,0.000561229,0.000144484,-1.79766e-05,0.000484887,1,0,0,0,0,0,0
1609045369060560645,357,1609045369060560645,-0.0088864,-0.0010939,0.00156519,0.000146061,-4.62236e-05,0.00046936,1,0,0,0,0,0,0
1609045369130891195,358,1609045369130891195,-0.00958435,-0.00164456,0.00146468,0.000196324,-1.66444e-05,0.000480174,1,0,0,0,0,0,0
1609045369232808423,359,1609045369232808423,-0.0102221,0.000924469,-0.00207551,0.000235242,-9.32453e-05,0.000483515,1,0,0,0,0,0,0
1609045369438898967,360,1609045369438898967,-0.0113208,-0.000870778,-0.00399415,0.000177029,-0.000130993,0.000355319,1,0,0,0,0,0,0
1609045369438898967,361,1609045369438898967,-0.0129113,-0.000332389,-0.0010849,0.000150079,-4.85047e-05,0.00042635,1,0,0,0,0,0,0
1609045369541910640,362,1609045369541910640,-0.009654,-0.00109226,-0.000226486,0.000140357,-4.34817e-05,0.000490116,1,0,0,0,0,0,0
1609045369645150106,363,1609045369645150106,-0.00685092,-0.000138786,-0.000606399,0.000124246,-7.53139e-05,0.000446677,1,0,0,0,0,0,0
1609045369748201039,364,1609045369748201039,-0.00705796,7.80193e-05,0.000274486,9.89356e-05,-6.15021e-05,0.000468106,1,0,0,0,0,0,0
1609045369851355285,365,1609045369851355285,-0.0085455,-0.00144432,0.000976224,0.000113135,-3.76475e-05,0.000526754,1,0,0,0,0,0,0
1609045369954454999,366,1609045369954454999,-0.00847768,-0.00301574,1.05621e-05,0.000153796,-9.68186e-06,0.000425041,1,0,0,0,0,0,0
1609045370057595374,367,1609045370057595374,-0.0077571,-0.00265979,0.0015996,0.000126291,-1.63356e-05,0.000523915,1,0,0,0,0,0,0
1609045370160584494,368,1609045370160584494,-0.00510941,-0.000782361,0.00195894,0.000168016,-2.83713e-05,0.000455604,1,0,0,0,0,0,0
1609045370230849152,369,1609045370230849152,-0.00735515,-0.000560308,0.000977846,0.000149782,-1.04102e-05,0.000400708,1,0,0,0,0,0,0
1609045370333203698,370,1609045370333203698,-0.00712871,5.26852e-05,-0.0022387,0.000257999,-5.98271e-05,0.000416994,1,0,0,0,0,0,0
1609045370435946415,371,1609045370435946415,-0.00926216,0.000199789,-0.0014211,0.000128051,-8.58682e-05,0.000416007,1,0,0,0,0,0,0
1609045370538863297,372,1609045370538863297,-0.00940478,-0.000779671,-0.00182101,0.000164151,-8.36943e-05,0.000379352,1,0,0,0,0,0,0
1609045370642008578,373,1609045370642008578,-0.00728736,-0.000610997,-0.00152801,0.000171045,-5.94767e-05,0.000386723,1,0,0,0,0,0,0
1609045370744952522,374,1609045370744952522,-0.00697212,-0.000932398,-0.00108707,0.000200952,-1.29127e-06,0.000430918,1,0,0,0,0,0,0
1609045370848251589,375,1609045370848251589,-0.00782318,-0.00113866,0.00167861,0.000118784,1.14614e-05,0.000455252,1,0,0,0,0,0,0
1609045370951250560,376,1609045370951250560,-0.0085478,-0.000931501,0.000880536,0.000124516,-3.6304e-05,0.000465034,1,0,0,0,0,0,0
1609045371054955745,377,1609045371054955745,-0.0106062,-0.00177922,-0.0001003,7.30941e-05,-7.41419e-05,0.000472829,1,0,0,0,0,0,0
1609045371157604663,378,1609045371157604663,-0.0133489,-0.0033644,-4.39785e-05,0.000134351,-1.87695e-05,0.000639039,1,0,0,0,0,0,0
1609045371260588517,379,1609045371260588517,-0.0107282,-0.000209579,0.00198383,0.000166528,-3.7301e-06,0.000577941,1,0,0,0,0,0,0
1609045371330885593,380,1609045371330885593,-0.00891336,-0.000988229,0.00154756,0.00020251,-6.80423e-06,0.00055179,1,0,0,0,0,0,0
1609045371432804354,381,1609045371432804354,-0.00937622,8.45907e-05,-0.00139188,0.000200375,-7.39816e-05,0.000468142,1,0,0,0,0,0,0
1609045371535912386,382,1609045371535912386,-0.0105453,-0.000364943,-0.0025504,0.000176372,-5.77965e-05,0.000445046,1,0,0,0,0,0,0
1609045371639040208,383,1609045371639040208,-0.00931445,-0.000572596,-0.0016124,0.000145145,-6.12131e-05,0.000426558,1,0,0,0,0,0,0
1609045371742160368,384,1609045371742160368,-0.00936142,2.70423e-05,-0.00102481,0.000155608,-9.72066e-05,0.000422268,1,0,0,0,0,0,0
1609045371844905919,385,1609045371844905919,-0.00728252,5.15953e-05,-0.000264916,0.000124356,-6.28033e-06,0.000411961,1,0,0,0,0,0,0
1609045371948234312,386,1609045371948234312,-0.00921058,-0.000306022,0.000813047,0.000109212,-1.27091e-05,0.000507963,1,0,0,0,0,0,0
1609045372051243078,387,1609045372051243078,-0.0117186,0.000737341,0.000679029,0.000130071,-2.77526e-05,0.000566856,1,0,0,0,0,0,0
1609045372154814228,388,1609045372154814228,-0.012898,-0.000224981,0.00112242,0.000131139,-3.15033e-05,0.000502253,1,0,0,0,0,0,0
1609045372257599194,389,1609045372257599194,-0.0129812,-0.00304903,0.000419384,0.000162921,-6.2357e-05,0.000525909,1,0,0,0,0,0,0
1609045372360807574,390,1609045372360807574,-0.0113563,-0.00354954,0.00064774,0.000129277,-5.36329e-05,0.000510274,1,0,0,0,0,0,0
1609045372431073610,391,1609045372431073610,-0.0103805,-0.00366408,0.000142916,0.000164338,-4.21734e-05,0.000528769,1,0,0,0,0,0,0
1609045372532938154,392,1609045372532938154,-0.00903265,-0.00247931,-0.00167444,0.0002168,-4.72416e-05,0.000403935,1,0,0,0,0,0,0
1609045372635845623,393,1609045372635845623,-0.0117507,-0.000252746,-0.00240116,0.000201347,-8.55691e-06,0.000380264,1,0,0,0,0,0,0
1609045372738979615,394,1609045372738979615,-0.0131044,-1.16483e-06,-0.000984796,0.000129737,-5.55705e-05,0.000456703,1,0,0,0,0,0,0
1609045372842013188,395,1609045372842013188,-0.0128076,-0.00145716,-0.00224232,0.000189833,-4.60456e-05,0.00052587,1,0,0,0,0,0,0
1609045372945111975,396,1609045372945111975,-0.0111765,-0.00127776,-0.00139378,0.000127325,-9.1937e-05,0.000379489,1,0,0,0,0,0,0
1609045373048193916,397,1609045373048193916,-0.00791825,-0.00110802,0.000393757,0.000105025,-4.96316e-05,0.000465329,1,0,0,0,0,0,0
1609045373151260063,398,1609045373151260063,-0.00878208,-0.00137862,-0.000357146,0.000114879,-6.61428e-05,0.000445059,1,0,0,0,0,0,0
1609045373254409419,399,1609045373254409419,-0.0106165,-0.000328859,0.000151759,0.000110608,-3.62326e-07,0.000539227,1,0,0,0,0,0,0
1609045373357430475,400,1609045373357430475,-0.0108927,-0.000695297,0.00260417,0.000137676,4.55918e-06,0.00053517,1,0,0,0,0,0,0
1609045373460498893,401,1609045373460498893,-0.00982358,-0.00313192,0.00239938,0.000201543,2.23936e-05,0.000520585,1,0,0,0,0,0,0
1609045373530825231,402,1609045373530825231,-0.0100587,-0.00349113,0.00126696,0.000188124,-2.07775e-05,0.000533724,1,0,0,0,0,0,0
1609045373632563937,403,1609045373632563937,-0.0110593,-0.00131363,-0.00203882,0.0002388,-5.89055e-05,0.000347385,1,0,0,0,0,0,0
1609045373736071725,404,1609045373736071725,-0.0108872,-0.00128744,-0.00222724,0.000154315,-7.57686e-05,0.000417923,1,0,0,0,0,0,0
1609045373838775983,405,1609045373838775983,-0.00882555,-0.00237611,-0.00163829,0.000118588,-4.47287e-05,0.000401817,1,0,0,0,0,0,0
1609045373942149158,406,1609045373942149158,-0.00935168,-0.00259564,-0.00141371,0.000172139,-9.037e-05,0.000427883,1,0,0,0,0,0,0
1609045374045190688,407,1609045374045190688,-0.0111185,-0.00143594,-0.00159164,0.000198731,-6.2957e-05,0.000496325,1,0,0,0,0,0,0
1609045374148506882,408,1609045374148506882,-0.0125608,-0.000914343,0.00102556,0.000129461,-1.82307e-05,0.000503191,1,0,0,0,0,0,0
1609045374251546982,409,1609045374251546982,-0.0129982,-0.00130642,0.00085532,0.000146682,-5.39043e-05,0.000556216,1,0,0,0,0,0,0
1609045374354596751,410,1609045374354596751,-0.0106479,-0.000333251,0.00146609,0.000137128,-5.23727e-06,0.00052414,1,0,0,0,0,0,0
1609045374457621354,411,1609045374457621354,-0.0103818,-0.000807603,0.00132641,0.000104928,-7.15084e-05,0.000539662,1,0,0,0,0,0,0
1609045374560672365,412,1609045374560672365,-0.00693372,0.00024526,0.00214033,0.000140248,-1.34238e-05,0.000548215,1,0,0,0,0,0,0
1609045374630982343,413,1609045374630982343,-0.00741238,-0.002413,0.00177296,0.000204211,3.34869e-05,0.000543324,1,0,0,0,0,0,0
1609045374732777584,414,1609045374732777584,-0.00949893,-0.000484021,-0.00276305,0.000258482,-0.000106176,0.000355669,1,0,0,0,0,0,0
1609045374835876294,415,1609045374835876294,-0.0113107,-0.00214106,-0.0021359,0.000173931,-2.51096e-05,0.000442237,1,0,0,0,0,0,0
1609045374938973586,416,1609045374938973586,-0.012279,-0.00232363,-0.000647802,0.000152672,-4.87422e-05,0.000465993,1,0,0,0,0,0,0
1609045375042018598,417,1609045375042018598,-0.0107361,-0.00361464,-0.00149711,0.00014722,-9.1017e-05,0.000583322,1,0,0,0,0,0,0
1609045375145104523,418,1609045375145104523,-0.012649,-0.00237587,-0.000773219,0.00014738,-5.04842e-05,0.000415839,1,0,0,0,0,0,0
1609045375248273098,419,1609045375248273098,-0.00921128,-0.000905698,0.0024785,6.86007e-05,-1.03363e-05,0.000520527,1,0,0,0,0,0,0
1609045375351145881,420,1609045375351145881,-0.00708566,-0.000930712,0.00311,0.00013413,2.8436e-05,0.000514866,1,0,0,0,0,0,0
1609045375454366173,421,1609045375454366173,-0.00987936,-0.00272626,0.000951572,0.000153122,-2.05587e-05,0.000518396,1,0,0,0,0,0,0
1609045375557381087,422,1609045375557381087,-0.0100298,-0.00194208,0.000640265,0.0001284,-7.63236e-06,0.000587897,1,0,0,0,0,0,0
1609045375660591853,423,1609045375660591853,-0.0118257,-0.00288873,0.00178954,0.000112023,-6.57119e-05,0.000612748,1,0,0,0,0,0,0
1609045375730479815,424,1609045375730479815,-0.0115271,-0.00413465,0.0012951,0.000161072,-3.44419e-06,0.000562312,1,0,0,0,0,0,0
1609045375832367416,425,1609045375832367416,-0.0126977,-0.00253057,-0.00341486,0.000237225,-0.000145777,0.000488746,1,0,0,0,0,0,0
1609045375935706685,426,1609045375935706685,-0.0113726,-0.00182459,-0.00504775,0.00026173,-6.35982e-05,0.000480464,1,0,0,0,0,0,0
1609045376038850677,427,1609045376038850677,-0.0111756,-0.00229951,-0.00212978,0.000128745,-9.4862e-05,0.000477941,1,0,0,0,0,0,0
1609045376142024055,428,1609045376142024055,-0.010332,-0.00117348,-0.000692875,0.000169454,-5.70962e-05,0.00054828,1,0,0,0,0,0,0
1609045376245121034,429,1609045376245121034,-0.0107069,-0.00164332,-0.00188643,0.000136121,-9.22603e-05,0.000472284,1,0,0,0,0,0,0
1609045376348201880,430,1609045376348201880,-0.00913534,-0.00179042,5.80066e-05,9.62209e-05,-4.40897e-05,0.000530891,1,0,0,0,0,0,0
1609045376452311710,431,1609045376452311710,-0.0104237,-0.00301659,0.0023789,0.000101274,-9.52605e-06,0.000552572,1,0,0,0,0,0,0
1609045376554926339,432,1609045376554926339,-0.0111247,-0.00174557,0.000399049,0.000152213,-2.68645e-05,0.000518257,1,0,0,0,0,0,0
1609045376657546208,433,1609045376657546208,-0.00937886,-0.00271415,-0.000320325,0.00011897,-2.2336e-05,0.000544963,1,0,0,0,0,0,0
1609045376760464146,434,1609045376760464146,-0.00879269,-0.00270725,0.00104932,0.000175529,-4.99757e-06,0.000572604,1,0,0,0,0,0,0
1609045376830573913,435,1609045376830573913,-0.00951444,-0.00258831,0.00124522,0.000127901,-6.37267e-05,0.00055502,1,0,0,0,0,0,0
1609045376932506506,436,1609045376932506506,-0.0103807,-0.00166322,-0.00220792,0.000248874,-9.2608e-05,0.000468588,1,0,0,0,0,0,0
1609045377035521968,437,1609045377035521968,-0.0128784,-2.3139e-05,-0.00277216,0.000173486,-6.74434e-05,0.000457279,1,0,0,0,0,0,0
1609045377138520030,438,1609045377138520030,-0.010179,-0.00135164,-0.00206656,0.000136321,-9.66588e-05,0.000528818,1,0,0,0,0,0,0
1609045377241616026,439,1609045377241616026,-0.0097427,-0.00150353,-0.00174906,0.000137342,-0.000112851,0.000444461,1,0,0,0,0,0,0
1609045377344847224,440,1609045377344847224,-0.00942695,-0.001646,-0.0010382,0.000217027,-1.65431e-05,0.000509694,1,0,0,0,0,0,0
1609045377447922137,441,1609045377447922137,-0.0129635,-0.00332869,0.000256133,0.00014101,-9.83534e-06,0.000595391,1,0,0,0,0,0,0
1609045377550966337,442,1609045377550966337,-0.00979837,-0.00346292,0.00140184,0.000148807,-3.10469e-06,0.00041279,1,0,0,0,0,0,0
1609045377654294695,443,1609045377654294695,-0.0107283,-0.00216762,0.00064733,0.00012708,-4.11655e-05,0.00055921,1,0,0,0,0,0,0
1609045377757139996,444,1609045377757139996,-0.0104434,-0.00301376,0.00317539,0.000138198,1.79153e-05,0.000670412,1,0,0,0,0,0,0
1609045377860249692,445,1609045377860249692,-0.0124639,-0.00524241,0.00252138,0.00017992,-6.57673e-06,0.000739118,1,0,0,0,0,0,0
1609045377930523951,446,1609045377930523951,-0.0141853,-0.00391731,0.00176207,0.000159431,-2.8369e-05,0.000697522,1,0,0,0,0,0,0
1609045378032251675,447,1609045378032251675,-0.0132043,-0.00270655,-0.00234683,0.000239466,-6.76024e-05,0.000462461,1,0,0,0,0,0,0
1609045378135226620,448,1609045378135226620,-0.0107874,-0.000321181,-0.00239166,0.000172416,4.6469e-07,0.000497806,1,0,0,0,0,0,0
1609045378238464914,449,1609045378238464914,-0.0104908,-0.00294014,-0.000638282,0.000182346,-3.67675e-05,0.00051196,1,0,0,0,0,0,0
1609045378341476889,450,1609045378341476889,-0.00735559,-0.00210541,-0.00138536,0.000181965,-6.81717e-05,0.000460879,1,0,0,0,0,0,0
1609045378444743399,451,1609045378444743399,-0.00654022,-0.00222103,-0.00110482,0.000169439,-5.16055e-05,0.000496866,1,0,0,0,0,0,0
1609045378547915026,452,1609045378547915026,-0.00529693,-0.00257722,0.0017179,0.000103089,4.29623e-06,0.000581353,1,0,0,0,0,0,0
1609045378650939970,453,1609045378650939970,-0.00835869,-0.00301058,0.0020537,0.000187224,2.15719e-05,0.000613231,1,0,0,0,0,0,0
1609045378754015278,454,1609045378754015278,-0.00648656,-0.000506993,0.00174219,0.000168841,5.23261e-06,0.000540547,1,0,0,0,0,0,0
1609045378856689252,455,1609045378856689252,-0.00686344,-0.00243192,0.0013226,0.000111802,-1.84494e-05,0.000650695,1,0,0,0,0,0,0
1609045378960341899,456,1609045378960341899,-0.00938894,-0.00396614,0.00337733,0.000131542,-9.05031e-08,0.000532975,1,0,0,0,0,0,0
1609045379030528284,457,1609045379030528284,-0.00844983,-0.00169048,0.00341907,0.000165207,8.95224e-06,0.000503779,1,0,0,0,0,0,0
1609045379132334385,458,1609045379132334385,-0.00911683,-0.000921724,-0.00258725,0.000298309,-4.98954e-05,0.000390449,1,0,0,0,0,0,0
1609045379235325031,459,1609045379235325031,-0.0116779,-0.00211287,-0.00409742,0.000198832,-0.000139646,0.000476323,1,0,0,0,0,0,0
1609045379338445615,460,1609045379338445615,-0.0101317,0.00130979,-0.00205568,0.000172029,-8.5534e-05,0.000402083,1,0,0,0,0,0,0
