%time,field.header.seq,field.header.stamp,field.pose.position.x,field.pose.position.y,field.pose.position.z,field.pose.orientation.x,field.pose.orientation.y,field.pose.orientation.z,field.pose.orientation.w
1683047713.110985769,0,1683047713.110985769,0.000408777,-0.000354636,0.000468123,0.000131643,-0.000112726,-4.3635e-05,1
1683047713.215556674,1,1683047713.215556674,0.00103566,-0.000989833,0.00097891,0.000151772,-0.000140495,-4.04371e-05,1
1683047713.337554636,2,1683047713.337554636,0.00118999,-0.000915885,0.00130458,0.000125361,-0.000182683,-5.21765e-05,1
1683047713.428040392,3,1683047713.428040392,0.00111552,-0.0014581,0.00157509,0.000153585,-0.000191109,-3.71312e-05,1
1683047713.596039329,4,1683047713.596039329,0.00154046,-0.0017148,0.000881758,0.000119902,-0.000123548,-1.81986e-05,1
1683047713.674476865,5,1683047713.674476865,0.00325999,-0.00213002,0.00128473,0.000172404,-8.20763e-05,-0.000109691,1
1683047713.735179902,6,1683047713.735179902,0.00315668,0.000799491,-0.000279529,0.000126124,-0.000136906,-0.000117914,1
1683047713.880878222,7,1683047713.880878222,0.00276374,0.00186333,-0.00131839,0.000121157,-0.000164206,-0.000157382,1
1683047713.950060342,8,1683047713.950060342,0.00171099,0.000432676,-0.00281301,0.00015226,-0.000153697,-0.000130851,1
1683047714.024764950,9,1683047714.024764950,0.00067737,0.00174625,0.00013308,8.39672e-05,-0.000136874,-3.85195e-05,1
1683047714.111083515,10,1683047714.111083515,0.000766647,-0.000189829,0.000362608,9.57231e-05,-0.000116478,-5.9501e-05,1
1683047714.244584550,11,1683047714.244584550,0.000204334,8.43369e-05,0.00034448,8.09021e-05,-0.000158672,-2.1311e-05,1
1683047714.314355063,12,1683047714.314355063,0.000887825,0.00231198,0.000958202,0.000140707,-0.000102254,-5.85016e-05,1
1683047714.422870644,13,1683047714.422870644,0.000308358,0.00211936,0.00268447,0.000122672,-6.57131e-05,-0.000103977,1
1683047714.523761726,14,1683047714.523761726,0.00331337,2.83518e-05,0.00188816,0.00010641,-4.72405e-05,-9.72109e-05,1
1683047714.622688489,15,1683047714.622688489,0.00426075,0.000670641,0.00045957,0.000115159,-0.000105719,-2.04498e-05,1
1683047714.731341967,16,1683047714.731341967,0.00279579,-0.00100721,0.00193706,0.000150312,-5.85695e-05,2.49973e-05,1
1683047714.798993793,17,1683047714.798993793,-0.00124826,0.00272769,-0.00177854,0.000154159,-0.000168596,-0.000116091,1
1683047714.903559489,18,1683047714.903559489,-0.00155681,0.00116466,-0.00151571,0.000102811,-0.000145244,-2.76968e-05,1
1683047715.018524321,19,1683047715.018524321,-0.00290127,0.000125726,0.00059686,7.44299e-05,-0.000129899,0.000128626,1
1683047715.111416535,20,1683047715.111416535,-0.0016574,0.00190011,0.000226402,9.09722e-05,-0.000122771,6.66572e-05,1
1683047715.210862499,21,1683047715.210862499,-0.00119176,0.00192101,0.000453507,0.000124131,-0.000114243,5.2735e-05,1
1683047715.320953721,22,1683047715.320953721,-0.00204286,-0.000506603,0.00100552,0.000101694,-4.67531e-05,0.000122895,1
1683047715.430531685,23,1683047715.430531685,0.00118712,0.00132198,0.00154877,0.000116149,-6.90013e-05,-3.35595e-05,1
1683047715.521412940,24,1683047715.521412940,0.00105235,0.000190902,0.00204238,0.000138252,-7.30309e-05,3.73906e-05,1
1683047715.632123610,25,1683047715.632123610,0.000334148,-0.000304539,0.00268745,0.000158828,-5.54712e-05,-3.72221e-05,1
1683047715.701374832,26,1683047715.701374832,-0.001895,0.00217009,-0.000827501,0.000145939,-0.000160537,7.04119e-05,1
1683047715.804079278,27,1683047715.804079278,-0.00269068,0.00287154,-0.00188648,0.000125617,-0.000181928,0.000129828,1
1683047715.900312330,28,1683047715.900312330,-0.00624356,0.00202084,-0.0014993,0.000122761,-0.000148874,8.27409e-05,1
1683047716.003412119,29,1683047716.003412119,-0.00525979,0.00276664,-0.0013428,0.000150452,-0.000173105,0.000194153,1
1683047716.109940831,30,1683047716.109940831,-0.00365039,0.000968934,0.000542949,0.000128917,-0.000125722,3.19712e-05,1
1683047716.210248089,31,1683047716.210248089,-0.00336625,0.00318577,0.000567165,8.7844e-05,-0.000142506,8.28793e-05,1
1683047716.427468448,32,1683047716.427468448,-0.000952607,0.00323868,0.001704,0.000134741,-7.69077e-05,9.23207e-05,1
1683047716.458078442,33,1683047716.458078442,-0.00146681,0.00159445,0.00221105,0.000100104,-7.10527e-05,2.00817e-05,1
1683047716.520719206,34,1683047716.520719206,-0.00020467,0.000292594,0.0029443,0.000131996,-4.3897e-05,3.05186e-05,1
1683047716.629322804,35,1683047716.629322804,-0.00254119,0.00188109,0.00256491,0.000127846,-0.000116101,8.93857e-05,1
1683047716.736427022,36,1683047716.736427022,-0.00497101,0.00199775,0.00238886,0.000163286,-2.67222e-05,0.000114623,1
1683047716.800660926,37,1683047716.800660926,-0.00696584,0.00259902,-0.000481558,0.000157937,-0.000139935,8.2227e-05,1
1683047716.898699428,38,1683047716.898699428,-0.00555272,0.00348407,-0.00105023,0.000152712,-0.000143619,0.000108336,1
1683047716.997385795,39,1683047716.997385795,-0.0028385,0.00315752,-0.00148072,0.000124987,-0.000172969,0.000195523,1
1683047717.101000895,40,1683047717.101000895,-0.00151389,0.0036652,-0.000283021,0.000130722,-0.000172272,0.000129552,1
1683047717.213558538,41,1683047717.213558538,-0.0033526,0.00363537,0.001664,0.000123862,-9.59457e-05,0.000187965,1
1683047717.313032256,42,1683047717.313032256,-0.00559151,0.0045064,0.00202182,0.00019338,-9.17394e-05,0.000120014,1
1683047717.421074939,43,1683047717.421074939,-0.00549449,0.00232742,0.00322603,0.00016403,-5.3046e-05,0.000175799,1
1683047717.524589934,44,1683047717.524589934,-0.00276637,0.00294074,0.00369947,0.000166328,-7.76069e-05,0.000115378,1
1683047717.633951515,45,1683047717.633951515,0.00189454,0.00574698,0.00340249,0.00015996,-5.30974e-06,8.05971e-05,1
1683047717.733688049,46,1683047717.733688049,-0.00178141,0.00277621,0.00301492,0.000180375,-1.19138e-05,0.000150131,1
1683047717.799643738,47,1683047717.799643738,-0.00354086,0.00391491,-5.87404e-05,0.000150945,-0.00013521,7.3385e-05,1
1683047717.899112769,48,1683047717.899112769,-0.00429803,0.00517902,-0.000991165,9.54179e-05,-0.000175174,0.000200874,1
1683047717.998664274,49,1683047717.998664274,-0.00589795,0.0059912,-0.000878471,0.000154185,-0.000131574,7.46653e-05,1
1683047718.097186123,50,1683047718.097186123,-0.00194802,0.0023879,0.00218115,0.000123531,-5.78325e-05,0.000101065,1
1683047718.266138407,51,1683047718.266138407,-0.00118618,0.00486481,0.00259929,0.000160471,-8.40438e-05,5.98953e-05,1
1683047718.359905982,52,1683047718.359905982,-0.00461966,0.00419414,0.00434818,0.000142384,-5.70456e-05,0.000142356,1
1683047718.458330143,53,1683047718.458330143,-0.00467775,0.00160891,0.00418418,0.000155712,-4.52753e-05,0.000206954,1
1683047718.544481363,54,1683047718.544481363,-0.000987684,0.00227747,0.00377596,0.000190507,1.0522e-05,5.80307e-05,1
1683047718.698040270,55,1683047718.698040270,-0.00234196,0.0024792,0.00350398,0.000220116,1.53757e-05,0.000166644,1
1683047718.778416576,56,1683047718.778416576,-0.00641488,0.00333269,-0.000287961,0.000159457,-0.000138678,0.000130288,1
1683047718.874573430,57,1683047718.874573430,-0.00542238,0.00552291,-0.000160467,0.00013927,-0.000107356,0.000179316,1
1683047718.959114460,58,1683047718.959114460,-0.0085775,0.00321556,0.000411843,0.000176169,-0.000118583,0.000218792,1
1683047719.013117732,59,1683047719.013117732,-0.00844708,0.00318088,-0.000120318,0.000200074,-0.000126107,0.000154072,1
1683047719.127316317,60,1683047719.127316317,-0.00762126,0.00304678,0.00133265,0.000112531,-0.000128082,0.000189345,1
1683047719.307880821,61,1683047719.307880821,-0.00874628,0.00158828,0.00192976,0.000171712,-9.15421e-05,0.00021317,1
1683047719.342246460,62,1683047719.342246460,-0.00827323,0.00332222,0.00251267,0.000163949,-7.61324e-05,0.000184622,1
1683047719.419726477,63,1683047719.419726477,-0.00756338,0.00256058,0.00350591,0.000134047,-1.72647e-05,0.00021646,1
1683047719.523040497,64,1683047719.523040497,-0.00607702,0.00203177,0.00295601,0.000168712,-4.72849e-05,0.000208813,1
1683047719.620377720,65,1683047719.620377720,-0.00189124,0.00265465,0.00351079,0.000154955,-2.85508e-05,0.000111138,1
1683047719.722167557,66,1683047719.722167557,-0.00499194,0.00189564,0.00378315,0.000227001,3.70306e-06,0.000163566,1
1683047719.801964125,67,1683047719.801964125,-0.00444437,0.00452635,-6.30542e-05,0.000175729,-0.000115711,6.98857e-05,1
1683047719.906673523,68,1683047719.906673523,-0.00193765,0.00458331,-0.00113898,0.00011858,-0.000118885,4.38617e-05,1
1683047720.002586320,69,1683047720.002586320,-0.00555504,0.00338371,-0.000812345,0.000159519,-0.000165685,0.000180763,1
1683047720.101411510,70,1683047720.101411510,-0.00894756,0.00306299,-0.000819859,0.000167236,-0.000177325,0.000138529,1
1683047720.230525683,71,1683047720.230525683,-0.00526339,0.00271893,0.00122099,0.000155256,-7.68866e-05,0.000190599,1
1683047720.311751649,72,1683047720.311751649,-0.00453481,0.00365792,0.00132073,0.000152059,-0.00012156,0.000114388,1
1683047720.409523023,73,1683047720.409523023,-0.00246016,0.00325438,0.00200866,0.000130706,-0.000109609,0.000105928,1
1683047720.520674428,74,1683047720.520674428,-0.00233038,0.00256796,0.00224985,0.000139776,-3.80783e-05,0.000194306,1
1683047720.621926144,75,1683047720.621926144,-0.00432463,0.00242185,0.00355907,0.000183583,2.78215e-06,0.00022499,1
1683047720.724016965,76,1683047720.724016965,-0.00239247,0.00349974,0.00348762,0.000167971,-2.95636e-06,0.000167804,1
1683047720.832679385,77,1683047720.832679385,-0.00867153,0.00185579,0.00367827,0.000212482,-5.68072e-05,0.000210745,1
1683047720.901583550,78,1683047720.901583550,-0.0112472,0.00176804,-0.000472099,0.000168129,-0.0001472,0.000152405,1
1683047720.991510227,79,1683047720.991510227,-0.00827862,0.00167114,-0.00104682,0.000181687,-0.0001397,0.000104643,1
1683047721.098691506,80,1683047721.098691506,-0.00716374,0.00304362,-0.000531072,0.000148713,-0.000122446,0.000205654,1
1683047721.203189501,81,1683047721.203189501,-0.00368197,0.00262676,-0.000253977,0.000159688,-0.000157475,0.000153828,1
1683047721.317858318,82,1683047721.317858318,-0.00378764,0.00267491,0.00207945,0.00016086,-7.25853e-05,0.000203911,1
1683047721.409923416,83,1683047721.409923416,-0.00567777,0.00365754,0.00336529,0.00021121,-5.8816e-05,0.000219526,1
1683047721.510295970,84,1683047721.510295970,-0.00370375,0.00302027,0.0022631,0.000179101,-7.49026e-05,0.000103358,1
1683047721.627071632,85,1683047721.627071632,-0.0035445,0.00127431,0.00232632,0.000136026,-3.50605e-05,0.000154619,1
1683047721.721157057,86,1683047721.721157057,-0.00515866,0.000450118,0.00427782,0.000178489,-3.17817e-05,0.000274038,1
1683047721.831944540,87,1683047721.831944540,-0.00653932,0.00116009,0.0053649,0.000208403,-3.46623e-05,0.000181945,1
1683047721.934285077,88,1683047721.934285077,-0.00705189,0.00180733,0.00444242,0.000225462,-8.96611e-06,0.000217787,1
1683047722.095054588,89,1683047722.095054588,-0.00670728,0.00304811,8.85656e-05,0.000203981,-0.000142264,0.000123697,1
1683047722.126149129,90,1683047722.126149129,-0.00991088,0.00365652,-0.00150911,0.000132854,-0.000148803,0.000161069,1
1683047722.201941345,91,1683047722.201941345,-0.0109238,0.0015412,-0.000635497,0.000182553,-8.85922e-05,0.000241924,1
1683047722.302285822,92,1683047722.302285822,-0.0120493,0.00221347,-0.0003357,0.000199969,-0.000148078,0.000219709,1
1683047722.409491694,93,1683047722.409491694,-0.0122282,0.00217269,0.0023018,0.000139729,-8.80376e-05,0.000298391,1
1683047722.509687128,94,1683047722.509687128,-0.0147031,0.00136291,0.00136854,0.00016995,-0.000129601,0.000224029,1
1683047722.613829899,95,1683047722.613829899,-0.0106892,0.000808856,0.0026016,0.00018658,-7.12317e-05,0.000270602,1
1683047722.720242855,96,1683047722.720242855,-0.00779401,0.000935111,0.00367138,0.000190955,-3.46544e-05,0.000287786,1
1683047722.802123740,97,1683047722.802123740,-0.00643678,0.00235408,-0.000883246,0.000183835,-0.000138587,8.1451e-05,1
1683047722.904248879,98,1683047722.904248879,-0.00800854,0.00193046,-0.00231568,0.00015108,-0.000167004,0.000193392,1
1683047722.999949472,99,1683047722.999949472,-0.00797596,0.00227957,-0.00150544,0.000201932,-0.000128449,0.000113193,1
1683047723.103477957,100,1683047723.103477957,-0.0119542,0.00161641,-0.00157215,0.000190927,-0.000176157,0.000249106,1
1683047723.225201435,101,1683047723.225201435,-0.0113296,0.00327568,0.00108299,0.000138966,-0.000112285,0.00017593,1
1683047723.320956909,102,1683047723.320956909,-0.0092918,0.00273964,0.00178111,0.000169775,-0.000123599,0.000277769,1
1683047723.449415824,103,1683047723.449415824,-0.0106747,0.00266239,0.00246721,0.000195327,-9.32099e-05,0.000272011,1
1683047723.526316450,104,1683047723.526316450,-0.0111869,0.000959215,0.00357384,0.000179715,-2.66388e-05,0.000240217,1
1683047723.656384480,105,1683047723.656384480,-0.00992958,0.000899107,0.00391933,0.000176632,-3.21058e-05,0.00023317,1
1683047723.744301455,106,1683047723.744301455,-0.0109326,-0.000240025,0.00438774,0.00021071,-4.05967e-05,0.000278743,1
1683047723.808287713,107,1683047723.808287713,-0.0117212,0.000233586,-0.000226759,0.00020673,-0.000144289,0.000223872,1
1683047723.938154023,108,1683047723.938154023,-0.0102323,0.00182176,-0.00207263,0.000179844,-0.000123305,0.000237964,1
1683047724.054130458,109,1683047724.054130458,-0.00862506,0.00215373,-0.000625535,0.000169876,-0.00010057,0.000209474,1
1683047724.139536008,110,1683047724.139536008,-0.00778529,0.00190913,-0.000705486,0.000198092,-0.000134695,0.000202361,1
1683047724.251308918,111,1683047724.251308918,-0.0111859,-0.000224844,0.00138211,0.000144901,-0.000104134,0.000294135,1
1683047724.336469672,112,1683047724.336469672,-0.0125822,0.000134052,0.00102487,0.000181381,-9.70664e-05,0.000286621,1
1683047724.411286205,113,1683047724.411286205,-0.011889,0.000363832,0.00176353,0.000219651,-4.06105e-05,0.000342858,1
1683047724.525798380,114,1683047724.525798380,-0.012853,-0.000556137,0.00292943,0.000156582,-6.51935e-05,0.000358037,1
1683047724.633401370,115,1683047724.633401370,-0.0124421,-0.000450665,0.00328832,0.000165614,-7.27327e-05,0.000285217,1
1683047724.729945751,116,1683047724.729945751,-0.0133367,-0.000760324,0.00287581,0.000188673,-2.21008e-05,0.000338216,1
1683047724.828250411,117,1683047724.828250411,-0.00978499,-0.000714343,0.00149075,0.00016001,-4.83858e-05,0.000292764,1
1683047724.903877073,118,1683047724.903877073,-0.0108842,0.00205076,-0.000795706,0.000178999,-0.0001592,0.000258101,1
1683047725.000427308,119,1683047725.000427308,-0.0128415,0.00257926,-0.00123029,0.000185328,-0.000133701,0.00020051,1
1683047725.100921718,120,1683047725.100921718,-0.0123895,0.00164314,-0.0016622,0.000213052,-0.000111021,0.000228855,1
1683047725.203619383,121,1683047725.203619383,-0.0110908,0.00211779,-0.00182097,0.00018092,-0.000127032,0.000283706,1
1683047725.308351702,122,1683047725.308351702,-0.0116338,-1.02225e-05,0.000782455,0.000179339,-0.000118694,0.000287664,1
1683047725.411350752,123,1683047725.411350752,-0.0122473,0.0007919,0.000531179,0.000183528,-0.000131912,0.000349385,1
1683047725.527958851,124,1683047725.527958851,-0.0118047,0.00218152,0.000794005,0.000183512,-8.10875e-05,0.000329392,1
1683047725.621647509,125,1683047725.621647509,-0.0147575,0.000735417,0.00377131,0.000166049,-1.52924e-05,0.000292911,1
1683047725.723485622,126,1683047725.723485622,-0.0139332,0.000718946,0.00490755,0.000204828,-1.39576e-05,0.000307718,1
1683047725.824426305,127,1683047725.824426305,-0.0145087,-0.000317445,0.00352118,0.000247409,-2.34856e-05,0.000350394,1
1683047725.935135761,128,1683047725.935135761,-0.0142431,0.000154001,0.00211515,0.000197457,-5.48695e-05,0.000329659,1
1683047726.001336627,129,1683047726.001336627,-0.0119714,0.000334227,-0.00044576,0.000227058,-0.000111765,0.00020886,1
1683047726.101386881,130,1683047726.101386881,-0.0115913,0.00174144,-0.00290882,0.000203883,-0.000133279,0.00021984,1
1683047726.201351303,131,1683047726.201351303,-0.0131756,0.000260268,-0.00265832,0.000177702,-0.000143602,0.000280199,1
1683047726.312299205,132,1683047726.312299205,-0.0123107,-0.000420629,0.000290977,0.000114946,-0.000122914,0.000291587,1
1683047726.415379152,133,1683047726.415379152,-0.0158453,0.000176772,0.000669682,0.000180956,-0.000113292,0.000364378,1
1683047726.514746526,134,1683047726.514746526,-0.0145778,0.00130777,0.000901152,0.000187119,-8.44103e-05,0.000293566,1
1683047726.612118783,135,1683047726.612118783,-0.0151385,3.89149e-05,0.00117599,0.000177203,-0.000104447,0.000420407,1
1683047726.720469699,136,1683047726.720469699,-0.0154339,0.000187268,0.00130727,0.000117889,-8.23187e-05,0.00041756,1
1683047726.824248515,137,1683047726.824248515,-0.0146467,0.00120389,0.00235408,0.000155042,-4.34221e-05,0.000257273,1
1683047726.899633522,138,1683047726.899633522,-0.0136753,0.00242832,-0.00110779,0.000205667,-0.000115774,0.000218247,1
1683047726.998276565,139,1683047726.998276565,-0.0121934,0.00307348,-0.00293737,0.000161129,-0.000133455,0.000223359,1
1683047727.101563272,140,1683047727.101563272,-0.0101378,0.00385248,-0.00379569,0.000157872,-0.000194245,0.000196157,1
1683047727.210195211,141,1683047727.210195211,-0.01401,0.00137075,0.000444876,0.000148192,-0.000105577,0.000338548,1
1683047727.308880133,142,1683047727.308880133,-0.0144143,0.000798476,0.00159939,0.000196745,-7.15789e-05,0.000291814,1
1683047727.413941466,143,1683047727.413941466,-0.015824,-0.000358896,-0.000104792,0.000188477,-0.00012402,0.000461363,1
1683047727.510712634,144,1683047727.510712634,-0.0158507,5.103e-05,-0.00132939,0.000152882,-0.000157973,0.00033841,1
1683047727.619686192,145,1683047727.619686192,-0.0154825,0.00121013,0.00095188,0.000124921,-8.4529e-05,0.000316446,1
1683047727.724637501,146,1683047727.724637501,-0.0143941,0.00218656,0.00304949,0.000175512,-1.37278e-05,0.000290053,1
1683047727.821547952,147,1683047727.821547952,-0.0130944,0.000633602,0.00245253,0.000167944,-3.04846e-05,0.000311137,1
1683047727.904979563,148,1683047727.904979563,-0.0145205,0.00258244,-0.00219232,0.000202142,-0.000124238,0.00022883,1
1683047728.001436628,149,1683047728.001436628,-0.0136248,0.002051,-0.00391922,0.000135366,-0.000174646,0.000321797,1
1683047728.100874638,150,1683047728.100874638,-0.0165747,0.000566207,-0.00453438,0.00018412,-0.000181877,0.000318619,1
1683047728.207775158,151,1683047728.207775158,-0.0170077,0.00187561,-0.00373285,0.000163514,-0.000155754,0.000380408,1
1683047728.313256618,152,1683047728.313256618,-0.0180763,0.00239637,-0.00252441,0.000135711,-0.000187577,0.000317842,1
1683047728.414762121,153,1683047728.414762121,-0.0161771,0.000944645,8.86333e-05,0.000163038,-0.000121306,0.000306971,1
1683047728.509972817,154,1683047728.509972817,-0.0155857,0.00016922,0.0016703,0.000200631,-6.30534e-05,0.000351607,1
1683047728.673782131,155,1683047728.673782131,-0.0158828,0.00190516,-0.000610157,0.000187321,-0.000123822,0.000322168,1
1683047728.739814524,156,1683047728.739814524,-0.0129633,0.00180401,0.0011244,0.000141587,-7.373e-05,0.000348046,1
1683047728.819819508,157,1683047728.819819508,-0.0143638,0.00116164,0.00327186,0.000157957,-7.26268e-05,0.000380535,1
1683047728.931466160,158,1683047728.931466160,-0.0129075,-0.000434749,0.00365083,0.000184924,-2.80509e-05,0.000362574,1
1683047728.997634461,159,1683047728.997634461,-0.0109924,0.000884972,-0.00165949,0.000185799,-0.000142849,0.000273608,1
1683047729.106866942,160,1683047729.106866942,-0.0116693,0.00173852,-0.00280197,0.000149945,-8.93534e-05,0.000322638,1
1683047729.204775961,161,1683047729.204775961,-0.0126402,0.000313931,-0.0041532,0.00019671,-0.000180556,0.00034574,1
1683047729.301360892,162,1683047729.301360892,-0.00991708,0.00198343,-0.00280632,0.00019361,-8.69074e-05,0.000268058,1
1683047729.413164372,163,1683047729.413164372,-0.00840822,0.00185167,-0.000727245,0.0001849,-0.000121293,0.00027806,1
1683047729.510077200,164,1683047729.510077200,-0.0107685,6.15967e-05,-0.000969784,0.000174291,-0.000122112,0.000332893,1
1683047729.678845197,165,1683047729.678845197,-0.0129991,0.000259822,0.00162524,0.00013835,-9.58481e-05,0.000285817,1
1683047729.711023120,166,1683047729.711023120,-0.0134788,0.000708411,-0.00258762,0.00024913,-0.00010703,0.000289828,1
1683047729.871893264,167,1683047729.871893264,-0.0114787,0.00225421,-0.00394353,0.000161189,-0.000122625,0.000317011,1
1683047729.899877651,168,1683047729.899877651,-0.0141233,0.00161192,-0.00332986,0.000162878,-0.000144726,0.00028783,1
1683047730.002294821,169,1683047730.002294821,-0.0143382,0.00108146,-0.000543039,0.000133757,-0.000138406,0.000392556,1
1683047730.122825717,170,1683047730.122825717,-0.0118035,-0.000391299,-0.000235286,0.000180422,-0.000115304,0.000326341,1
1683047730.218851777,171,1683047730.218851777,-0.0108783,0.00148555,-0.00159362,0.000148721,-0.000115429,0.000267852,1
1683047730.352812163,172,1683047730.352812163,-0.0119886,0.00176146,-0.00170118,0.000140293,-0.000144581,0.000355205,1
1683047730.429053732,173,1683047730.429053732,-0.0162,-0.00159159,0.00094399,0.000124875,-0.000107057,0.000358348,1
1683047730.524636463,174,1683047730.524636463,-0.0141524,-0.000780459,0.00251978,0.000179985,-4.61755e-05,0.000384887,1
1683047730.600654558,175,1683047730.600654558,-0.0146428,-8.90567e-05,-0.00183415,0.000192335,-0.000135629,0.000314738,1
1683047730.702731384,176,1683047730.702731384,-0.0151851,-0.000246762,-0.00355476,0.000135969,-0.00014183,0.000260404,1
1683047730.804974997,177,1683047730.804974997,-0.0156369,0.0011501,-0.00338033,0.00014727,-0.000127773,0.000324756,1
1683047730.910587163,178,1683047730.910587163,-0.0155156,0.000197613,-0.000567846,0.000129223,-0.000115875,0.000362272,1
1683047731.019530199,179,1683047731.019530199,-0.0128945,0.000379075,-0.000143314,0.000191685,-9.14539e-05,0.000354084,1
1683047731.124758862,180,1683047731.124758862,-0.0137126,5.11785e-05,0.000580665,0.000113789,-0.00010118,0.000279092,1
1683047731.225727909,181,1683047731.225727909,-0.0118337,1.0951e-05,0.00123471,0.000177357,-6.98949e-05,0.000358628,1
1683047731.333021848,182,1683047731.333021848,-0.0156128,-0.000200607,0.00240384,0.000165441,-0.000103122,0.000358853,1
1683047731.428554313,183,1683047731.428554313,-0.0136878,-0.00181296,0.00251886,0.000180783,-1.28111e-05,0.000454923,1
1683047731.499299487,184,1683047731.499299487,-0.0104687,-0.000327443,-0.00345549,0.000187192,-0.000136631,0.0002631,1
1683047731.600679202,185,1683047731.600679202,-0.0100629,0.00131545,-0.00353724,0.00015295,-0.000103479,0.000343533,1
1683047731.702111508,186,1683047731.702111508,-0.0114697,0.00110122,-0.00439314,0.000182482,-0.000165545,0.000252049,1
1683047731.803942119,187,1683047731.803942119,-0.0127011,1.0349e-05,-0.00443013,0.00023818,-0.000102315,0.000329403,1
1683047731.916807020,188,1683047731.916807020,-0.0151255,0.000249941,-0.00149363,0.000139078,-0.00013675,0.000374046,1
1683047732.071338262,189,1683047732.071338262,-0.0179859,-0.00105346,-0.000612867,0.000176857,-0.000134972,0.000376598,1
1683047732.110127085,190,1683047732.110127085,-0.0186445,0.000289246,-0.00104067,0.000181407,-0.000110737,0.000395016,1
1683047732.223464790,191,1683047732.223464790,-0.0169851,-0.000234472,0.00169202,0.000130664,-8.66672e-05,0.000432911,1
1683047732.322857745,192,1683047732.322857745,-0.0142512,7.36258e-05,0.00134165,0.0001769,-5.64041e-05,0.00039398,1
1683047732.423024708,193,1683047732.423024708,-0.0142936,-0.00053564,0.000666547,0.00020367,-8.38652e-05,0.000445544,1
1683047732.535067365,194,1683047732.535067365,-0.0134222,-0.0029715,0.00209403,0.000136783,-8.9063e-05,0.000401191,1
1683047732.603501601,195,1683047732.603501601,-0.014817,-0.000609604,-0.00242628,0.000262925,-0.000101964,0.000284153,1
1683047732.704560078,196,1683047732.704560078,-0.0139299,0.00202093,-0.00370049,0.000172142,-0.000130447,0.000313598,1
1683047732.808354201,197,1683047732.808354201,-0.0145344,0.00104225,-0.00303393,0.000173871,-0.000139454,0.000292371,1
1683047732.899576660,198,1683047732.899576660,-0.0140169,0.00115676,-0.00393857,0.000194529,-0.000173417,0.000378095,1
1683047733.020257616,199,1683047733.020257616,-0.0134249,-9.28515e-05,-0.000895641,0.000133854,-0.000115837,0.000375271,1
1683047733.111073270,200,1683047733.111073270,-0.0128874,-0.00157696,0.000347948,0.000186408,-0.000100505,0.000389309,1
1683047733.268947977,201,1683047733.268947977,-0.0125028,-0.000999518,-0.00045812,0.000196735,-0.000116705,0.000402698,1
1683047733.351033414,202,1683047733.351033414,-0.0131461,0.000239723,0.00118202,0.000128808,-0.000116944,0.000393602,1
1683047733.474720045,203,1683047733.474720045,-0.0124139,-0.00183721,0.00278573,0.00013909,-7.92073e-05,0.000407911,1
1683047733.556093765,204,1683047733.556093765,-0.0126459,-0.00192414,0.00251209,0.000179713,-8.32355e-05,0.000410251,1
1683047733.635553721,205,1683047733.635553721,-0.0130134,-0.00216425,0.00309897,0.000189364,4.79529e-06,0.000430992,1
1683047733.734659008,206,1683047733.734659008,-0.0141949,-0.000141851,-0.00178441,0.000187449,-0.000145606,0.000305012,1
1683047733.801620819,207,1683047733.801620819,-0.0142477,0.000898256,-0.00357925,0.000150465,-0.000155244,0.000237247,1
1683047733.949506042,208,1683047733.949506042,-0.0120367,0.000756432,-0.00415783,0.000179808,-0.000139953,0.000283566,1
1683047734.034529862,209,1683047734.034529862,-0.0124325,0.00206094,-0.00438629,0.000184964,-0.000144608,0.000300272,1
1683047734.155638598,210,1683047734.155638598,-0.0126041,0.000756395,-0.00192567,0.0001361,-0.000136076,0.000349054,1
1683047734.254783469,211,1683047734.254783469,-0.0133754,0.000111789,-0.000387395,0.000162917,-0.000126745,0.000374631,1
1683047734.317721148,212,1683047734.317721148,-0.0113485,0.00118976,-0.00178173,0.000155095,-0.000130739,0.000339626,1
1683047734.431990778,213,1683047734.431990778,-0.00967478,-0.000613226,0.00109833,0.000112582,-8.08327e-05,0.000365925,1
1683047734.525265837,214,1683047734.525265837,-0.0131795,-0.000178331,0.00055056,0.000185577,-6.81987e-05,0.000305614,1
1683047734.623353161,215,1683047734.623353161,-0.0144443,-0.00068816,0.00263177,0.000170834,-0.00013108,0.00035488,1
1683047734.761337860,216,1683047734.761337860,-0.0157514,-0.000959377,0.000960308,0.000195439,-6.03928e-05,0.000374719,1
1683047734.915677064,217,1683047734.915677064,-0.0121999,0.000759231,-0.0031769,0.000180054,-0.000191834,0.000341801,1
1683047734.952478766,218,1683047734.952478766,-0.0108904,0.00235717,-0.00303499,0.000152809,-0.000114625,0.00032485,1
1683047735.000802702,219,1683047735.000802702,-0.0134882,0.00140523,-0.00284605,0.000165435,-0.000147763,0.000306713,1
1683047735.110263143,220,1683047735.110263143,-0.0140756,0.000757675,-0.00298802,0.000183492,-9.62395e-05,0.000331553,1
1683047735.223564079,221,1683047735.223564079,-0.0146207,0.000657876,-0.00173513,0.000166937,-0.000127996,0.000358731,1
1683047735.321383940,222,1683047735.321383940,-0.0108478,-0.000726565,-0.00104472,0.000121005,-0.000135778,0.000321433,1
1683047735.411814599,223,1683047735.411814599,-0.0129233,0.000997096,0.000240644,0.000164886,-0.000128919,0.000318394,1
1683047735.519659471,224,1683047735.519659471,-0.0126803,0.000737091,-0.000993689,0.000174479,-8.28961e-05,0.000444128,1
1683047735.634415060,225,1683047735.634415060,-0.0118507,9.08604e-05,0.000651926,0.000133202,-8.6562e-05,0.000431627,1
1683047735.722326934,226,1683047735.722326934,-0.010468,5.12755e-05,0.00168898,0.000182712,-8.10657e-05,0.000391993,1
1683047735.823512424,227,1683047735.823512424,-0.0116661,-0.00118234,0.00136964,0.000180217,-9.29335e-05,0.000387442,1
1683047735.892078229,228,1683047735.892078229,-0.0147284,0.00172882,-0.00250202,0.000157512,-0.000218199,0.000321398,1
1683047736.005092128,229,1683047736.005092128,-0.0135194,-0.000807195,-0.00347616,0.000151418,-0.000143346,0.000367383,1
1683047736.103244899,230,1683047736.103244899,-0.0130196,-0.000897808,-0.00223995,0.000156395,-9.02976e-05,0.000397841,1
1683047736.201436539,231,1683047736.201436539,-0.0140594,-0.0007495,-0.00471497,0.000148939,-0.000192027,0.000314654,1
1683047736.312401984,232,1683047736.312401984,-0.0128002,0.00052641,-0.0025133,9.74688e-05,-0.000141295,0.000312667,1
1683047736.417601666,233,1683047736.417601666,-0.0131691,0.00125826,-0.00242184,0.000180068,-0.000126991,0.000381608,1
1683047736.521809704,234,1683047736.521809704,-0.0123271,-0.000119779,0.000211767,0.000165258,-8.79098e-05,0.000333588,1
1683047736.622443609,235,1683047736.622443609,-0.0131054,0.000389186,0.00115102,0.000163891,-0.0001213,0.000443999,1
1683047736.724652111,236,1683047736.724652111,-0.0130848,0.000858843,-1.92927e-05,0.000177305,-7.37006e-05,0.000317809,1
1683047736.795993209,237,1683047736.795993209,-0.0118536,0.00116221,-0.00370085,0.000154393,-0.000179865,0.000269892,1
1683047736.903361463,238,1683047736.903361463,-0.0130332,0.00145745,-0.0028726,0.000140245,-0.000136554,0.000342441,1
1683047737.003275141,239,1683047737.003275141,-0.0131881,0.00107822,-0.00318386,0.000170214,-0.000154645,0.000262588,1
1683047737.101500520,240,1683047737.101500520,-0.0159908,3.62351e-05,-0.00290388,0.000161592,-0.000150826,0.000386505,1
1683047737.218038442,241,1683047737.218038442,-0.0146084,0.000718194,-0.00161096,0.000148014,-0.000127519,0.000361759,1
1683047737.311463831,242,1683047737.311463831,-0.0121228,-0.000174067,-0.00206517,0.000168598,-0.000155766,0.000415937,1
1683047737.412428152,243,1683047737.412428152,-0.0126157,-0.000255316,-0.00103757,0.000120417,-0.000133003,0.000353713,1
1683047737.510932575,244,1683047737.510932575,-0.010094,-0.00109858,0.000981357,0.000131781,-0.000103589,0.000433854,1
1683047737.623346246,245,1683047737.623346246,-0.00730025,0.00199594,0.00143631,0.00016063,-8.75847e-05,0.000370836,1
1683047737.819263465,246,1683047737.819263465,-0.0088104,0.00133655,0.0018833,0.000218649,-6.40235e-05,0.000454856,1
1683047737.848785231,247,1683047737.848785231,-0.0103895,0.000259129,0.00137493,0.000201609,-0.000123281,0.00037372,1
1683047737.896175762,248,1683047737.896175762,-0.0101587,0.00172345,-0.00162327,0.00014445,-0.000163964,0.000215789,1
1683047737.999340956,249,1683047737.999340956,-0.0101895,0.00164786,-0.00351394,0.000177008,-0.00012893,0.000216666,1
1683047738.102696735,250,1683047738.102696735,-0.00933834,0.0022539,-0.00283061,0.000187233,-0.000113652,0.000269458,1
1683047738.257734137,251,1683047738.257734137,-0.0108591,0.000203706,-0.00178821,0.000167129,-0.000131074,0.000247075,1
1683047738.384074279,252,1683047738.384074279,-0.0127662,-0.000872436,-0.00230754,0.000139628,-0.000151484,0.000358486,1
1683047738.493598571,253,1683047738.493598571,-0.0104856,-0.00097322,-0.00110523,0.000162234,-0.00010004,0.000329932,1
1683047738.579604670,254,1683047738.579604670,-0.00944452,0.000340827,-0.000513249,0.000168333,-8.57967e-05,0.000290209,1
1683047738.642173422,255,1683047738.642173422,-0.00984651,0.000780857,-0.000470917,0.000141583,-0.000122576,0.000365969,1
1683047738.726274859,256,1683047738.726274859,-0.0106989,0.000332869,0.000719894,0.000124968,-0.000109825,0.000410104,1
1683047738.821849616,257,1683047738.821849616,-0.0127084,-0.00138738,0.000730559,0.000151112,-5.20242e-05,0.000363813,1
1683047738.974595315,258,1683047738.974595315,-0.0123215,0.000391037,0.00146856,0.000178548,-9.02237e-05,0.000350437,1
1683047739.047217391,259,1683047739.047217391,-0.0130194,0.000280202,-0.0027398,0.000225312,-0.000146662,0.000293964,1
1683047739.117258266,260,1683047739.117258266,-0.0126315,-6.96319e-05,-0.00375155,0.000147039,-0.000181963,0.000355578,1
1683047739.219742359,261,1683047739.219742359,-0.0123088,0.000993882,-0.00334699,0.000187288,-0.000139695,0.000319599,1
1683047739.307414792,262,1683047739.307414792,-0.01121,0.00213511,-0.00244159,0.00015829,-0.00014072,0.000300433,1
1683047739.412313949,263,1683047739.412313949,-0.0125375,0.000425955,-0.00101737,0.000127447,-0.000148599,0.00048432,1
1683047739.517527920,264,1683047739.517527920,-0.0134833,0.000273033,-0.00194786,0.000155777,-0.000169693,0.000365421,1
1683047739.625442976,265,1683047739.625442976,-0.0119925,0.00134554,-0.000552831,0.000148074,-9.45116e-05,0.000384639,1
1683047739.741500779,266,1683047739.741500779,-0.0112809,0.00111931,0.000737194,0.000193773,-7.6078e-05,0.000336351,1
1683047739.824472104,267,1683047739.824472104,-0.0102323,-0.000474056,0.000943729,0.000159184,-6.53218e-05,0.00036176,1
1683047739.926964365,268,1683047739.926964365,-0.0134454,-0.0030153,0.000152845,0.000166968,-0.000129922,0.000377081,1
1683047740.036909701,269,1683047740.036909701,-0.0125122,-0.000394935,0.00146782,0.000178934,-0.000113792,0.000426837,1
1683047740.103015900,270,1683047740.103015900,-0.0125201,0.00118985,-0.00192817,0.000226115,-0.000127237,0.000295981,1
1683047740.207678616,271,1683047740.207678616,-0.0124813,6.3957e-05,-0.00318763,0.000148609,-0.000138741,0.000330186,1
1683047740.301864502,272,1683047740.301864502,-0.0120564,0.000710153,-0.00367051,0.000154723,-0.000178511,0.00025325,1
1683047740.401442583,273,1683047740.401442583,-0.0120556,0.00168426,-0.002076,0.000166043,-0.000120134,0.000356588,1
1683047740.513245446,274,1683047740.513245446,-0.0146358,0.000630302,-0.00213878,0.000171018,-0.000106458,0.000342787,1
1683047740.618221706,275,1683047740.618221706,-0.0153964,-0.000714122,-0.000899357,0.000160504,-0.000114159,0.000411737,1
1683047740.745510244,276,1683047740.745510244,-0.0152303,0.0011235,-0.000901001,0.00015441,-0.000156494,0.000382343,1
1683047740.813667921,277,1683047740.813667921,-0.0137058,0.00157965,-0.00116728,0.00012527,-0.000151171,0.000356891,1
1683047740.920317487,278,1683047740.920317487,-0.0134073,0.00105219,0.00126377,0.000147377,-8.46519e-05,0.000418972,1
1683047741.021572864,279,1683047741.021572864,-0.0126868,0.00158063,0.00178157,0.000179654,-9.95625e-05,0.000398664,1
1683047741.123172088,280,1683047741.123172088,-0.0123704,-0.00114109,0.000932962,0.000209097,-0.000105407,0.000345098,1
1683047741.191497678,281,1683047741.191497678,-0.0133821,0.00109101,-0.00228189,0.000213668,-0.00014866,0.000302236,1
1683047741.303309370,282,1683047741.303309370,-0.0141339,0.00117788,-0.00195258,0.000145072,-9.38928e-05,0.000272379,1
1683047741.401678271,283,1683047741.401678271,-0.0146523,0.00140909,-0.00344157,0.000133686,-0.000211092,0.000285825,1
1683047741.500950708,284,1683047741.500950708,-0.0122402,0.00226342,-0.00240011,0.000131522,-0.000127135,0.000328853,1
1683047741.600756377,285,1683047741.600756377,-0.0136249,0.00255969,-0.00171059,0.000149909,-0.000123348,0.000339269,1
1683047741.711544241,286,1683047741.711544241,-0.0134404,-0.000146411,-0.00058192,0.000126151,-9.77367e-05,0.000382396,1
1683047741.812654098,287,1683047741.812654098,-0.0125985,0.000420161,-0.000434019,0.000169098,-9.55238e-05,0.000389806,1
1683047741.913373712,288,1683047741.913373712,-0.0151864,0.000289738,-0.00171053,0.00016311,-0.000172138,0.000458008,1
1683047742.029098248,289,1683047742.029098248,-0.0136808,-0.000663061,0.00137422,0.00011589,-0.000113721,0.000294756,1
1683047742.129852155,290,1683047742.129852155,-0.012414,-0.000302404,0.000879322,0.000180285,-0.000110711,0.000432079,1
1683047742.221244144,291,1683047742.221244144,-0.0127905,-0.000815358,-0.000752212,0.000203309,-7.63017e-05,0.000382538,1
1683047742.289564334,292,1683047742.289564334,-0.0118192,0.000707267,-0.00254494,0.000178078,-0.000135917,0.000300354,1
1683047742.399821513,293,1683047742.399821513,-0.0122388,-0.000267925,-0.00200717,0.000160561,-0.000107464,0.000291714,1
1683047742.502347537,294,1683047742.502347537,-0.00994428,0.00188315,-0.00291997,0.000191766,-0.000145485,0.000327365,1
1683047742.602329629,295,1683047742.602329629,-0.0117077,0.00224626,-0.00382529,0.00016659,-0.000187119,0.000282668,1
1683047742.701279227,296,1683047742.701279227,-0.0109836,0.00294394,-0.00322909,0.000119984,-0.000170462,0.000351714,1
1683047742.812915153,297,1683047742.812915153,-0.0120205,0.000844202,-0.00152064,0.000137686,-0.000130873,0.000377612,1
1683047742.912079747,298,1683047742.912079747,-0.0111259,0.000458853,-0.000712288,0.00014962,-0.000134128,0.000337029,1
1683047743.016431642,299,1683047743.016431642,-0.0101254,0.00147282,-0.000837921,0.000164871,-8.94627e-05,0.000393345,1
1683047743.119922911,300,1683047743.119922911,-0.0106673,0.00158301,0.00058586,0.000168711,-7.22228e-05,0.00044799,1
1683047743.231153417,301,1683047743.231153417,-0.00993117,0.000279854,-0.000180576,0.000162695,-0.000145586,0.000421049,1
1683047743.321837603,302,1683047743.321837603,-0.0101489,0.000347643,-0.000231852,0.000155582,-9.10214e-05,0.00036866,1
1683047743.532123297,303,1683047743.532123297,-0.00980154,0.000871612,-0.00204885,0.000169233,-0.000154557,0.000314989,1
1683047743.576889438,304,1683047743.576889438,-0.00826365,0.0020058,-0.00248963,0.000149883,-0.000134385,0.000378102,1
1683047743.668529393,305,1683047743.668529393,-0.00925475,0.00207566,-0.0011546,9.24482e-05,-0.000133477,0.000273148,1
1683047743.713800217,306,1683047743.713800217,-0.0112961,0.00190653,-0.00221414,0.000162139,-0.000165505,0.000337746,1
1683047743.868748901,307,1683047743.868748901,-0.0124527,0.00219196,-0.00398171,0.000145465,-0.000200177,0.000388597,1
1683047744.033889679,308,1683047744.033889679,-0.0115094,0.00218929,-0.000552876,0.000101763,-8.66604e-05,0.000391926,1
1683047744.147117847,309,1683047744.147117847,-0.0111488,0.00159778,-0.00108727,0.00014359,-0.000137268,0.000342379,1
1683047744.229694946,310,1683047744.229694946,-0.011314,0.00135056,-0.00101587,9.62312e-05,-0.000146296,0.000385285,1
1683047744.314158350,311,1683047744.314158350,-0.00999287,0.000191884,0.000784966,0.000129535,-9.04387e-05,0.000362016,1
1683047744.367105284,312,1683047744.367105284,-0.0108357,-0.000187722,0.000984944,0.000187124,-8.63816e-05,0.000414595,1
1683047744.434911309,313,1683047744.434911309,-0.0117283,0.00133331,0.000439724,0.000192143,-3.79234e-05,0.000422325,1
1683047744.519700706,314,1683047744.519700706,-0.0123714,0.00107614,-0.00251961,0.000128133,-0.000178507,0.000285008,1
1683047744.606034196,315,1683047744.606034196,-0.0101362,0.00133713,-0.00314482,0.000157963,-8.68997e-05,0.000390994,1
1683047744.701487604,316,1683047744.701487604,-0.00956854,0.00172073,-0.00155414,0.000119999,-0.000130825,0.000322982,1
1683047744.802164406,317,1683047744.802164406,-0.0116345,0.000642497,-0.00176456,0.000132954,-0.000157065,0.000331666,1
1683047744.903148545,318,1683047744.903148545,-0.0123026,0.00214835,-0.00254165,0.000117981,-0.000179033,0.00035571,1
1683047745.019385601,319,1683047745.019385601,-0.0122918,0.00101954,-0.00111535,0.000114747,-9.84341e-05,0.000413769,1
1683047745.112322201,320,1683047745.112322201,-0.0108395,0.00222536,-0.000755294,0.000156045,-7.22003e-05,0.000374011,1
1683047745.216774661,321,1683047745.216774661,-0.0111249,0.00132651,-0.00111022,8.40105e-05,-0.00015866,0.000408694,1
1683047745.326144571,322,1683047745.326144571,-0.00930189,-0.000533485,0.000550482,9.94822e-05,-0.000100582,0.000369082,1
1683047745.425910743,323,1683047745.425910743,-0.0100612,-0.000232374,0.000549224,0.000142273,-0.00011186,0.000417785,1
1683047745.522892412,324,1683047745.522892412,-0.00727804,0.000168138,0.0011454,0.000207122,-4.52176e-05,0.00034821,1
1683047745.598788524,325,1683047745.598788524,-0.00898257,0.00194283,-0.00228463,0.000174386,-0.000168877,0.000397194,1
1683047745.703678297,326,1683047745.703678297,-0.0102828,0.00222953,-0.00248322,0.000134547,-0.000122275,0.000290813,1
1683047745.803180385,327,1683047745.803180385,-0.00940473,0.00292041,-0.00167075,0.000135658,-0.000119444,0.000305039,1
1683047745.903906594,328,1683047745.903906594,-0.00734864,0.00265885,-0.00194287,0.000140083,-0.000113513,0.000209684,1
1683047746.004088940,329,1683047746.004088940,-0.00783706,0.00233481,-0.00217672,0.000113516,-0.000175119,0.000322354,1
1683047746.111720347,330,1683047746.111720347,-0.00897716,0.00279083,-0.00120263,0.00011655,-0.000109398,0.000337739,1
1683047746.217076047,331,1683047746.217076047,-0.0105927,0.00193645,0.000266265,0.000107552,-0.000102732,0.000384111,1
1683047746.315335404,332,1683047746.315335404,-0.0123675,-0.000167789,-0.000564652,0.000151631,-9.51663e-05,0.000423047,1
1683047746.420447193,333,1683047746.420447193,-0.00985542,0.000751435,9.51307e-05,0.000129943,-0.000110572,0.000418032,1
1683047746.524643399,334,1683047746.524643399,-0.00796876,0.000398697,0.000637578,0.000168145,-9.96017e-05,0.00037069,1
1683047746.623564342,335,1683047746.623564342,-0.00697363,0.00143004,-1.20659e-05,0.000148994,-8.46789e-05,0.000406098,1
1683047746.691212386,336,1683047746.691212386,-0.00928781,0.0020665,-0.0023112,0.000205408,-0.000148207,0.000227689,1
1683047746.804210206,337,1683047746.804210206,-0.00860613,0.00194501,-0.00321655,0.000161383,-0.000168425,0.000357041,1
1683047746.902083796,338,1683047746.902083796,-0.00878757,0.00235256,-0.0018406,0.000125848,-0.000171556,0.000298006,1
1683047747.005046154,339,1683047747.005046154,-0.00904788,0.000830755,-0.000481501,0.000141734,-0.000103873,0.000309708,1
1683047747.100497025,340,1683047747.100497025,-0.00812884,0.00228528,-0.00149853,0.000170137,-0.000121917,0.000321517,1
1683047747.213292686,341,1683047747.213292686,-0.00782242,0.00204702,0.000870468,0.000104028,-7.14783e-05,0.000366439,1
1683047747.314926005,342,1683047747.314926005,-0.00865596,0.00181432,0.0014189,0.000124649,-8.48446e-05,0.000300241,1
1683047747.415088927,343,1683047747.415088927,-0.0100845,0.00243794,0.001638,0.00013019,-7.79605e-05,0.000362961,1
1683047747.523002769,344,1683047747.523002769,-0.013205,0.00186885,0.000460511,0.000116935,-9.45399e-05,0.000488636,1
1683047747.623840836,345,1683047747.623840836,-0.0115523,0.00195944,0.00145289,0.000158356,-9.30137e-05,0.000444549,1
1683047747.726650549,346,1683047747.726650549,-0.00959832,0.000986919,0.00195421,0.000188988,-3.47185e-05,0.000411483,1
1683047747.798774158,347,1683047747.798774158,-0.00879146,0.00308873,-0.000992006,0.00016863,-0.000126438,0.000257865,1
1683047747.892631458,348,1683047747.892631458,-0.010166,0.0016479,-0.00329566,0.000161583,-0.000187354,0.000388348,1
1683047748.005570475,349,1683047748.005570475,-0.00833476,0.00290989,-0.00267418,8.63243e-05,-0.000168122,0.000267178,1
1683047748.099663040,350,1683047748.099663040,-0.00861387,0.00279514,-0.0017291,0.000161254,-0.000161209,0.000330627,1
1683047748.326336777,351,1683047748.326336777,-0.00841815,0.00243326,-0.00177211,0.000164982,-0.000144783,0.000457531,1
1683047748.464384948,352,1683047748.464384948,-0.00766324,0.00255968,0.000412308,8.41565e-05,-9.37933e-05,0.00027234,1
1683047748.591595903,353,1683047748.591595903,-0.0107595,-0.000272923,5.86956e-05,0.000152919,-8.07405e-05,0.000446778,1
1683047748.668956350,354,1683047748.668956350,-0.0122917,0.00102065,-0.000842626,9.58752e-05,-0.000142576,0.000477561,1
1683047748.699295929,355,1683047748.699295929,-0.00948684,0.000335922,0.000620619,0.000143881,-7.66186e-05,0.000384786,1
1683047748.736531521,356,1683047748.736531521,-0.00927958,0.000877535,0.00196891,0.000151381,-0.000101752,0.000324839,1
1683047748.825622355,357,1683047748.825622355,-0.00918543,-0.000212702,0.0019557,0.000203855,-7.27257e-05,0.000400307,1
1683047748.972308505,358,1683047748.972308505,-0.0106182,0.00279539,-0.00200311,0.000226751,-0.000157348,0.000378634,1
1683047749.070347864,359,1683047749.070347864,-0.0122472,0.00134307,-0.00374145,0.000181752,-0.000190814,0.000254645,1
1683047749.198127312,360,1683047749.198127312,-0.0135795,0.00166258,-0.000823794,0.000147742,-0.000104223,0.000328317,1
1683047749.299165724,361,1683047749.299165724,-0.0113267,0.00164328,-0.000169166,0.000126289,-0.00010647,0.000434631,1
1683047749.366948403,362,1683047749.366948403,-0.00934997,0.00188588,-0.000504158,0.000119446,-0.00013651,0.000327156,1
1683047749.436435073,363,1683047749.436435073,-0.00890406,0.00132399,0.000408792,0.000102677,-0.000122445,0.00036052,1
1683047749.528864882,364,1683047749.528864882,-0.0106536,0.000771416,0.00109079,0.000110673,-0.000101326,0.000403934,1
1683047749.642492040,365,1683047749.642492040,-0.0110588,-0.000908417,0.000396533,0.000162024,-7.45215e-05,0.000374769,1
1683047749.748530090,366,1683047749.748530090,-0.010323,-0.000859767,0.00170184,0.000131962,-7.8242e-05,0.000416356,1
1683047749.837318830,367,1683047749.837318830,-0.00796137,0.000877438,0.00160677,0.000159586,-0.000101,0.000311453,1
1683047749.923589263,368,1683047749.923589263,-0.0100128,0.000760035,0.000934632,0.000141754,-7.1184e-05,0.000339202,1
1683047749.993935665,369,1683047749.993935665,-0.0102668,0.00145081,-0.00248764,0.000241722,-0.000129994,0.000324721,1
1683047750.095094529,370,1683047750.095094529,-0.011699,0.00224343,-0.00134412,0.000127915,-0.000150633,0.000306075,1
1683047750.218625453,371,1683047750.218625453,-0.0114519,0.00147716,-0.00172015,0.000161876,-0.000150094,0.000248967,1
1683047750.304484578,372,1683047750.304484578,-0.0109843,0.00105519,-0.00117598,0.000184815,-0.000123367,0.000269033,1
1683047750.406275668,373,1683047750.406275668,-0.0110464,0.00136254,-0.000968552,0.000199322,-7.02897e-05,0.000336447,1
1683047750.519810717,374,1683047750.519810717,-0.0112818,0.000640064,0.00177908,0.00011961,-5.76894e-05,0.000378687,1
1683047750.612066437,375,1683047750.612066437,-0.0118384,0.000713385,0.000990846,0.000129268,-0.000105517,0.000459981,1
1683047750.713278166,376,1683047750.713278166,-0.0145957,0.000475844,0.000407545,7.16239e-05,-0.000134309,0.000438106,1
1683047750.834168320,377,1683047750.834168320,-0.0147779,-0.00137127,0.000267592,0.000132115,-7.51881e-05,0.000501947,1
1683047750.922514198,378,1683047750.922514198,-0.012236,0.00227641,0.00212763,0.000158243,-6.90354e-05,0.000469262,1
1683047751.023471724,379,1683047751.023471724,-0.0116966,0.00123718,0.00172663,0.000205967,-7.00748e-05,0.000477786,1
1683047751.093022976,380,1683047751.093022976,-0.0125811,0.00196366,-0.00142562,0.000206851,-0.000144377,0.000393009,1
1683047751.193002446,381,1683047751.193002446,-0.0132648,0.00164035,-0.00281528,0.00017208,-0.000132649,0.0003526,1
1683047751.305221521,382,1683047751.305221521,-0.0131083,0.00161668,-0.00163716,0.000141841,-0.000128504,0.000308257,1
1683047751.402913520,383,1683047751.402913520,-0.0116018,0.00249251,-0.000883373,0.00016165,-0.000156413,0.000303605,1
1683047751.504299300,384,1683047751.504299300,-0.00858431,0.00206901,-0.00028794,0.000118755,-7.03723e-05,0.000326211,1
1683047751.609857046,385,1683047751.609857046,-0.00960153,0.00134801,0.00130415,0.00011427,-7.12692e-05,0.000394692,1
1683047751.711471535,386,1683047751.711471535,-0.013457,0.00151958,0.000835288,0.000140432,-9.41601e-05,0.000478475,1
1683047751.815879800,387,1683047751.815879800,-0.0125458,0.0021468,0.00095473,0.000125386,-9.60375e-05,0.000422754,1
1683047751.922295448,388,1683047751.922295448,-0.0133957,-0.000531854,0.000458352,0.00015556,-0.000123239,0.000391219,1
1683047752.021434211,389,1683047752.021434211,-0.0120654,-0.00148041,0.00072247,0.000127188,-0.000119234,0.000376514,1
1683047752.120849488,390,1683047752.120849488,-0.0114038,-0.00133805,0.000364129,0.000160238,-0.000103201,0.000417771,1
1683047752.200890210,391,1683047752.200890210,-0.010621,0.000479333,-0.0015154,0.000214971,-0.000108203,0.00028019,1
1683047752.291862678,392,1683047752.291862678,-0.0119728,0.00168914,-0.00213744,0.0002031,-6.54156e-05,0.00030358,1
1683047752.413565096,393,1683047752.413565096,-0.0135688,0.0018917,-0.000954247,0.000123651,-0.000115553,0.000321861,1
1683047752.502575100,394,1683047752.502575100,-0.0141576,9.53769e-05,-0.00200015,0.000197392,-0.000104908,0.000397285,1
1683047752.602327076,395,1683047752.602327076,-0.0128399,0.00168776,-0.00150253,0.000123063,-0.000159325,0.000298936,1
1683047752.715533352,396,1683047752.715533352,-0.0088412,0.00082803,0.000211044,9.48724e-05,-0.000116656,0.000334606,1
1683047752.819853062,397,1683047752.819853062,-0.00979433,0.0011517,-0.000184871,0.000122016,-0.000123307,0.000338936,1
1683047752.914605464,398,1683047752.914605464,-0.0112398,0.00238014,0.000408868,0.000111939,-5.04563e-05,0.000385246,1
1683047753.022229865,399,1683047753.022229865,-0.0118464,0.00190697,0.00286596,0.000133712,-5.64901e-05,0.000411026,1
1683047753.122682615,400,1683047753.122682615,-0.0108442,-0.00133707,0.002461,0.000195491,-3.753e-05,0.00037865,1
1683047753.287805723,401,1683047753.287805723,-0.00971614,-0.00116822,0.00146367,0.000184208,-7.68831e-05,0.000406048,1
1683047753.391684151,402,1683047753.391684151,-0.0120434,0.00155621,-0.00202578,0.000225915,-0.000127039,0.000217642,1
1683047753.519771728,403,1683047753.519771728,-0.012598,0.0014656,-0.00242943,0.000146102,-0.00014075,0.000303897,1
1683047753.636776531,404,1683047753.636776531,-0.0121313,-0.000197069,-0.00133924,0.000115126,-0.000105134,0.000330022,1
1683047753.717095685,405,1683047753.717095685,-0.011304,-0.000200699,-0.00105513,0.000181473,-0.000150352,0.000348244,1
1683047753.799612170,406,1683047753.799612170,-0.0124008,0.000994689,-0.00136187,0.000187761,-0.000116423,0.000439039,1
1683047753.829353721,407,1683047753.829353721,-0.0134443,0.00157743,0.00124027,0.000125241,-7.88325e-05,0.000413142,1
1683047753.944125791,408,1683047753.944125791,-0.0137636,0.000309849,0.00109912,0.000145219,-0.000118313,0.000405047,1
1683047754.054185426,409,1683047754.054185426,-0.0126496,0.0010683,0.0015984,0.000129333,-6.36885e-05,0.000362617,1
1683047754.143424067,410,1683047754.143424067,-0.0121114,0.00122084,0.00124317,9.90045e-05,-0.00013429,0.000440835,1
1683047754.246639619,411,1683047754.246639619,-0.00885195,0.00156841,0.0025031,0.000134926,-6.93022e-05,0.000446695,1
1683047754.340287363,412,1683047754.340287363,-0.00973029,-0.000721308,0.00254349,0.000206294,-2.23334e-05,0.00043913,1
1683047754.419164652,413,1683047754.419164652,-0.0110375,0.001815,-0.00224938,0.000255573,-0.00016154,0.000234022,1
1683047754.495328218,414,1683047754.495328218,-0.0131791,-0.000272439,-0.00201666,0.000160439,-8.29671e-05,0.000289305,1
1683047754.602400362,415,1683047754.602400362,-0.0132814,-0.000154987,-0.000752684,0.000145747,-0.000110612,0.00033368,1
1683047754.710928939,416,1683047754.710928939,-0.0126264,-0.000442889,-0.00132719,0.000136499,-0.000148324,0.000462916,1
1683047754.927787183,417,1683047754.927787183,-0.0135674,7.77219e-05,-0.000414049,0.000145446,-0.000108382,0.000273249,1
1683047754.986132402,418,1683047754.986132402,-0.0103342,0.00131455,0.00253691,5.78615e-05,-7.59773e-05,0.000357509,1
1683047755.024424895,419,1683047755.024424895,-0.00931146,0.000902915,0.00316471,0.000126368,-3.15691e-05,0.00044066,1
1683047755.126720273,420,1683047755.126720273,-0.0118407,-0.000820757,0.00105893,0.000151024,-8.67698e-05,0.000398259,1
1683047755.225047598,421,1683047755.225047598,-0.0120072,0.000232916,0.000750564,0.000128109,-7.47563e-05,0.000437041,1
1683047755.332248326,422,1683047755.332248326,-0.0131953,-0.000635795,0.00193883,0.000100776,-0.000129018,0.000490966,1
1683047755.432013919,423,1683047755.432013919,-0.0127804,-0.00176796,0.00154183,0.000166665,-6.38905e-05,0.000415654,1
1683047755.502023297,424,1683047755.502023297,-0.0139843,0.000225798,-0.00318879,0.000239472,-0.00021037,0.000384925,1
1683047755.592980085,425,1683047755.592980085,-0.0138396,0.000219861,-0.00496398,0.000255553,-0.00012856,0.000438388,1
1683047755.704575918,426,1683047755.704575918,-0.0130768,8.06545e-05,-0.00173887,0.000123155,-0.000153139,0.000348166,1
1683047755.803319289,427,1683047755.803319289,-0.0128989,0.000547948,-0.000701267,0.000168805,-0.000122298,0.00042747,1
1683047755.914735063,428,1683047755.914735063,-0.0118984,0.000348375,-0.00195232,0.000121933,-0.000149004,0.000342485,1
1683047756.019098494,429,1683047756.019098494,-0.0113884,0.000400081,0.000115122,8.97834e-05,-0.000110864,0.000402336,1
1683047756.113320976,430,1683047756.113320976,-0.0133349,-0.00113528,0.00237553,9.40246e-05,-7.03514e-05,0.000439278,1
1683047756.211276521,431,1683047756.211276521,-0.0140021,-0.000416429,0.000386288,0.000151782,-8.88253e-05,0.000380483,1
1683047756.322781225,432,1683047756.322781225,-0.0119548,-0.00083387,-0.000349117,0.000100128,-8.53124e-05,0.000438768,1
1683047756.426822806,433,1683047756.426822806,-0.0108519,-0.000453722,0.000630415,0.000154246,-7.3375e-05,0.000450434,1
1683047756.521649537,434,1683047756.521649537,-0.0119897,-0.000667703,0.00130968,0.000117294,-0.000125769,0.000476891,1
1683047756.591649236,435,1683047756.591649236,-0.0126654,-0.00020978,-0.00199514,0.000239498,-0.000151626,0.000359452,1
1683047756.693007779,436,1683047756.693007779,-0.0165136,0.00103741,-0.00225982,0.000175568,-0.000127294,0.000352775,1
1683047756.805625070,437,1683047756.805625070,-0.0156073,0.000338327,-0.00156207,0.000139719,-0.000158721,0.000423584,1
1683047756.902743331,438,1683047756.902743331,-0.0142281,-9.02778e-05,-0.00133321,0.000141021,-0.000171396,0.000347582,1
1683047757.001246170,439,1683047757.001246170,-0.0139996,-0.000232661,-0.000752253,0.00021089,-8.74318e-05,0.000365279,1
1683047757.114748297,440,1683047757.114748297,-0.015169,-0.00127631,0.000745724,0.000138108,-6.53073e-05,0.000436726,1
1683047757.213877317,441,1683047757.213877317,-0.011206,-0.00170308,0.00153092,0.00013829,-6.07343e-05,0.000243795,1
1683047757.319243827,442,1683047757.319243827,-0.0119894,-0.000357756,0.00112936,0.000124746,-0.000102408,0.000429773,1
1683047757.423082139,443,1683047757.423082139,-0.0106575,-0.000547235,0.00312413,0.000117442,-4.23527e-05,0.00052431,1
1683047757.522655795,444,1683047757.522655795,-0.0122612,-0.00177695,0.00299823,0.000174492,-5.99316e-05,0.000561253,1
1683047757.629561777,445,1683047757.629561777,-0.0155047,-0.00125139,0.00215165,0.00014498,-9.23116e-05,0.000596742,1
1683047757.753078596,446,1683047757.753078596,-0.0142906,-0.00101744,-0.00222483,0.000225331,-0.000129449,0.000337235,1
1683047757.800270982,447,1683047757.800270982,-0.0118195,0.00162225,-0.00194316,0.000152485,-5.72203e-05,0.000360618,1
1683047757.901127758,448,1683047757.901127758,-0.0117862,-0.000878677,-0.0003472,0.000176115,-9.59528e-05,0.000381767,1
1683047758.001791520,449,1683047758.001791520,-0.00987111,0.000326197,-0.000877363,0.000179637,-0.000127831,0.000326595,1
1683047758.103396054,450,1683047758.103396054,-0.01029,-0.00130493,-0.000717405,0.000168625,-0.000113768,0.000416514,1
1683047758.280263277,451,1683047758.280263277,-0.00936235,-0.00192484,0.00177911,8.94878e-05,-6.24985e-05,0.000425414,1
1683047758.388097045,452,1683047758.388097045,-0.0107974,-0.00111683,0.00212935,0.00017714,-4.18779e-05,0.000429041,1
1683047758.478517216,453,1683047758.478517216,-0.00715157,0.000774913,0.00201104,0.00015661,-4.86661e-05,0.000402383,1
1683047758.556520987,454,1683047758.556520987,-0.00745893,-0.00115495,0.00179292,0.000103464,-7.09083e-05,0.000496839,1
1683047758.627599783,455,1683047758.627599783,-0.00950928,-0.00208651,0.00374172,0.000119229,-5.26435e-05,0.000388998,1
1683047758.722344868,456,1683047758.722344868,-0.00774582,-0.000100847,0.00414115,0.000175857,-4.67345e-05,0.000363326,1
1683047758.793146376,457,1683047758.793146376,-0.00869227,0.00102281,-0.0021724,0.0002822,-0.000102863,0.000240722,1
1683047758.917487515,458,1683047758.917487515,-0.0103036,0.000523744,-0.00338958,0.000189921,-0.00018741,0.000342784,1
1683047759.009448657,459,1683047759.009448657,-0.0104075,0.00264277,-0.00200014,0.000157393,-0.000146442,0.000250461,1
1683047759.289428320,460,1683047759.289428320,-0.0104159,0.000309045,-0.00150477,0.00019382,-0.000123082,0.000334799,1
1683047759.355964137,461,1683047759.355964137,-0.0111576,0.00167262,-0.00180542,0.000181711,-0.000149106,0.000327841,1
1683047759.400947216,462,1683047759.400947216,-0.0113286,-0.000400082,0.00200538,0.000101925,-8.26008e-05,0.000321986,1
1683047759.446098175,463,1683047759.446098175,-0.0113653,-0.00216046,0.00362972,0.000149568,-2.93399e-05,0.000453577,1
1683047759.534364641,464,1683047759.534364641,-0.0109674,-0.00238933,0.00196101,0.000159368,-5.83841e-05,0.000422858,1
1683047759.630202213,465,1683047759.630202213,-0.0108545,-0.00230754,0.00271542,0.000106276,-5.15578e-05,0.000472327,1
1683047759.759340756,466,1683047759.759340756,-0.0105797,-0.0014414,0.00178375,0.000113994,-8.9562e-05,0.000550363,1
1683047759.859639027,467,1683047759.859639027,-0.00963902,-0.000391075,0.00219735,0.000104475,-5.47808e-05,0.000450596,1
1683047760.017761995,468,1683047760.017761995,-0.0126783,-0.000677764,-0.00260295,0.00030795,-5.419e-05,0.000197262,1
1683047760.066823606,469,1683047760.066823606,-0.0134891,0.000332189,-0.00356756,0.000173352,-0.000192032,0.00026545,1
1683047760.111429994,470,1683047760.111429994,-0.012082,-0.000347283,-0.000996035,0.000125724,-0.000153968,0.000385989,1
1683047760.205543411,471,1683047760.205543411,-0.00995657,-0.00147785,-0.00190399,0.000226425,-0.000142163,0.000363351,1
1683047760.366711127,472,1683047760.366711127,-0.00979584,-0.00109921,-0.00112878,0.000219006,-6.62165e-05,0.000391618,1
1683047760.422653959,473,1683047760.422653959,-0.0113566,0.000156009,0.00124936,0.000115969,-5.45593e-05,0.00043479,1
1683047760.532580849,474,1683047760.532580849,-0.0128794,-0.0022889,0.00167651,0.000138362,-0.000105086,0.000421019,1
1683047760.651848668,475,1683047760.651848668,-0.0120913,-0.0006574,0.0017355,0.000120256,-7.90329e-05,0.000479236,1
1683047760.713444333,476,1683047760.713444333,-0.0104857,-0.000928022,0.00162159,0.000162889,-4.09055e-05,0.000471022,1
1683047760.835015983,477,1683047760.835015983,-0.014041,-0.00276437,0.00310662,0.000131807,-5.16153e-05,0.000569158,1
1683047760.924208756,478,1683047760.924208756,-0.0141366,-0.00235992,0.00329929,0.000194704,-1.78969e-05,0.000468593,1
1683047760.995008809,479,1683047760.995008809,-0.0139932,-0.000567179,-0.00228657,0.000238073,-9.04513e-05,0.000309809,1
1683047761.101136517,480,1683047761.101136517,-0.0141354,0.00104869,-0.00510944,0.000209095,-0.000217001,0.000332764,1
1683047761.203667584,481,1683047761.203667584,-0.0113724,-6.69677e-05,-0.00270295,0.000121652,-0.000193386,0.000434635,1
1683047761.304933893,482,1683047761.304933893,-0.0112945,-0.00102097,-0.00156457,0.000162613,-0.000155426,0.000407107,1
1683047761.406087708,483,1683047761.406087708,-0.0113711,-0.0014688,-0.00145286,0.00019279,-0.000113688,0.000428399,1
1683047761.515131152,484,1683047761.515131152,-0.0122715,-0.000428096,0.00169662,8.87839e-05,-7.1682e-05,0.000444115,1
1683047761.616091623,485,1683047761.616091623,-0.0119627,0.000651184,0.00106165,0.000152244,-7.50123e-05,0.000494811,1
1683047761.714985805,486,1683047761.714985805,-0.0121706,-0.00154482,-0.00052597,0.000131515,-0.000136068,0.000480255,1
1683047761.843069094,487,1683047761.843069094,-0.0124612,-0.00167126,0.00219628,9.98012e-05,-6.90598e-05,0.000542468,1
1683047761.932537593,488,1683047761.932537593,-0.0112924,-0.00182996,0.00328218,0.000115765,-8.55508e-05,0.000537162,1
1683047762.024116305,489,1683047762.024116305,-0.0137487,-0.00206122,0.00400998,0.000168094,-3.16605e-05,0.000543017,1
1683047762.094222906,490,1683047762.094222906,-0.0149601,-0.000282216,-0.00313269,0.000231293,-0.000255003,0.000360891,1
1683047762.190586471,491,1683047762.190586471,-0.0122981,0.00256763,-0.0041734,0.000248266,-0.000117642,0.000353681,1
1683047762.302273371,492,1683047762.302273371,-0.0148725,-0.000115468,-0.000862957,9.76285e-05,-0.000159014,0.000478871,1
1683047762.407525666,493,1683047762.407525666,-0.0122234,0.00139771,-0.00134003,0.000230017,-9.51625e-05,0.000392755,1
1683047762.502389590,494,1683047762.502389590,-0.010319,0.000522136,-0.00179502,0.000182407,-0.000142561,0.000382794,1
1683047762.614515757,495,1683047762.614515757,-0.00996582,-0.0010252,0.00190204,8.49951e-05,-0.000101752,0.000473982,1
1683047762.721947200,496,1683047762.721947200,-0.0116654,0.00121543,0.00288453,0.00011885,-6.5699e-05,0.000440996,1
1683047762.814095454,497,1683047762.814095454,-0.0149779,0.000413882,0.00226789,0.000134285,-8.31152e-05,0.000544506,1
1683047762.920449261,498,1683047762.920449261,-0.0125461,-0.000562388,0.000397038,0.000169664,-7.87714e-05,0.000418944,1
1683047763.039986488,499,1683047763.039986488,-0.0139447,-0.000787057,0.00331333,8.3463e-05,-4.15166e-05,0.000595109,1
1683047763.122904593,500,1683047763.122904593,-0.0135046,-0.00233993,0.00431229,0.000152881,-5.88178e-05,0.000488675,1
1683047763.344292566,501,1683047763.344292566,-0.0124861,0.000401151,-0.00329133,0.00032263,-0.000135554,0.000516148,1
