%time,field.header.seq,field.header.stamp,field.pose.position.x,field.pose.position.y,field.pose.position.z,field.pose.orientation.x,field.pose.orientation.y,field.pose.orientation.z,field.pose.orientation.w,field.twist.twist.linear.x,field.twist.twist.linear.y,field.twist.twist.linear.z,field.twist.twist.angular.x,field.twist.twist.angular.y,field.twist.twist.angular.z
1609045333348801840,0,1609045333348801840,-1.11061e-05,0.000601381,0.00052237,-0.000182506,-0.000123022,0.000174295,1,0,0,0,0,0,0
1609045333451408127,1,1609045333451408127,0.000334935,0.000553938,0.00131127,-0.00010348,-0.000206766,0.000141834,1,0,0,0,0,0,0
1609045333554259442,2,1609045333554259442,0.000901321,0.000805012,0.00103827,-7.28415e-05,-0.00012059,9.95783e-05,1,0,0,0,0,0,0
1609045333657127079,3,1609045333657127079,0.000396217,0.000463576,0.00209726,-0.000120229,-0.000200888,0.000106962,1,0,0,0,0,0,0
1609045333760306807,4,1609045333760306807,0.00166802,0.00176954,0.00183671,-7.96916e-05,-0.000125912,2.57497e-05,1,0,0,0,0,0,0
1609045333863747823,5,1609045333863747823,0.00173806,-0.000355626,0.00228339,-1.77021e-05,-8.5199e-05,2.70343e-05,1,0,0,0,0,0,0
1609045333934010280,6,1609045333934010280,0.000250602,-0.0014143,0.00276231,3.84336e-06,-5.11532e-05,1.86675e-05,1,0,0,0,0,0,0
1609045334035312750,7,1609045334035312750,0.00171991,0.000952458,0.000863752,-4.51087e-06,-8.70047e-05,-4.95777e-05,1,0,0,0,0,0,0
1609045334138331775,8,1609045334138331775,0.00101361,0.002706,-0.000388904,-1.85863e-05,-0.000141797,-9.25702e-06,1,0,0,0,0,0,0
1609045334241468648,9,1609045334241468648,0.00235692,0.00182541,-0.00161596,8.05159e-06,-0.000104674,-3.01593e-05,1,0,0,0,0,0,0
1609045334344986375,10,1609045334344986375,0.00426421,0.0020724,0.00168552,-4.18406e-05,-9.13119e-05,4.61927e-05,1,0,0,0,0,0,0
1609045334448817033,11,1609045334448817033,0.00262834,0.000548517,0.00156166,-4.01708e-05,-7.10878e-05,2.64667e-05,1,0,0,0,0,0,0
1609045334550580743,12,1609045334550580743,0.00174028,0.000574695,0.00108727,-6.54134e-05,-0.000116068,5.40798e-05,1,0,0,0,0,0,0
1609045334654011082,13,1609045334654011082,0.00241496,0.00254276,0.0024005,1.27829e-05,-6.51777e-05,3.50099e-05,1,0,0,0,0,0,0
1609045334756903906,14,1609045334756903906,0.00129853,0.00229453,0.00409231,-4.47422e-06,-2.48725e-05,3.33175e-05,1,0,0,0,0,0,0
1609045334860278746,15,1609045334860278746,0.00417632,0.000561831,0.0031759,-2.42997e-05,-1.67114e-05,7.21569e-05,1,0,0,0,0,0,0
1609045334962992249,16,1609045334962992249,0.00468387,-0.000199403,0.0016559,2.2471e-06,-7.83468e-05,4.79978e-05,1,0,0,0,0,0,0
1609045335036881994,17,1609045335036881994,0.00376404,-0.00102975,0.00319025,2.86077e-05,-1.92893e-05,0.000129675,1,0,0,0,0,0,0
1609045335140093684,18,1609045335140093684,-0.000336804,0.00217725,0.000169171,7.41292e-05,-0.000119542,3.2046e-05,1,0,0,0,0,0,0
1609045335243832046,19,1609045335243832046,8.91131e-05,0.000996436,5.11545e-05,1.01033e-05,-0.00013445,5.39049e-05,1,0,0,0,0,0,0
1609045335346648794,20,1609045335346648794,-0.00255424,-0.000624313,0.00161339,-5.07649e-05,-0.000107006,0.000203688,1,0,0,0,0,0,0
1609045335450445708,21,1609045335450445708,-0.00172128,0.00194063,0.00108844,-4.54121e-05,-0.000100678,0.000122713,1,0,0,0,0,0,0
1609045335553537074,22,1609045335553537074,0.000486638,0.00299205,0.00158867,-1.41907e-05,-7.95628e-05,0.000145033,1,0,0,0,0,0,0
1609045335657122533,23,1609045335657122533,-0.000366989,4.64116e-05,0.00212026,-2.99982e-05,-2.23103e-05,0.000154947,1,0,0,0,0,0,0
1609045335758650635,24,1609045335758650635,0.00322364,0.00063167,0.00301052,7.07581e-06,-3.12211e-05,3.27243e-05,1,0,0,0,0,0,0
1609045335861435989,25,1609045335861435989,0.00309568,0.00111504,0.00296458,9.35165e-06,-3.5475e-05,0.000113488,1,0,0,0,0,0,0
1609045335933333316,26,1609045335933333316,0.000624486,-0.00017332,0.00389703,3.8003e-05,-5.2752e-06,5.70124e-05,1,0,0,0,0,0,0
1609045336033698866,27,1609045336033698866,-0.00111423,0.00180143,0.00026163,1.49454e-05,-0.000113476,0.000168005,1,0,0,0,0,0,0
1609045336137942855,28,1609045336137942855,-0.0013164,0.00253377,-0.000542916,4.48355e-06,-0.000145704,0.000185191,1,0,0,0,0,0,0
1609045336240868301,29,1609045336240868301,-0.00406999,0.00128484,-0.00033281,-1.97432e-05,-0.000104995,0.000158933,1,0,0,0,0,0,0
1609045336342889199,30,1609045336342889199,-0.00326157,0.00236589,-0.000149901,1.94536e-05,-0.000127003,0.00022033,1,0,0,0,0,0,0
1609045336445773839,31,1609045336445773839,-0.00231266,1.22077e-05,0.00175478,-2.43179e-07,-6.3552e-05,0.000142412,1,0,0,0,0,0,0
1609045336550275340,32,1609045336550275340,-0.00095647,0.00354264,0.00143352,-5.4178e-05,-0.000101904,0.000143111,1,0,0,0,0,0,0
1609045336652543720,33,1609045336652543720,0.00198536,0.00281644,0.002797,1.58532e-05,-4.29546e-05,0.000144988,1,0,0,0,0,0,0
1609045336755619516,34,1609045336755619516,-0.000154708,0.00156203,0.0034305,-3.37337e-05,-2.40517e-05,8.3426e-05,1,0,0,0,0,0,0
1609045336858505284,35,1609045336858505284,4.68151e-05,0.000184226,0.00431351,2.06573e-06,-1.59682e-05,9.03418e-05,1,0,0,0,0,0,0
1609045336961292435,36,1609045336961292435,-0.000826625,0.00241449,0.0037215,8.10029e-07,-7.51344e-05,0.000137548,1,0,0,0,0,0,0
1609045337034416236,37,1609045337034416236,-0.0015445,0.00247066,0.00370392,4.19309e-05,1.152e-05,0.000155351,1,0,0,0,0,0,0
1609045337133888768,38,1609045337133888768,-0.00461376,0.00356568,0.000541076,2.99412e-05,-9.90982e-05,0.00010996,1,0,0,0,0,0,0
1609045337237661233,39,1609045337237661233,-0.00313367,0.0037043,-0.000178893,2.58962e-05,-0.000113138,0.000149586,1,0,0,0,0,0,0
1609045337339965043,40,1609045337339965043,-0.00152528,0.00268769,6.86521e-05,7.59723e-06,-0.000125688,0.000211929,1,0,0,0,0,0,0
1609045337442790301,41,1609045337442790301,-0.000113576,0.00365949,0.000854671,-2.88645e-06,-0.000126595,0.00014776,1,0,0,0,0,0,0
1609045337550874594,42,1609045337550874594,-0.00299875,0.00328072,0.00241085,-2.36748e-05,-6.79724e-05,0.000232488,1,0,0,0,0,0,0
1609045337653517084,43,1609045337653517084,-0.00468405,0.00363595,0.00297618,4.89143e-05,-5.43209e-05,0.000153904,1,0,0,0,0,0,0
1609045337758701331,44,1609045337758701331,-0.00418555,0.00202552,0.00409668,2.11823e-05,-2.97953e-05,0.00018638,1,0,0,0,0,0,0
1609045337861159235,45,1609045337861159235,-0.00205486,0.00290656,0.00436588,2.9407e-05,-4.34534e-05,0.000133266,1,0,0,0,0,0,0
1609045337964150116,46,1609045337964150116,0.00355476,0.00551546,0.00408318,2.62599e-05,2.69483e-05,9.434e-05,1,0,0,0,0,0,0
1609045338033470182,47,1609045338033470182,0.000666595,0.00205699,0.00374947,5.75282e-05,3.27418e-06,7.63853e-05,1,0,0,0,0,0,0
1609045338135342352,48,1609045338135342352,-0.00244498,0.00263205,0.000762454,3.20826e-05,-0.000103232,0.000127147,1,0,0,0,0,0,0
1609045338240126520,49,1609045338240126520,-0.00357691,0.00330608,-0.000179629,-1.19396e-05,-0.000144212,0.000228478,1,0,0,0,0,0,0
1609045338341446165,50,1609045338341446165,-0.00534404,0.00471849,0.000127957,3.11594e-05,-0.000102906,8.42692e-05,1,0,0,0,0,0,0
1609045338446226256,51,1609045338446226256,0.000211011,0.000360523,0.0034241,9.16623e-06,-2.46383e-05,0.000134403,1,0,0,0,0,0,0
1609045338552102091,52,1609045338552102091,0.00102114,0.00407115,0.00374319,2.60891e-05,-5.02955e-05,9.08378e-05,1,0,0,0,0,0,0
1609045338655307359,53,1609045338655307359,-0.00278866,0.00266412,0.00567278,1.11151e-05,-1.85677e-05,0.000199513,1,0,0,0,0,0,0
1609045338758886290,54,1609045338758886290,-0.00325539,0.000558799,0.00561738,2.94128e-05,2.94479e-06,0.000217748,1,0,0,0,0,0,0
1609045338861420384,55,1609045338861420384,0.000442784,0.00124724,0.00481992,5.46191e-05,4.81851e-05,0.000104614,1,0,0,0,0,0,0
1609045338933745887,56,1609045338933745887,-0.00228133,0.00162014,0.00442026,8.99379e-05,4.42537e-05,0.000205739,1,0,0,0,0,0,0
1609045339033212980,57,1609045339033212980,-0.00546906,0.00185378,0.000796467,2.58254e-05,-0.000100635,0.0001633,1,0,0,0,0,0,0
1609045339136552111,58,1609045339136552111,-0.00370646,0.00421325,0.000980032,2.1471e-05,-6.42605e-05,0.000205096,1,0,0,0,0,0,0
1609045339239628696,59,1609045339239628696,-0.00678914,0.00213468,0.00158084,5.17138e-05,-7.93641e-05,0.000224845,1,0,0,0,0,0,0
1609045339343123773,60,1609045339343123773,-0.00722031,0.00257043,0.00132372,7.79008e-05,-7.826e-05,0.000156717,1,0,0,0,0,0,0
1609045339445812238,61,1609045339445812238,-0.00652063,0.00234495,0.00242233,-1.17349e-05,-8.31278e-05,0.000208472,1,0,0,0,0,0,0
1609045339548739986,62,1609045339548739986,-0.00523192,0.00119793,0.00283058,3.43178e-05,-5.05598e-05,0.000222327,1,0,0,0,0,0,0
1609045339651870893,63,1609045339651870893,-0.00477367,0.00210241,0.00343476,2.76259e-05,-4.26741e-05,0.000185027,1,0,0,0,0,0,0
1609045339758233429,64,1609045339758233429,-0.00504454,0.00177264,0.00470492,1.13489e-05,2.3256e-05,0.00022833,1,0,0,0,0,0,0
1609045339858290330,65,1609045339858290330,-0.00463123,0.000557026,0.00398161,4.29605e-05,-1.17815e-05,0.000182398,1,0,0,0,0,0,0
1609045339961101515,66,1609045339961101515,0.000997096,0.00228251,0.00484523,3.06409e-05,2.36277e-05,0.000106714,1,0,0,0,0,0,0
1609045340032992629,67,1609045340032992629,-0.00191167,0.000988868,0.00523636,0.00011615,5.20146e-05,0.000194962,1,0,0,0,0,0,0
1609045340133539304,68,1609045340133539304,-0.00200282,0.00353932,0.00134308,5.4485e-05,-6.73143e-05,9.98847e-05,1,0,0,0,0,0,0
1609045340237145459,69,1609045340237145459,-0.000452437,0.00335639,0.000185524,1.04359e-05,-6.96139e-05,7.92077e-05,1,0,0,0,0,0,0
1609045340339724833,70,1609045340339724833,-0.0035848,0.00209438,0.000980959,4.74802e-05,-0.000106539,0.000170933,1,0,0,0,0,0,0
1609045340442773242,71,1609045340442773242,-0.00591561,0.00174692,0.000721546,5.69793e-05,-0.000123408,0.000180694,1,0,0,0,0,0,0
1609045340546105457,72,1609045340546105457,-0.00297298,0.00179376,0.00252743,2.42604e-05,-3.7608e-05,0.000188654,1,0,0,0,0,0,0
1609045340649161791,73,1609045340649161791,-0.00282803,0.0022673,0.00284498,2.5865e-05,-7.21912e-05,0.000155699,1,0,0,0,0,0,0
1609045340754080604,74,1609045340754080604,-0.000857587,0.0026298,0.00383366,2.62378e-05,-5.59833e-05,0.00015646,1,0,0,0,0,0,0
1609045340855360345,75,1609045340855360345,-0.000509176,0.00144108,0.00380198,1.285e-05,1.05474e-05,0.000192771,1,0,0,0,0,0,0
1609045340958522376,76,1609045340958522376,-0.00256535,0.000752605,0.00512168,4.29554e-05,4.59095e-05,0.000258002,1,0,0,0,0,0,0
1609045341062419645,77,1609045341062419645,-3.87683e-07,0.00205575,0.00515045,4.32218e-05,5.22593e-05,0.000194658,1,0,0,0,0,0,0
1609045341133512727,78,1609045341133512727,-0.00476684,0.00143413,0.00517951,9.05143e-05,-3.08106e-06,0.000193483,1,0,0,0,0,0,0
1609045341233565143,79,1609045341233565143,-0.00741064,0.000721938,0.00117059,4.39401e-05,-8.88581e-05,0.00020777,1,0,0,0,0,0,0
1609045341337487823,80,1609045341337487823,-0.00647284,-0.000295302,0.000455818,5.62561e-05,-9.28409e-05,0.000162803,1,0,0,0,0,0,0
1609045341439461642,81,1609045341439461642,-0.0047306,0.00191221,0.00115943,3.42392e-05,-6.75011e-05,0.000238336,1,0,0,0,0,0,0
1609045341543758735,82,1609045341543758735,-0.00084601,0.00186071,0.00119732,2.84321e-05,-0.000117202,0.000176352,1,0,0,0,0,0,0
1609045341645858638,83,1609045341645858638,-0.00126227,0.00239529,0.00352788,2.25301e-05,-2.28417e-05,0.000235244,1,0,0,0,0,0,0
1609045341748830484,84,1609045341748830484,-0.00286134,0.00270201,0.00453758,8.28647e-05,-6.59057e-06,0.000212358,1,0,0,0,0,0,0
1609045341852291177,85,1609045341852291177,-0.00123239,0.00291738,0.00352567,5.17993e-05,-2.72344e-05,0.000159263,1,0,0,0,0,0,0
1609045341954957247,86,1609045341954957247,0.000368131,0.000722798,0.00372073,6.40411e-06,2.1516e-05,0.000210546,1,0,0,0,0,0,0
1609045342058225368,87,1609045342058225368,-0.00172259,-0.000328898,0.00552658,4.25478e-05,1.63133e-05,0.000301431,1,0,0,0,0,0,0
1609045342161844020,88,1609045342161844020,-0.00215535,-0.000198481,0.00647572,6.47996e-05,2.28748e-05,0.000225355,1,0,0,0,0,0,0
1609045342232941724,89,1609045342232941724,-0.00165022,0.00091973,0.00521582,7.74117e-05,4.36335e-05,0.000198317,1,0,0,0,0,0,0
1609045342333453700,90,1609045342333453700,-0.00191982,0.0025545,0.00107775,6.93985e-05,-8.20834e-05,0.00019158,1,0,0,0,0,0,0
1609045342436954943,91,1609045342436954943,-0.00523135,0.00291581,-0.000324214,1.82688e-05,-8.84152e-05,0.000170315,1,0,0,0,0,0,0
1609045342540521104,92,1609045342540521104,-0.00826617,-0.00024608,0.000512812,5.58319e-05,-4.03411e-05,0.00030668,1,0,0,0,0,0,0
1609045342642505278,93,1609045342642505278,-0.00993046,0.0017698,0.000769051,7.24994e-05,-9.18196e-05,0.000302144,1,0,0,0,0,0,0
1609045342745962502,94,1609045342745962502,-0.00894301,0.00218032,0.00395646,1.50979e-05,-4.06046e-05,0.000299283,1,0,0,0,0,0,0
1609045342849233953,95,1609045342849233953,-0.00979172,0.00117768,0.00305848,4.32309e-05,-8.17665e-05,0.000275541,1,0,0,0,0,0,0
1609045342954205413,96,1609045342954205413,-0.00763926,-0.000612623,0.00378656,6.38026e-05,-1.44717e-05,0.000279189,1,0,0,0,0,0,0
1609045343033104257,97,1609045343033104257,-0.00443685,-0.000447922,0.0046899,5.73754e-05,1.32113e-05,0.000300384,1,0,0,0,0,0,0
1609045343133380431,98,1609045343133380431,-0.00550542,0.00113039,0.000355467,6.69512e-05,-9.57488e-05,0.000162487,1,0,0,0,0,0,0
1609045343236848341,99,1609045343236848341,-0.00568997,0.00017329,-0.0012543,2.16519e-05,-0.000113727,0.000224477,1,0,0,0,0,0,0
1609045343339487350,100,1609045343339487350,-0.00448276,0.000969604,-0.000238315,7.99409e-05,-7.55346e-05,0.000177661,1,0,0,0,0,0,0
1609045343443235894,101,1609045343443235894,-0.00646996,0.000774524,-0.000677547,5.72228e-05,-0.000118239,0.000282771,1,0,0,0,0,0,0
1609045343545778106,102,1609045343545778106,-0.00617064,0.00160706,0.00256809,9.37157e-06,-5.08228e-05,0.000189272,1,0,0,0,0,0,0
1609045343648859831,103,1609045343648859831,-0.00481138,0.000700463,0.00300409,4.48108e-05,-7.62519e-05,0.000276193,1,0,0,0,0,0,0
1609045343753595104,104,1609045343753595104,-0.00458933,0.00136905,0.00337631,5.5991e-05,-3.25616e-05,0.00023355,1,0,0,0,0,0,0
1609045343854918286,105,1609045343854918286,-0.00236188,0.000948126,0.00462343,5.27344e-05,4.00622e-05,0.000175355,1,0,0,0,0,0,0
1609045343962770516,106,1609045343962770516,-0.00507841,-0.00113474,0.00520275,5.97126e-05,3.07128e-05,0.000266175,1,0,0,0,0,0,0
1609045344032966014,107,1609045344032966014,-0.00692451,-0.00173906,0.00569777,9.62696e-05,1.7743e-05,0.000277522,1,0,0,0,0,0,0
1609045344135595890,108,1609045344135595890,-0.00742774,-0.00121105,0.00107825,8.23952e-05,-8.86699e-05,0.000275166,1,0,0,0,0,0,0
1609045344237783511,109,1609045344237783511,-0.00429908,0.000899237,-0.000775331,6.34733e-05,-5.92137e-05,0.000284882,1,0,0,0,0,0,0
1609045344340911982,110,1609045344340911982,-0.00496745,0.000916157,0.000664103,4.2382e-05,-4.59974e-05,0.00026582,1,0,0,0,0,0,0
1609045344444251477,111,1609045344444251477,-0.00375794,0.000755197,0.000730523,7.75105e-05,-7.53436e-05,0.000243934,1,0,0,0,0,0,0
1609045344547606511,112,1609045344547606511,-0.00641362,-0.00123299,0.00271581,1.52935e-05,-5.5442e-05,0.000323566,1,0,0,0,0,0,0
1609045344650313554,113,1609045344650313554,-0.00775884,-0.000842105,0.00226299,5.8998e-05,-4.11623e-05,0.000312426,1,0,0,0,0,0,0
1609045344753411880,114,1609045344753411880,-0.00780968,-0.000671602,0.00273585,8.52334e-05,1.39017e-05,0.000334348,1,0,0,0,0,0,0
1609045344856489234,115,1609045344856489234,-0.00769023,-0.00204704,0.00469367,3.78673e-05,-1.23814e-06,0.000349868,1,0,0,0,0,0,0
1609045344959580776,116,1609045344959580776,-0.00682057,-0.00156025,0.00515398,4.79163e-05,-1.66518e-05,0.000269557,1,0,0,0,0,0,0
1609045345064863021,117,1609045345064863021,-0.00768931,-0.00264259,0.0039527,6.17607e-05,3.59719e-05,0.000328525,1,0,0,0,0,0,0
1609045345133845112,118,1609045345133845112,-0.00526932,-0.00311307,0.00247388,2.25775e-05,1.00599e-05,0.00024905,1,0,0,0,0,0,0
1609045345235021969,119,1609045345235021969,-0.00721214,3.04949e-05,0.000321309,5.60049e-05,-0.00011013,0.000269747,1,0,0,0,0,0,0
1609045345337998674,120,1609045345337998674,-0.00808889,0.00176037,-7.30045e-05,5.36258e-05,-8.37191e-05,0.000213246,1,0,0,0,0,0,0
1609045345441191372,121,1609045345441191372,-0.0077313,0.000325935,-0.000833779,6.67116e-05,-6.70622e-05,0.000215157,1,0,0,0,0,0,0
1609045345544755271,122,1609045345544755271,-0.00617171,0.000205959,-0.000732906,4.865e-05,-7.4624e-05,0.000307841,1,0,0,0,0,0,0
1609045345647147953,123,1609045345647147953,-0.0072077,-0.00154559,0.00201085,4.41971e-05,-6.23954e-05,0.000323539,1,0,0,0,0,0,0
1609045345750727221,124,1609045345750727221,-0.00659252,-0.000972029,0.0018367,6.39783e-05,-8.11951e-05,0.000332683,1,0,0,0,0,0,0
1609045345853605062,125,1609045345853605062,-0.00606579,0.000275866,0.00169763,5.50975e-05,-2.30027e-05,0.000290099,1,0,0,0,0,0,0
1609045345956710336,126,1609045345956710336,-0.00783605,-0.000878591,0.00483855,2.81088e-05,3.77678e-05,0.000297259,1,0,0,0,0,0,0
1609045346059508582,127,1609045346059508582,-0.00748072,-0.000939616,0.00547216,6.6944e-05,3.6082e-05,0.00028254,1,0,0,0,0,0,0
1609045346162642933,128,1609045346162642933,-0.00845226,-0.00232491,0.00421078,0.000100253,2.94299e-05,0.00032263,1,0,0,0,0,0,0
1609045346234099899,129,1609045346234099899,-0.00803548,-0.00239045,0.00354742,7.12737e-05,-2.51705e-06,0.000309693,1,0,0,0,0,0,0
1609045346336392983,130,1609045346336392983,-0.00737051,-0.00223507,0.000459771,9.4949e-05,-6.01557e-05,0.000237487,1,0,0,0,0,0,0
1609045346439334769,131,1609045346439334769,-0.00687404,-0.00100132,-0.00219416,6.55594e-05,-8.14067e-05,0.000207926,1,0,0,0,0,0,0
1609045346542101244,132,1609045346542101244,-0.00718339,-0.000605154,-0.00197113,3.32187e-05,-9.20684e-05,0.000301805,1,0,0,0,0,0,0
1609045346644128131,133,1609045346644128131,-0.00706184,-0.00163964,0.00116353,-3.12146e-06,-7.24707e-05,0.000269636,1,0,0,0,0,0,0
1609045346747209980,134,1609045346747209980,-0.00902374,-0.00161403,0.00135383,3.70041e-05,-6.12324e-05,0.000332711,1,0,0,0,0,0,0
1609045346850269992,135,1609045346850269992,-0.00768158,-0.000355654,0.00175995,5.5037e-05,-2.82984e-05,0.000283049,1,0,0,0,0,0,0
1609045346956470099,136,1609045346956470099,-0.00808322,-0.00146786,0.00225754,3.81484e-05,-4.40182e-05,0.000407649,1,0,0,0,0,0,0
1609045347061722613,137,1609045347061722613,-0.00843841,-0.00166354,0.0022639,-2.22366e-05,-2.38601e-05,0.000370636,1,0,0,0,0,0,0
1609045347133174611,138,1609045347133174611,-0.00845322,-0.000449634,0.00332778,2.97442e-05,8.35757e-06,0.000285125,1,0,0,0,0,0,0
1609045347233131213,139,1609045347233131213,-0.00824448,-0.000216967,0.000190081,8.24967e-05,-5.20191e-05,0.000191187,1,0,0,0,0,0,0
1609045347336453616,140,1609045347336453616,-0.00551338,0.00127756,-0.00191008,3.55813e-05,-7.68714e-05,0.000215408,1,0,0,0,0,0,0
1609045347443693918,141,1609045347443693918,-0.00356206,0.00188248,-0.00231224,3.20178e-05,-0.000129392,0.000209178,1,0,0,0,0,0,0
1609045347545498599,142,1609045347545498599,-0.00714237,-0.000773842,0.00168425,1.42468e-05,-4.08089e-05,0.000337228,1,0,0,0,0,0,0
1609045347648868296,143,1609045347648868296,-0.00795659,-0.000744687,0.00279082,6.58925e-05,-6.96916e-06,0.000344386,1,0,0,0,0,0,0
1609045347752139386,144,1609045347752139386,-0.0101423,-0.00226232,0.000687336,4.60697e-05,-7.22968e-05,0.000389775,1,0,0,0,0,0,0
1609045347856669716,145,1609045347856669716,-0.0105006,-0.00201941,-0.000291084,1.99987e-05,-0.00010571,0.00031616,1,0,0,0,0,0,0
1609045347957723281,146,1609045347957723281,-0.00957391,-0.00107469,0.00256377,2.09805e-06,-2.31344e-05,0.000328484,1,0,0,0,0,0,0
1609045348061068369,147,1609045348061068369,-0.00995828,-0.000724314,0.00422839,5.62408e-05,4.17356e-05,0.000313224,1,0,0,0,0,0,0
1609045348133418607,148,1609045348133418607,-0.00822089,-0.00169525,0.00362841,5.82037e-05,2.46373e-05,0.000298798,1,0,0,0,0,0,0
1609045348232813749,149,1609045348232813749,-0.00837225,0.000130954,-0.00112007,8.51018e-05,-6.60073e-05,0.000202926,1,0,0,0,0,0,0
1609045348336083941,150,1609045348336083941,-0.00740646,-0.000256867,-0.00271042,1.89205e-05,-0.000111167,0.000324154,1,0,0,0,0,0,0
1609045348439252345,151,1609045348439252345,-0.0101244,-0.00141176,-0.00315052,7.62355e-05,-0.00012252,0.000288845,1,0,0,0,0,0,0
1609045348542086435,152,1609045348542086435,-0.0103277,-0.000438014,-0.00259889,5.58586e-05,-0.000107873,0.000308498,1,0,0,0,0,0,0
1609045348645901599,153,1609045348645901599,-0.00944116,0.00102419,-0.00136521,1.95637e-05,-0.000131189,0.000280183,1,0,0,0,0,0,0
1609045348748370624,154,1609045348748370624,-0.00942799,-0.000857285,0.00090847,4.71611e-05,-6.42874e-05,0.000329759,1,0,0,0,0,0,0
1609045348851533809,155,1609045348851533809,-0.00775175,-0.00147535,0.00240255,7.60662e-05,-9.38776e-06,0.000378009,1,0,0,0,0,0,0
1609045348954504972,156,1609045348954504972,-0.0101841,-0.000484433,0.000226501,7.89825e-05,-7.00304e-05,0.000340036,1,0,0,0,0,0,0
1609045349057685126,157,1609045349057685126,-0.00860274,-0.000992505,0.00205107,3.84229e-05,-1.23757e-05,0.000345363,1,0,0,0,0,0,0
1609045349160915264,158,1609045349160915264,-0.00968108,-0.00198479,0.00408637,3.81867e-05,-2.10404e-05,0.000397129,1,0,0,0,0,0,0
1609045349233337181,159,1609045349233337181,-0.00926541,-0.00312845,0.00420013,6.56634e-05,1.81502e-05,0.000321731,1,0,0,0,0,0,0
1609045349332709694,160,1609045349332709694,-0.00725894,-0.00174732,-0.000802166,7.51777e-05,-9.637e-05,0.000292355,1,0,0,0,0,0,0
1609045349435904172,161,1609045349435904172,-0.00728094,-0.00224196,-0.00198642,3.83705e-05,-3.50643e-05,0.000319403,1,0,0,0,0,0,0
1609045349538886330,162,1609045349538886330,-0.00787044,-0.00222091,-0.00326009,9.10229e-05,-0.000127485,0.000339604,1,0,0,0,0,0,0
1609045349646875283,163,1609045349646875283,-0.00563596,-0.00127744,-0.00213423,8.63698e-05,-2.91092e-05,0.000250978,1,0,0,0,0,0,0
1609045349749678574,164,1609045349749678574,-0.00313222,-0.000661571,0.000208213,6.57566e-05,-5.92557e-05,0.000257753,1,0,0,0,0,0,0
1609045349859791316,165,1609045349859791316,-0.00547256,-0.00275716,-0.000121405,6.32202e-05,-6.96884e-05,0.000266886,1,0,0,0,0,0,0
1609045349934590373,166,1609045349934590373,-0.00632888,-0.00193615,0.00299781,3.49492e-05,-3.86216e-05,0.000295658,1,0,0,0,0,0,0
1609045350035774272,167,1609045350035774272,-0.0085022,-0.00211309,-0.00148407,0.000148182,-5.12474e-05,0.000283405,1,0,0,0,0,0,0
1609045350139122796,168,1609045350139122796,-0.00608333,-0.000661446,-0.00295056,4.91539e-05,-6.76588e-05,0.000303513,1,0,0,0,0,0,0
1609045350242171406,169,1609045350242171406,-0.0087909,-0.000237972,-0.00266662,4.44457e-05,-8.86798e-05,0.00025591,1,0,0,0,0,0,0
1609045350346286440,170,1609045350346286440,-0.0101471,-0.00127229,0.00034793,2.43856e-05,-8.1529e-05,0.0003623,1,0,0,0,0,0,0
1609045350448590109,171,1609045350448590109,-0.00630028,-0.00288793,0.000973275,8.19667e-05,-5.46478e-05,0.000300598,1,0,0,0,0,0,0
1609045350550964356,172,1609045350550964356,-0.00659028,-0.00121224,-0.00060095,4.25172e-05,-5.44731e-05,0.000268111,1,0,0,0,0,0,0
1609045350654372284,173,1609045350654372284,-0.00723785,-0.00103151,-0.000437019,4.75408e-05,-7.54276e-05,0.000315542,1,0,0,0,0,0,0
1609045350757294824,174,1609045350757294824,-0.0111886,-0.00370525,0.00220441,1.68363e-05,-4.98616e-05,0.000391456,1,0,0,0,0,0,0
1609045350832198524,175,1609045350832198524,-0.00780046,-0.00342996,0.00417957,8.40383e-05,2.74761e-05,0.000310451,1,0,0,0,0,0,0
1609045350935307209,176,1609045350935307209,-0.00696273,-0.00158335,-0.000570063,9.05524e-05,-7.39229e-05,0.000261535,1,0,0,0,0,0,0
1609045351038373711,177,1609045351038373711,-0.00716151,-0.00178652,-0.0023167,2.85387e-05,-7.92596e-05,0.000220967,1,0,0,0,0,0,0
1609045351142491982,178,1609045351142491982,-0.00714397,-0.000177858,-0.00215094,3.69717e-05,-6.27508e-05,0.000250572,1,0,0,0,0,0,0
1609045351246604335,179,1609045351246604335,-0.00853339,-0.00201348,0.000434766,1.05699e-05,-5.75583e-05,0.000311362,1,0,0,0,0,0,0
1609045351352691730,180,1609045351352691730,-0.00740738,-0.00148427,0.000764008,7.20755e-05,-2.93973e-05,0.000361234,1,0,0,0,0,0,0
1609045351455860272,181,1609045351455860272,-0.00855878,-0.00171579,0.00214053,1.99903e-05,-4.19976e-05,0.000233694,1,0,0,0,0,0,0
1609045351558960132,182,1609045351558960132,-0.00544969,-0.00216108,0.00206956,6.19079e-05,-1.32206e-05,0.000318662,1,0,0,0,0,0,0
1609045351662139371,183,1609045351662139371,-0.00744089,-0.00321765,0.00349642,5.25732e-05,-3.86317e-05,0.000331125,1,0,0,0,0,0,0
1609045351733428057,184,1609045351733428057,-0.00630662,-0.00334633,0.0042961,7.62813e-05,5.80311e-05,0.000367251,1,0,0,0,0,0,0
1609045351833963332,185,1609045351833963332,-0.00443674,-0.00262908,-0.00193351,8.80557e-05,-6.88643e-05,0.000198818,1,0,0,0,0,0,0
1609045351937256915,186,1609045351937256915,-0.00433362,-0.000727389,-0.00277977,4.71617e-05,-4.95636e-05,0.000314514,1,0,0,0,0,0,0
1609045352041355923,187,1609045352041355923,-0.00604237,-0.00113348,-0.00337259,8.57076e-05,-0.000111024,0.000278764,1,0,0,0,0,0,0
1609045352143471456,188,1609045352143471456,-0.00657885,-0.0015713,-0.00269003,0.000145077,-2.67575e-05,0.000253517,1,0,0,0,0,0,0
1609045352247821602,189,1609045352247821602,-0.00886789,-0.00149152,-0.000179856,4.73356e-05,-7.50872e-05,0.000316278,1,0,0,0,0,0,0
1609045352351258818,190,1609045352351258818,-0.0112411,-0.00328193,0.000340282,7.07858e-05,-7.20992e-05,0.00030009,1,0,0,0,0,0,0
1609045352453060502,191,1609045352453060502,-0.0114975,-0.00102963,-0.000196693,6.20431e-05,-4.75426e-05,0.000383733,1,0,0,0,0,0,0
1609045352555871972,192,1609045352555871972,-0.00979462,-0.00183747,0.00274738,2.76992e-05,-2.76484e-05,0.00035894,1,0,0,0,0,0,0
1609045352658162422,193,1609045352658162422,-0.00892215,-0.00141387,0.00237856,6.87133e-05,-4.23723e-06,0.000343412,1,0,0,0,0,0,0
1609045352761680599,194,1609045352761680599,-0.00913341,-0.00235108,0.00175852,9.54198e-05,-3.50571e-05,0.00036008,1,0,0,0,0,0,0
1609045352831988320,195,1609045352831988320,-0.0060862,-0.00411675,0.00316138,3.18379e-05,-2.04446e-05,0.000332641,1,0,0,0,0,0,0
1609045352934341775,196,1609045352934341775,-0.00679777,-0.00270296,-0.0016282,0.000164027,-4.31312e-05,0.000234514,1,0,0,0,0,0,0
1609045353037779825,197,1609045353037779825,-0.00781259,-0.00020326,-0.00289216,6.47589e-05,-6.30718e-05,0.000230774,1,0,0,0,0,0,0
1609045353140322372,198,1609045353140322372,-0.0104069,-0.000935427,-0.00233887,6.72565e-05,-7.99109e-05,0.000247165,1,0,0,0,0,0,0
1609045353243667422,199,1609045353243667422,-0.00864134,-0.000570737,-0.00284679,8.26988e-05,-0.000108146,0.000331078,1,0,0,0,0,0,0
1609045353346687912,200,1609045353346687912,-0.00752156,-0.00225682,4.26028e-05,3.58065e-05,-6.47659e-05,0.000325103,1,0,0,0,0,0,0
1609045353449727959,201,1609045353449727959,-0.00780753,-0.00324235,0.0013613,8.18108e-05,-4.08661e-05,0.000336635,1,0,0,0,0,0,0
1609045353553206008,202,1609045353553206008,-0.00637162,-0.00213287,0.000475339,8.98506e-05,-5.64402e-05,0.00033807,1,0,0,0,0,0,0
1609045353655855956,203,1609045353655855956,-0.0060533,-0.00179738,0.00217326,1.99105e-05,-5.17841e-05,0.000313474,1,0,0,0,0,0,0
1609045353758787959,204,1609045353758787959,-0.00646471,-0.00361992,0.00361079,3.20932e-05,-1.94476e-05,0.000335923,1,0,0,0,0,0,0
1609045353862223810,205,1609045353862223810,-0.00706634,-0.0039735,0.00347022,7.12566e-05,-2.26715e-05,0.000332779,1,0,0,0,0,0,0
1609045353932296081,206,1609045353932296081,-0.00571693,-0.00329222,0.00408657,7.96766e-05,6.74457e-05,0.0003305,1,0,0,0,0,0,0
1609045354034006678,207,1609045354034006678,-0.00770037,-0.0015686,-0.000389806,0.000108952,-7.69405e-05,0.000262563,1,0,0,0,0,0,0
1609045354137630540,208,1609045354137630540,-0.00835733,-0.00060861,-0.00293749,4.76869e-05,-9.90335e-05,0.000226713,1,0,0,0,0,0,0
1609045354240041135,209,1609045354240041135,-0.00652206,-0.000623401,-0.00332223,7.72873e-05,-7.84946e-05,0.000255606,1,0,0,0,0,0,0
1609045354345477887,210,1609045354345477887,-0.0077919,0.000482574,-0.00330219,9.93489e-05,-8.82685e-05,0.000271574,1,0,0,0,0,0,0
1609045354446232118,211,1609045354446232118,-0.00788388,-0.00159587,-0.0012271,3.53426e-05,-8.33623e-05,0.000350242,1,0,0,0,0,0,0
1609045354549063652,212,1609045354549063652,-0.00619997,-0.00150646,0.000330984,4.97189e-05,-6.50519e-05,0.000310288,1,0,0,0,0,0,0
1609045354652084637,213,1609045354652084637,-0.00491928,-0.000368858,-0.00105275,4.49661e-05,-6.53546e-05,0.000315664,1,0,0,0,0,0,0
1609045354755288363,214,1609045354755288363,-0.00367476,-0.00202385,0.00176069,7.81561e-06,-3.25012e-05,0.000332754,1,0,0,0,0,0,0
1609045354862078669,215,1609045354862078669,-0.00649947,-0.00193,0.00116216,7.38105e-05,-1.3551e-05,0.000295251,1,0,0,0,0,0,0
1609045354961490962,216,1609045354961490962,-0.00839977,-0.0019296,0.00329081,5.26541e-05,-6.43743e-05,0.000320086,1,0,0,0,0,0,0
1609045355032277603,217,1609045355032277603,-0.00979919,-0.00228026,0.0016524,8.83129e-05,-6.15426e-08,0.000299693,1,0,0,0,0,0,0
1609045355133394787,218,1609045355133394787,-0.00772719,-0.00130584,-0.00250979,6.64076e-05,-0.000126464,0.000294493,1,0,0,0,0,0,0
1609045355237012348,219,1609045355237012348,-0.00561568,9.65249e-05,-0.00225446,4.40904e-05,-5.28286e-05,0.000275019,1,0,0,0,0,0,0
1609045355339962808,220,1609045355339962808,-0.00831274,-0.000779872,-0.00226732,5.38979e-05,-9.1811e-05,0.000274565,1,0,0,0,0,0,0
1609045355442709562,221,1609045355442709562,-0.00685657,-0.00193125,-0.00230145,7.6297e-05,-3.79321e-05,0.000325678,1,0,0,0,0,0,0
1609045355545970181,222,1609045355545970181,-0.00838949,-0.000802907,-0.00135703,4.73397e-05,-7.67778e-05,0.000346413,1,0,0,0,0,0,0
1609045355649053131,223,1609045355649053131,-0.00778434,-0.00309375,-0.000203553,1.87697e-05,-7.96659e-05,0.000346071,1,0,0,0,0,0,0
1609045355752284467,224,1609045355752284467,-0.00692996,-0.00121362,0.000955129,5.93155e-05,-6.53325e-05,0.000288519,1,0,0,0,0,0,0
1609045355855209619,225,1609045355855209619,-0.00690959,-0.000825427,-0.000350354,6.27441e-05,-1.83458e-05,0.000374297,1,0,0,0,0,0,0
1609045355958298876,226,1609045355958298876,-0.00584181,-0.00169112,0.00146127,2.86909e-05,-3.08297e-05,0.000365028,1,0,0,0,0,0,0
1609045356061548102,227,1609045356061548102,-0.00520652,-0.00221324,0.00258928,8.7112e-05,-2.0885e-05,0.000361956,1,0,0,0,0,0,0
1609045356131896013,228,1609045356131896013,-0.0067748,-0.00314265,0.00230033,7.43855e-05,-3.80127e-05,0.000332756,1,0,0,0,0,0,0
1609045356233950809,229,1609045356233950809,-0.00878735,-0.000147283,-0.00242458,3.76694e-05,-0.000163612,0.000301562,1,0,0,0,0,0,0
1609045356337673123,230,1609045356337673123,-0.00877243,-0.00334468,-0.00279994,4.62659e-05,-8.8864e-05,0.000329614,1,0,0,0,0,0,0
1609045356439819787,231,1609045356439819787,-0.00953004,-0.00258131,-0.00133633,5.71991e-05,-4.01067e-05,0.00039476,1,0,0,0,0,0,0
1609045356542840458,232,1609045356542840458,-0.00905842,-0.00252645,-0.00343978,5.26615e-05,-0.000129546,0.000329182,1,0,0,0,0,0,0
1609045356646822884,233,1609045356646822884,-0.00601701,-0.00201921,-0.00133908,1.47393e-06,-7.61848e-05,0.000299269,1,0,0,0,0,0,0
1609045356755345145,234,1609045356755345145,-0.00606261,-0.000564873,-0.0013607,7.5588e-05,-6.54012e-05,0.000292407,1,0,0,0,0,0,0
1609045356858776973,235,1609045356858776973,-0.00543459,-0.00171367,0.0015082,6.21908e-05,-1.76153e-05,0.000278093,1,0,0,0,0,0,0
1609045356962072761,236,1609045356962072761,-0.00614374,-0.00213491,0.00199837,5.73623e-05,-5.37076e-05,0.000340226,1,0,0,0,0,0,0
1609045357031393476,237,1609045357031393476,-0.0058543,-0.000874388,0.000966855,7.79681e-05,-6.15608e-06,0.000314317,1,0,0,0,0,0,0
1609045357135709932,238,1609045357135709932,-0.00474066,-0.000153978,-0.00256819,6.21412e-05,-0.000108324,0.000257668,1,0,0,0,0,0,0
1609045357238911050,239,1609045357238911050,-0.00450624,0.000187666,-0.00208854,2.05752e-05,-7.81371e-05,0.000240694,1,0,0,0,0,0,0
1609045357340174750,240,1609045357340174750,-0.00532175,-0.000680189,-0.00220556,6.40415e-05,-9.64409e-05,0.000236254,1,0,0,0,0,0,0
1609045357443092620,241,1609045357443092620,-0.00730502,-0.00179754,-0.00232932,5.77706e-05,-8.70761e-05,0.000270403,1,0,0,0,0,0,0
1609045357546181604,242,1609045357546181604,-0.00769512,-0.000518163,-0.0011761,2.66544e-05,-6.99717e-05,0.000319456,1,0,0,0,0,0,0
1609045357649516562,243,1609045357649516562,-0.00505386,-0.00203473,-0.00147241,5.289e-05,-0.000102354,0.000323148,1,0,0,0,0,0,0
1609045357752487234,244,1609045357752487234,-0.00429976,-0.00150211,-0.00041312,1.68202e-05,-7.24193e-05,0.00031279,1,0,0,0,0,0,0
1609045357855449276,245,1609045357855449276,-0.00386434,-0.00245841,0.00194786,2.89681e-05,-3.88082e-05,0.000384621,1,0,0,0,0,0,0
1609045357958674578,246,1609045357958674578,-1.64785e-05,0.000600773,0.00236852,5.60424e-05,-2.94678e-05,0.000291837,1,0,0,0,0,0,0
1609045358061515872,247,1609045358061515872,-0.001824,0.000315812,0.0027139,0.000108657,9.45929e-07,0.000361668,1,0,0,0,0,0,0
1609045358131766432,248,1609045358131766432,-0.00381456,-0.000872248,0.00228246,9.49233e-05,-5.96502e-05,0.000306226,1,0,0,0,0,0,0
1609045358233575711,249,1609045358233575711,-0.00359727,0.000336825,-0.000845589,3.96809e-05,-0.000102216,0.000244715,1,0,0,0,0,0,0
1609045358336685476,250,1609045358336685476,-0.00401851,0.00127352,-0.00285731,7.12823e-05,-6.49452e-05,0.000221099,1,0,0,0,0,0,0
1609045358440450801,251,1609045358440450801,-0.00319237,0.000996734,-0.00195744,7.4322e-05,-5.72381e-05,0.000241377,1,0,0,0,0,0,0
1609045358542962090,252,1609045358542962090,-0.0034598,-0.00162565,-0.000993661,5.4682e-05,-6.33386e-05,0.000256083,1,0,0,0,0,0,0
1609045358646140982,253,1609045358646140982,-0.00530322,-0.00249751,-0.00184066,2.47157e-05,-9.54887e-05,0.000319955,1,0,0,0,0,0,0
1609045358749271656,254,1609045358749271656,-0.00468344,-0.0024888,-0.000493485,5.07479e-05,-4.62343e-05,0.000349409,1,0,0,0,0,0,0
1609045358852361650,255,1609045358852361650,-0.00326095,-0.000638929,5.7291e-05,4.92608e-05,-2.51535e-05,0.000238058,1,0,0,0,0,0,0
1609045358955761405,256,1609045358955761405,-0.00483459,-0.000379223,0.000219511,3.24846e-05,-6.02113e-05,0.000367275,1,0,0,0,0,0,0
1609045359058362411,257,1609045359058362411,-0.00454774,-0.00196442,0.00168753,1.84594e-05,-4.57397e-05,0.000377491,1,0,0,0,0,0,0
1609045359160843410,258,1609045359160843410,-0.00476253,-0.00365182,0.0016165,5.25146e-05,1.69029e-05,0.000332502,1,0,0,0,0,0,0
1609045359231533405,259,1609045359231533405,-0.005086,-0.00208629,0.00209126,7.84476e-05,-2.24396e-05,0.000314695,1,0,0,0,0,0,0
1609045359333363308,260,1609045359333363308,-0.00711013,-0.00191929,-0.00242991,0.000113018,-0.000100267,0.000271226,1,0,0,0,0,0,0
1609045359436570157,261,1609045359436570157,-0.00681852,-0.00177516,-0.00313951,4.52807e-05,-0.000122729,0.000304174,1,0,0,0,0,0,0
1609045359539655059,262,1609045359539655059,-0.00541482,-0.000723662,-0.0026542,7.8569e-05,-7.76821e-05,0.000300741,1,0,0,0,0,0,0
1609045359642843858,263,1609045359642843858,-0.00130608,0.00035085,-0.00151676,6.23999e-05,-7.30103e-05,0.000193799,1,0,0,0,0,0,0
1609045359745853147,264,1609045359745853147,-0.00187206,-0.00152613,-0.000273589,3.52385e-05,-7.6109e-05,0.000368054,1,0,0,0,0,0,0
1609045359849003418,265,1609045359849003418,-0.00352051,-0.00080513,-0.0014649,4.71731e-05,-0.000102586,0.000324937,1,0,0,0,0,0,0
1609045359952252140,266,1609045359952252140,-0.00269876,0.00037889,-4.8213e-05,4.16224e-05,-2.54757e-05,0.000284077,1,0,0,0,0,0,0
1609045360055291793,267,1609045360055291793,-0.00394617,-0.00145687,0.0011189,9.0466e-05,-1.69921e-05,0.000278453,1,0,0,0,0,0,0
1609045360158235687,268,1609045360158235687,-0.00494964,-0.00299607,0.00166652,6.51139e-05,-3.21786e-06,0.000355266,1,0,0,0,0,0,0
1609045360261337455,269,1609045360261337455,-0.00748716,-0.00437309,0.000799531,5.51049e-05,-6.31954e-05,0.000377997,1,0,0,0,0,0,0
1609045360331643381,270,1609045360331643381,-0.0047455,-0.00177248,0.00180693,6.39286e-05,-5.27663e-05,0.000423436,1,0,0,0,0,0,0
1609045360433461210,271,1609045360433461210,-0.00516696,-8.66428e-05,-0.0015335,0.000109488,-6.38163e-05,0.000282099,1,0,0,0,0,0,0
1609045360536498368,272,1609045360536498368,-0.00519648,-0.00107757,-0.00271986,4.71233e-05,-7.38382e-05,0.000297175,1,0,0,0,0,0,0
1609045360639825522,273,1609045360639825522,-0.00572597,-0.00140085,-0.00307633,5.32973e-05,-0.000115442,0.000276306,1,0,0,0,0,0,0
1609045360742610443,274,1609045360742610443,-0.0055773,-7.81933e-05,-0.00127704,6.49614e-05,-5.15071e-05,0.000331996,1,0,0,0,0,0,0
1609045360845783132,275,1609045360845783132,-0.00792101,-0.00131545,-0.00130155,7.07066e-05,-4.06738e-05,0.000314694,1,0,0,0,0,0,0
1609045360948768697,276,1609045360948768697,-0.0090607,-0.00183188,-0.000353907,5.01796e-05,-5.84998e-05,0.000428459,1,0,0,0,0,0,0
1609045361051917961,277,1609045361051917961,-0.00837892,-0.000697787,-0.00046559,4.10815e-05,-0.000100565,0.000367424,1,0,0,0,0,0,0
1609045361154649397,278,1609045361154649397,-0.00634033,-0.000301565,-0.000569968,1.95948e-05,-9.04968e-05,0.000291124,1,0,0,0,0,0,0
1609045361257855997,279,1609045361257855997,-0.00435174,-0.00034175,0.00220507,5.21874e-05,-2.38537e-05,0.000407248,1,0,0,0,0,0,0
1609045361360918005,280,1609045361360918005,-0.00294191,0.000111205,0.002747,6.19929e-05,-2.42948e-05,0.000329012,1,0,0,0,0,0,0
1609045361431264984,281,1609045361431264984,-0.00380626,-0.00194608,0.00157941,9.34921e-05,-4.28408e-05,0.000286437,1,0,0,0,0,0,0
1609045361533029100,282,1609045361533029100,-0.00398423,-0.000506225,-0.00165134,0.00010565,-7.75901e-05,0.00027479,1,0,0,0,0,0,0
1609045361636012600,283,1609045361636012600,-0.00449743,-0.000494848,-0.0010139,3.43137e-05,-1.63229e-05,0.000246495,1,0,0,0,0,0,0
1609045361739069057,284,1609045361739069057,-0.00642021,-0.00065642,-0.00264521,3.5613e-05,-0.000156164,0.000277226,1,0,0,0,0,0,0
1609045361842687221,285,1609045361842687221,-0.00471982,0.000260423,-0.00149853,4.00248e-05,-5.94361e-05,0.000313142,1,0,0,0,0,0,0
1609045361945674739,286,1609045361945674739,-0.00621211,0.000860632,-0.000730707,4.56255e-05,-6.25236e-05,0.000360836,1,0,0,0,0,0,0
1609045362048807830,287,1609045362048807830,-0.00667642,-0.00142981,0.000116952,1.80216e-05,-3.5658e-05,0.000320223,1,0,0,0,0,0,0
1609045362151858497,288,1609045362151858497,-0.00427684,-0.00118482,0.000678089,7.21066e-05,-2.29536e-05,0.000372072,1,0,0,0,0,0,0
1609045362255241532,289,1609045362255241532,-0.00350677,-0.000817171,-0.000442926,4.6326e-05,-0.000105875,0.000351364,1,0,0,0,0,0,0
1609045362358287092,290,1609045362358287092,-0.00255531,-0.00163095,0.00274626,1.38638e-05,-4.41148e-05,0.000260893,1,0,0,0,0,0,0
1609045362461383926,291,1609045362461383926,-0.00299053,-0.00162466,0.00188938,7.99125e-05,-5.05745e-05,0.000385215,1,0,0,0,0,0,0
1609045362531601590,292,1609045362531601590,-0.0036455,-0.00129723,0.000306018,8.92984e-05,-7.48984e-06,0.000317849,1,0,0,0,0,0,0
1609045362633414294,293,1609045362633414294,-0.00388739,-0.000701404,-0.00154678,6.6357e-05,-7.27e-05,0.000306309,1,0,0,0,0,0,0
1609045362736429576,294,1609045362736429576,-0.00306697,-0.00180307,-0.00143784,4.4993e-05,-4.58186e-05,0.000262654,1,0,0,0,0,0,0
1609045362839648578,295,1609045362839648578,-0.00271813,0.00045257,-0.00194853,7.68774e-05,-8.62102e-05,0.000253478,1,0,0,0,0,0,0
1609045362942562841,296,1609045362942562841,-0.00398119,-0.000230263,-0.00289314,6.6509e-05,-0.000130378,0.000273519,1,0,0,0,0,0,0
1609045363045731340,297,1609045363045731340,-0.00184211,0.0012745,-0.00241604,1.5016e-05,-0.000105905,0.000294528,1,0,0,0,0,0,0
1609045363148877600,298,1609045363148877600,-0.00193925,1.83811e-05,-0.000588421,3.32536e-05,-6.25777e-05,0.000342475,1,0,0,0,0,0,0
1609045363252388119,299,1609045363252388119,-0.00156571,-0.000898508,0.000360287,5.28477e-05,-6.38374e-05,0.000303173,1,0,0,0,0,0,0
1609045363355829807,300,1609045363355829807,-0.00185906,0.00039046,0.000451502,6.36205e-05,-2.2771e-05,0.000369658,1,0,0,0,0,0,0
1609045363457896675,301,1609045363457896675,-0.00294352,-0.000814211,0.00155099,6.69349e-05,-1.21665e-05,0.000359848,1,0,0,0,0,0,0
1609045363561176046,302,1609045363561176046,-0.000877237,-0.00223985,0.00063355,4.40813e-05,-8.64881e-05,0.00040689,1,0,0,0,0,0,0
1609045363631530930,303,1609045363631530930,-0.00178637,-0.000983561,0.000798821,5.03958e-05,-2.79167e-05,0.000291095,1,0,0,0,0,0,0
1609045363733346105,304,1609045363733346105,-0.000950549,-0.000686286,-0.00113678,5.52743e-05,-8.92928e-05,0.000288307,1,0,0,0,0,0,0
1609045363836479125,305,1609045363836479125,-0.000788163,-0.000478309,-0.00165453,4.85904e-05,-7.35945e-05,0.000298254,1,0,0,0,0,0,0
1609045363939492731,306,1609045363939492731,-0.000470145,4.81508e-05,-0.000274083,-8.42246e-06,-7.19635e-05,0.000264828,1,0,0,0,0,0,0
1609045364042618385,307,1609045364042618385,-0.00286274,-0.00025437,-0.00144877,5.61929e-05,-0.000105995,0.000324976,1,0,0,0,0,0,0
1609045364145671697,308,1609045364145671697,-0.00378975,0.000387042,-0.00327364,3.19831e-05,-0.000144244,0.000354742,1,0,0,0,0,0,0
1609045364248308379,309,1609045364248308379,-0.00315295,-0.000605142,3.09221e-05,-5.76449e-06,-3.64949e-05,0.000313697,1,0,0,0,0,0,0
1609045364352055733,310,1609045364352055733,-0.00283775,-0.000344911,-0.000131559,4.78313e-05,-6.38468e-05,0.000281819,1,0,0,0,0,0,0
1609045364455469109,311,1609045364455469109,-0.00310962,-0.000134474,0.00020332,-3.991e-06,-8.33837e-05,0.00037772,1,0,0,0,0,0,0
1609045364558759317,312,1609045364558759317,-0.00262436,-0.00174677,0.00184521,2.39857e-05,-2.67656e-05,0.000365844,1,0,0,0,0,0,0
1609045364661556811,313,1609045364661556811,-0.00191378,-0.00276325,0.00184261,8.27394e-05,-2.72282e-05,0.000358581,1,0,0,0,0,0,0
1609045364731485649,314,1609045364731485649,-0.0021662,-0.000573304,0.00115523,9.34597e-05,3.29315e-05,0.000307668,1,0,0,0,0,0,0
1609045364833323228,315,1609045364833323228,-0.00307809,-0.000931727,-0.00171987,3.8738e-05,-0.000118377,0.000248755,1,0,0,0,0,0,0
1609045364936540105,316,1609045364936540105,-0.00152917,-0.000817226,-0.0023698,6.30284e-05,-2.65723e-05,0.000313213,1,0,0,0,0,0,0
1609045365038935023,317,1609045365038935023,-0.00138856,-0.00131828,-0.000719837,3.73329e-05,-7.08547e-05,0.00027603,1,0,0,0,0,0,0
1609045365141975416,318,1609045365141975416,-0.00235813,-0.00175546,-0.000848962,3.98977e-05,-9.06048e-05,0.000265407,1,0,0,0,0,0,0
1609045365245730326,319,1609045365245730326,-0.00327408,-0.000397042,-0.00163357,2.9793e-05,-0.000112338,0.000245899,1,0,0,0,0,0,0
1609045365348766370,320,1609045365348766370,-0.00388736,-0.00165563,-0.000509893,6.37164e-06,-4.18562e-05,0.000362524,1,0,0,0,0,0,0
1609045365452180860,321,1609045365452180860,-0.00308249,0.000152751,-0.000164767,5.09353e-05,-6.51424e-06,0.000299108,1,0,0,0,0,0,0
1609045365555227333,322,1609045365555227333,-0.00322868,-0.000942901,-0.000746995,-2.7768e-05,-0.000104757,0.000396062,1,0,0,0,0,0,0
1609045365658289450,323,1609045365658289450,-0.00154349,-0.00283606,0.0011205,-4.87976e-06,-4.44814e-05,0.000355639,1,0,0,0,0,0,0
1609045365761258466,324,1609045365761258466,-0.00175775,-0.00238151,0.00128787,4.25656e-05,-5.33766e-05,0.000310678,1,0,0,0,0,0,0
1609045365831453296,325,1609045365831453296,0.000189259,-0.00175422,0.00205839,0.000114907,8.58815e-06,0.000337817,1,0,0,0,0,0,0
1609045365933325881,326,1609045365933325881,-0.000553607,7.02645e-05,-0.00155844,6.85083e-05,-0.000105634,0.000315662,1,0,0,0,0,0,0
1609045366036532118,327,1609045366036532118,-0.00124613,0.000639395,-0.00203313,1.83187e-05,-5.91826e-05,0.000250911,1,0,0,0,0,0,0
1609045366140005333,328,1609045366140005333,-0.000719273,0.00131127,-0.00109728,3.35007e-05,-5.54399e-05,0.000237074,1,0,0,0,0,0,0
1609045366242765271,329,1609045366242765271,-9.75849e-05,0.000403418,-0.00133025,4.33404e-05,-5.24532e-05,0.000172172,1,0,0,0,0,0,0
1609045366345786890,330,1609045366345786890,-0.000875804,0.000220461,-0.00178106,3.52936e-07,-0.000121825,0.000267841,1,0,0,0,0,0,0
1609045366448918126,331,1609045366448918126,-0.000751218,0.00108372,-0.000863954,9.25011e-06,-5.61722e-05,0.000275652,1,0,0,0,0,0,0
1609045366551988559,332,1609045366551988559,-0.00236431,0.000486722,0.00111768,1.42936e-06,-4.60526e-05,0.000348285,1,0,0,0,0,0,0
1609045366655180291,333,1609045366655180291,-0.00183582,-0.0015789,0.000230115,5.33222e-05,-3.72772e-05,0.000342084,1,0,0,0,0,0,0
1609045366758187461,334,1609045366758187461,-0.000587943,-0.00145895,0.000265851,2.85179e-05,-5.4506e-05,0.000415697,1,0,0,0,0,0,0
1609045366861323911,335,1609045366861323911,-0.000316754,-0.00188423,0.00101913,5.97768e-05,-4.62373e-05,0.000318465,1,0,0,0,0,0,0
1609045366931638399,336,1609045366931638399,0.000417312,-0.000841427,0.000657486,4.88448e-05,-2.82475e-05,0.000380081,1,0,0,0,0,0,0
1609045367033211989,337,1609045367033211989,-0.00129315,0.000359296,-0.00165038,9.50319e-05,-8.37042e-05,0.000231302,1,0,0,0,0,0,0
1609045367136453237,338,1609045367136453237,-0.00124947,0.000522376,-0.00235312,6.39337e-05,-0.00010531,0.000260368,1,0,0,0,0,0,0
1609045367239051652,339,1609045367239051652,-0.00160722,-7.95981e-05,-0.00146407,1.81068e-05,-0.000120535,0.000279348,1,0,0,0,0,0,0
1609045367342326356,340,1609045367342326356,-0.001921,-0.0012374,0.000447029,4.68434e-05,-3.65643e-05,0.000284174,1,0,0,0,0,0,0
1609045367445249321,341,1609045367445249321,-0.00128224,8.52415e-05,-0.000984838,5.73688e-05,-6.50874e-05,0.000333911,1,0,0,0,0,0,0
1609045367548366040,342,1609045367548366040,-0.000351471,6.79252e-05,0.00164304,-2.22013e-06,-6.65349e-06,0.000297277,1,0,0,0,0,0,0
1609045367651268078,343,1609045367651268078,-0.00151359,0.000198962,0.0022629,2.45999e-05,-2.83646e-05,0.000310281,1,0,0,0,0,0,0
1609045367754429549,344,1609045367754429549,-0.0028896,0.000411401,0.00220696,1.65916e-05,-2.6125e-05,0.000343307,1,0,0,0,0,0,0
1609045367857505083,345,1609045367857505083,-0.00509042,-0.000927572,0.000947751,1.34166e-05,-3.92953e-05,0.000358724,1,0,0,0,0,0,0
1609045367960665580,346,1609045367960665580,-0.00285447,-0.000740946,0.00179597,4.04436e-05,-3.75585e-05,0.000413174,1,0,0,0,0,0,0
1609045368030850506,347,1609045368030850506,-0.00178364,-0.00138296,0.00239749,7.89782e-05,2.68565e-05,0.000348571,1,0,0,0,0,0,0
1609045368132719552,348,1609045368132719552,-0.00149661,0.000174035,-0.000280827,6.17733e-05,-6.21434e-05,0.00024822,1,0,0,0,0,0,0
1609045368236078558,349,1609045368236078558,-0.00151663,-0.00141413,-0.00260569,6.6086e-05,-0.000130571,0.00034402,1,0,0,0,0,0,0
1609045368338953723,350,1609045368338953723,-0.000910791,0.000309157,-0.00194001,-7.93318e-06,-0.000109143,0.000283046,1,0,0,0,0,0,0
1609045368442005887,351,1609045368442005887,-0.00118819,0.00027857,-0.00106803,6.81596e-05,-0.00010216,0.000268864,1,0,0,0,0,0,0
1609045368545081652,352,1609045368545081652,-0.000677243,0.000267852,-0.00103579,6.49022e-05,-8.15918e-05,0.000354294,1,0,0,0,0,0,0
1609045368648285711,353,1609045368648285711,-0.000178014,0.000153317,0.00149745,-2.61983e-06,-3.57138e-05,0.000265488,1,0,0,0,0,0,0
1609045368751024089,354,1609045368751024089,-0.00277488,-0.00300596,0.000787466,5.56851e-05,-2.08303e-05,0.000385652,1,0,0,0,0,0,0
1609045368854365980,355,1609045368854365980,-0.00346596,-0.0018809,-0.000117942,-3.44233e-06,-7.41235e-05,0.000369574,1,0,0,0,0,0,0
1609045368957562096,356,1609045368957562096,-0.00231932,-0.0024366,0.00149791,4.70528e-05,-1.97299e-05,0.000353304,1,0,0,0,0,0,0
1609045369060560645,357,1609045369060560645,-0.00252886,-0.00232992,0.00230329,3.12051e-05,-4.81445e-05,0.000318632,1,0,0,0,0,0,0
1609045369130891195,358,1609045369130891195,-0.00198321,-0.00171155,0.0026482,9.85338e-05,-4.6984e-06,0.000336441,1,0,0,0,0,0,0
1609045369232808423,359,1609045369232808423,-0.00268942,0.000603816,-0.00123337,0.000122342,-0.000100044,0.000263558,1,0,0,0,0,0,0
1609045369335831355,360,1609045369335831355,-0.00345815,-0.000666968,-0.00306064,8.09803e-05,-0.000127682,0.000234304,1,0,0,0,0,0,0
1609045369438898967,361,1609045369438898967,-0.00414995,-0.000642706,-0.000406194,4.21151e-05,-5.16638e-05,0.000318432,1,0,0,0,0,0,0
1609045369541910640,362,1609045369541910640,-0.00235279,-0.00100241,0.000393775,2.94661e-05,-4.02067e-05,0.000342128,1,0,0,0,0,0,0
1609045369645150106,363,1609045369645150106,-0.000256999,-0.000418112,0.000232928,1.14383e-05,-7.5983e-05,0.00029077,1,0,0,0,0,0,0
1609045369748201039,364,1609045369748201039,-0.000859386,-0.000786468,0.000956703,-3.48449e-06,-6.81511e-05,0.000349757,1,0,0,0,0,0,0
1609045369851355285,365,1609045369851355285,-0.00137043,-0.0015621,0.00170041,-5.34464e-06,-4.18018e-05,0.000344966,1,0,0,0,0,0,0
1609045369954454999,366,1609045369954454999,-9.76063e-05,-0.00227425,0.00101557,5.00351e-05,-3.56642e-06,0.000302206,1,0,0,0,0,0,0
1609045370057595374,367,1609045370057595374,0.00033172,-0.00259486,0.00252946,2.80556e-05,-1.52068e-05,0.000366029,1,0,0,0,0,0,0
1609045370160584494,368,1609045370160584494,0.000462911,-0.000816398,0.00256171,5.33517e-05,-3.30964e-05,0.0003019,1,0,0,0,0,0,0
1609045370230849152,369,1609045370230849152,-0.00104473,-0.00108824,0.00189516,4.72774e-05,-1.07664e-05,0.000309041,1,0,0,0,0,0,0
1609045370333203698,370,1609045370333203698,-0.00139559,-0.000282491,-0.00149744,0.000133865,-7.03449e-05,0.000277435,1,0,0,0,0,0,0
1609045370435946415,371,1609045370435946415,-0.00247503,-0.000828446,-0.00100535,1.34501e-05,-9.48188e-05,0.000293076,1,0,0,0,0,0,0
1609045370538863297,372,1609045370538863297,-0.00196438,-0.00100014,-0.00117882,5.41385e-05,-9.20238e-05,0.000230231,1,0,0,0,0,0,0
1609045370642008578,373,1609045370642008578,-0.000828594,-0.00155768,-0.000635355,6.99148e-05,-6.68641e-05,0.000225843,1,0,0,0,0,0,0
1609045370744952522,374,1609045370744952522,-0.00162004,-0.00109079,-0.000170842,9.7877e-05,-3.86717e-06,0.000254445,1,0,0,0,0,0,0
1609045370848251589,375,1609045370848251589,-0.00170442,-0.00132867,0.00258649,1.88203e-05,1.06316e-05,0.000343761,1,0,0,0,0,0,0
1609045370951250560,376,1609045370951250560,-0.00153608,-0.00124705,0.00167035,9.63451e-06,-4.07203e-05,0.000359797,1,0,0,0,0,0,0
1609045371054955745,377,1609045371054955745,-0.00197338,-0.00158409,0.00104015,-2.82544e-05,-6.86591e-05,0.000351105,1,0,0,0,0,0,0
1609045371157604663,378,1609045371157604663,-0.00464715,-0.00402412,0.000522501,2.48647e-05,-1.40836e-05,0.000440484,1,0,0,0,0,0,0
1609045371260588517,379,1609045371260588517,-0.00289513,-0.000984132,0.00251723,5.99378e-05,-5.85363e-06,0.000420592,1,0,0,0,0,0,0
1609045371330885593,380,1609045371330885593,-0.00207254,-0.000970072,0.00227503,9.472e-05,-6.24066e-06,0.00038138,1,0,0,0,0,0,0
1609045371432804354,381,1609045371432804354,-0.00388533,-0.00051669,-0.0009135,9.41198e-05,-7.75574e-05,0.000289965,1,0,0,0,0,0,0
1609045371535912386,382,1609045371535912386,-0.00587107,-0.00109346,-0.0017413,8.56456e-05,-6.81871e-05,0.000309742,1,0,0,0,0,0,0
1609045371639040208,383,1609045371639040208,-0.00510778,-0.00158458,-0.000911814,3.95156e-05,-6.68549e-05,0.000267642,1,0,0,0,0,0,0
1609045371742160368,384,1609045371742160368,-0.0033312,-0.000191417,-0.000452928,4.13304e-05,-0.000100884,0.000346618,1,0,0,0,0,0,0
1609045371844905919,385,1609045371844905919,-0.00139985,0.000274204,0.00057957,1.99494e-05,-3.72969e-06,0.000295656,1,0,0,0,0,0,0
1609045371948234312,386,1609045371948234312,-0.00119081,-0.000730716,0.00174565,3.51902e-06,-9.27592e-06,0.000372515,1,0,0,0,0,0,0
1609045372051243078,387,1609045372051243078,-0.00240654,7.38243e-05,0.00151447,2.35272e-05,-2.65139e-05,0.000408162,1,0,0,0,0,0,0
1609045372154814228,388,1609045372154814228,-0.00240581,0.000184468,0.00238511,2.7547e-05,-2.32585e-05,0.000358098,1,0,0,0,0,0,0
1609045372257599194,389,1609045372257599194,-0.00391821,-0.00235961,0.00169593,6.65155e-05,-5.89402e-05,0.000361539,1,0,0,0,0,0,0
1609045372360807574,390,1609045372360807574,-0.00278055,-0.00359251,0.00140192,2.30729e-05,-5.35488e-05,0.000360031,1,0,0,0,0,0,0
1609045372431073610,391,1609045372431073610,-0.00182114,-0.00352425,0.00131177,5.7302e-05,-3.7743e-05,0.000406733,1,0,0,0,0,0,0
1609045372532938154,392,1609045372532938154,-0.0021247,-0.00182438,-0.000955367,0.000108009,-4.93543e-05,0.000245405,1,0,0,0,0,0,0
1609045372635845623,393,1609045372635845623,-0.00334672,-0.000933734,-0.0014618,9.38626e-05,-1.01212e-05,0.00026452,1,0,0,0,0,0,0
1609045372738979615,394,1609045372738979615,-0.00422769,6.5446e-05,-0.000257645,2.87535e-05,-5.56498e-05,0.000269505,1,0,0,0,0,0,0
1609045372842013188,395,1609045372842013188,-0.00445619,-0.00191509,-0.00149272,7.84463e-05,-4.87422e-05,0.000321424,1,0,0,0,0,0,0
1609045372945111975,396,1609045372945111975,-0.00243753,-0.000296998,-0.00102869,4.41464e-06,-9.89329e-05,0.000197154,1,0,0,0,0,0,0
1609045373048193916,397,1609045373048193916,0.00118208,-0.000640114,0.000481931,-1.8398e-05,-5.93066e-05,0.000273818,1,0,0,0,0,0,0
1609045373151260063,398,1609045373151260063,-0.000284496,-0.000559461,0.000106952,-8.98997e-06,-6.79494e-05,0.000265564,1,0,0,0,0,0,0
1609045373254409419,399,1609045373254409419,-0.000807691,0.000743527,0.000713881,-6.10621e-06,5.71223e-06,0.000319547,1,0,0,0,0,0,0
1609045373357430475,400,1609045373357430475,-0.000924188,-0.000537629,0.00354668,2.61899e-05,1.2459e-05,0.000357394,1,0,0,0,0,0,0
1609045373460498893,401,1609045373460498893,-0.00115742,-0.00257567,0.00249125,7.12605e-05,9.9698e-06,0.000370545,1,0,0,0,0,0,0
1609045373530825231,402,1609045373530825231,0.000776717,-0.00246222,0.00139207,6.08439e-05,-2.02015e-05,0.000346571,1,0,0,0,0,0,0
1609045373632563937,403,1609045373632563937,-0.00149567,-0.00068209,-0.00146148,0.000117718,-5.82069e-05,0.000190783,1,0,0,0,0,0,0
1609045373736071725,404,1609045373736071725,-0.00204308,-0.00168153,-0.00165918,5.47205e-05,-8.01048e-05,0.000209799,1,0,0,0,0,0,0
1609045373838775983,405,1609045373838775983,-0.000796174,-0.00153522,-0.000794175,8.11503e-06,-3.85908e-05,0.000258251,1,0,0,0,0,0,0
1609045373942149158,406,1609045373942149158,-0.000508278,-0.00225742,-0.000900324,4.82263e-05,-9.11304e-05,0.000240342,1,0,0,0,0,0,0
1609045374045190688,407,1609045374045190688,-0.00163499,-0.000872025,-0.00113508,7.15811e-05,-5.82569e-05,0.000337198,1,0,0,0,0,0,0
1609045374148506882,408,1609045374148506882,-0.00343904,-0.00148491,0.00130705,2.05154e-06,-2.12746e-05,0.00037046,1,0,0,0,0,0,0
1609045374251546982,409,1609045374251546982,-0.00391187,-0.000885411,0.00127524,3.10462e-05,-6.00839e-05,0.000363761,1,0,0,0,0,0,0
1609045374354596751,410,1609045374354596751,-0.00326548,0.000519118,0.00188518,9.42082e-06,-1.00003e-05,0.00029478,1,0,0,0,0,0,0
1609045374457621354,411,1609045374457621354,-0.00160431,-0.000985,0.00166796,-7.25865e-06,-6.96633e-05,0.00037769,1,0,0,0,0,0,0
1609045374630982343,412,1609045374630982343,0.00193668,-0.000664595,0.00262452,1.82735e-05,-1.16592e-05,0.000347716,1,0,0,0,0,0,0
1609045374630982343,413,1609045374630982343,0.00222991,-0.00276074,0.00221455,7.79807e-05,3.29601e-05,0.000365062,1,0,0,0,0,0,0
1609045374732777584,414,1609045374732777584,0.000257989,-7.15576e-05,-0.00174585,0.000146302,-9.28556e-05,0.000215714,1,0,0,0,0,0,0
1609045374835876294,415,1609045374835876294,-0.0025349,-0.00238071,-0.00156579,4.9314e-05,-2.62679e-05,0.000188996,1,0,0,0,0,0,0
1609045374938973586,416,1609045374938973586,-0.00209644,-0.00158559,-0.000156272,2.98307e-05,-4.99061e-05,0.000272731,1,0,0,0,0,0,0
1609045375042018598,417,1609045375042018598,-0.00115262,-0.00280023,-0.000749182,3.1034e-05,-8.55343e-05,0.000341064,1,0,0,0,0,0,0
1609045375145104523,418,1609045375145104523,-0.00282562,-0.00195119,9.08774e-05,3.37946e-05,-4.59288e-05,0.000241355,1,0,0,0,0,0,0
1609045375248273098,419,1609045375248273098,-0.000868111,-0.000708681,0.00336259,-5.43848e-05,-1.1328e-05,0.000276315,1,0,0,0,0,0,0
1609045375351145881,420,1609045375351145881,0.000829239,-0.000860532,0.00372202,1.82255e-05,4.11563e-05,0.000374081,1,0,0,0,0,0,0
1609045375454366173,421,1609045375454366173,-0.00119492,-0.00181991,0.00186767,4.57159e-05,-1.86952e-05,0.000285276,1,0,0,0,0,0,0
1609045375557381087,422,1609045375557381087,-0.00271698,-0.00165587,0.00165445,2.37829e-05,-4.70752e-06,0.000361278,1,0,0,0,0,0,0
1609045375660591853,423,1609045375660591853,-0.00327132,-0.00246373,0.00297959,-6.53356e-06,-4.97436e-05,0.000403747,1,0,0,0,0,0,0
1609045375730479815,424,1609045375730479815,-0.00314368,-0.0036506,0.0024586,5.43245e-05,2.51633e-06,0.000342408,1,0,0,0,0,0,0
1609045375832367416,425,1609045375832367416,-0.00371666,-0.00146348,-0.00220977,0.000130676,-0.00013709,0.000302594,1,0,0,0,0,0,0
1609045375935706685,426,1609045375935706685,-0.00480448,-0.0012249,-0.00408245,0.000145332,-6.55557e-05,0.000321497,1,0,0,0,0,0,0
1609045376038850677,427,1609045376038850677,-0.00460144,-0.00244983,-0.00108594,1.05626e-05,-9.6425e-05,0.000274238,1,0,0,0,0,0,0
1609045376142024055,428,1609045376142024055,-0.00368485,-0.00161005,2.24167e-06,5.17273e-05,-5.64815e-05,0.000321339,1,0,0,0,0,0,0
1609045376245121034,429,1609045376245121034,-0.00157358,-0.00161792,-0.00132792,6.53725e-06,-8.27676e-05,0.000296853,1,0,0,0,0,0,0
1609045376348201880,430,1609045376348201880,-0.000773793,-0.00158515,0.00165211,1.05191e-05,-2.91592e-05,0.000332602,1,0,0,0,0,0,0
1609045376452311710,431,1609045376452311710,-0.000744057,-0.00220119,0.00339157,-5.09112e-06,5.84223e-06,0.000321561,1,0,0,0,0,0,0
1609045376554926339,432,1609045376554926339,-0.00144989,-0.00116331,0.0008782,2.4133e-05,-1.48665e-05,0.000335564,1,0,0,0,0,0,0
1609045376657546208,433,1609045376657546208,-0.00132022,-0.000922133,0.000836787,9.45825e-06,-9.41426e-06,0.000354899,1,0,0,0,0,0,0
1609045376760464146,434,1609045376760464146,-0.00164883,-0.0013106,0.00154186,5.13348e-05,-7.25849e-06,0.000351945,1,0,0,0,0,0,0
1609045376830573913,435,1609045376830573913,-0.00311834,-0.00120066,0.00198629,7.83675e-06,-5.5612e-05,0.000365167,1,0,0,0,0,0,0
1609045376932506506,436,1609045376932506506,-0.00347042,-0.0020711,-0.00116565,0.000149124,-8.26398e-05,0.000287212,1,0,0,0,0,0,0
1609045377035521968,437,1609045377035521968,-0.00612542,-0.000511357,-0.00179348,7.3255e-05,-6.25616e-05,0.000279645,1,0,0,0,0,0,0
1609045377138520030,438,1609045377138520030,-0.00354577,-0.00121479,-0.00110162,3.03803e-05,-9.13343e-05,0.00031153,1,0,0,0,0,0,0
1609045377241616026,439,1609045377241616026,-0.0029717,-0.00141028,-0.000745423,2.91692e-05,-0.000108944,0.000265972,1,0,0,0,0,0,0
1609045377344847224,440,1609045377344847224,-0.00316836,-0.00175846,-0.000110861,0.000110127,-1.70472e-05,0.000337601,1,0,0,0,0,0,0
1609045377447922137,441,1609045377447922137,-0.00441642,-0.00237003,0.00116021,2.8894e-05,8.88108e-07,0.000316292,1,0,0,0,0,0,0
1609045377550966337,442,1609045377550966337,-0.00140406,-0.00255197,0.00205877,2.28723e-05,7.14222e-06,0.000269898,1,0,0,0,0,0,0
1609045377654294695,443,1609045377654294695,-0.00133239,-0.00129233,0.00128046,-6.89964e-06,-3.89115e-05,0.000300572,1,0,0,0,0,0,0
1609045377757139996,444,1609045377757139996,-0.000997135,-0.00172316,0.00353875,-3.51646e-06,2.62071e-05,0.000428016,1,0,0,0,0,0,0
1609045377860249692,445,1609045377860249692,8.18331e-05,-0.00354301,0.00315489,5.17577e-05,8.45388e-06,0.000436072,1,0,0,0,0,0,0
1609045377930523951,446,1609045377930523951,0.00113015,-0.00291967,0.00292399,3.95738e-05,-8.83867e-06,0.000366699,1,0,0,0,0,0,0
1609045378032251675,447,1609045378032251675,-0.00100735,-0.00195769,-0.00143284,0.00011457,-5.65953e-05,0.000182666,1,0,0,0,0,0,0
1609045378135226620,448,1609045378135226620,0.000517714,0.000313024,-0.00188065,3.32435e-05,6.9226e-07,0.000263339,1,0,0,0,0,0,0
1609045378238464914,449,1609045378238464914,-0.00128406,-0.00257355,-0.000101165,5.27051e-05,-3.72319e-05,0.000294089,1,0,0,0,0,0,0
1609045378341476889,450,1609045378341476889,-0.000488833,-0.00177525,-0.000347361,7.27356e-05,-7.02864e-05,0.0002628,1,0,0,0,0,0,0
1609045378444743399,451,1609045378444743399,-0.000611676,-0.00295924,-0.000461971,5.73353e-05,-5.79494e-05,0.000308214,1,0,0,0,0,0,0
1609045378547915026,452,1609045378547915026,0.000300658,-0.00299502,0.00232709,-2.8421e-05,6.60936e-07,0.000338545,1,0,0,0,0,0,0
1609045378650939970,453,1609045378650939970,-0.00189523,-0.00282908,0.00227306,5.55702e-05,1.35051e-05,0.000372368,1,0,0,0,0,0,0
1609045378754015278,454,1609045378754015278,0.00015297,-0.000748,0.00228352,3.44987e-05,4.77712e-06,0.00034269,1,0,0,0,0,0,0
1609045378856689252,455,1609045378856689252,0.000231695,-0.00165587,0.0024499,-5.76988e-06,-1.53212e-05,0.000373261,1,0,0,0,0,0,0
1609045378960341899,456,1609045378960341899,-0.000317381,-0.00332612,0.00447474,1.59544e-05,1.16282e-05,0.000321044,1,0,0,0,0,0,0
1609045379030528284,457,1609045379030528284,0.0013542,-0.000618781,0.0043077,4.12202e-05,1.15905e-05,0.000257168,1,0,0,0,0,0,0
1609045379132334385,458,1609045379132334385,0.000909674,0.000649043,-0.00172477,0.000170466,-4.6405e-05,0.000152551,1,0,0,0,0,0,0
