%time,field.header.seq,field.header.stamp,field.pose.position.x,field.pose.position.y,field.pose.position.z,field.pose.orientation.x,field.pose.orientation.y,field.pose.orientation.z,field.pose.orientation.w,field.twist.twist.linear.x,field.twist.twist.linear.y,field.twist.twist.linear.z,field.twist.twist.angular.x,field.twist.twist.angular.y,field.twist.twist.angular.z
1683057395.425233354,0,1683057395.425233354,-5.98884e-05,0.000420777,0.000277884,2.65662e-05,-7.06638e-05,-6.67978e-05,1,0,0,0,0,0,0
1683057395.511519694,1,1683057395.511519694,-1.39558e-05,0.000600573,0.000526109,-0.000188527,-0.000119721,0.000180413,1,0,0,0,0,0,0
1683057395.531395070,2,1683057395.531395070,0.00013729,0.000608327,0.000779448,0.000124322,-7.06097e-05,-2.10799e-05,1,0,0,0,0,0,0
1683057395.613456027,3,1683057395.613456027,0.000463855,0.000674943,0.00135749,-8.00696e-05,-0.000226271,0.000199391,1,0,0,0,0,0,0
1683057395.655896561,4,1683057395.655896561,0.000684692,0.00117292,0.000552534,0.000149586,-0.000224261,6.09178e-05,1,0,0,0,0,0,0
1683057395.723915026,5,1683057395.723915026,0.00116537,0.0010492,0.00112287,-1.63901e-05,-0.000164282,0.000204514,1,0,0,0,0,0,0
1683057395.761017363,6,1683057395.761017363,0.000498923,0.000953854,0.00143716,0.000230567,-8.48141e-05,4.63437e-05,1,0,0,0,0,0,0
1683057395.821505886,7,1683057395.821505886,0.000753873,0.000829863,0.00220771,-3.15136e-05,-0.000269265,0.000260581,1,0,0,0,0,0,0
1683057395.857419405,8,1683057395.857419405,0.000995631,0.000948038,0.00208462,0.000134763,-0.000275675,0.000125528,1,0,0,0,0,0,0
1683057395.930551723,9,1683057395.930551723,0.00193887,0.00219546,0.00195852,5.10779e-05,-0.000214003,0.000219679,1,0,0,0,0,0,0
1683057395.975327749,10,1683057395.975327749,0.00234776,0.00200925,0.00207489,0.000245053,-0.000205932,9.4139e-05,1,0,0,0,0,0,0
1683057396.069490168,11,1683057396.069490168,0.00213681,-0.000136281,0.00249478,0.000145689,-0.00020273,0.000277996,1,0,0,0,0,0,0
1683057396.087124233,12,1683057396.087124233,0.00196006,-1.74238e-05,0.00265556,0.000341059,-0.000200445,0.00017223,1,0,0,0,0,0,0
1683057396.153694843,13,1683057396.153694843,0.00106385,-0.000850417,0.00291881,0.000205324,-0.000196534,0.000298285,1,0,0,0,0,0,0
1683057396.168665148,14,1683057396.168665148,0.000806553,-0.000205982,0.00261068,0.00031389,-0.000200097,0.000254586,1,0,0,0,0,0,0
1683057396.212787029,15,1683057396.212787029,0.00228653,0.00163853,0.000945495,0.000224702,-0.000257671,0.000299443,1,0,0,0,0,0,0
1683057396.239034177,16,1683057396.239034177,0.00269282,0.00208856,0.00108991,0.000455053,-0.000229858,0.000112341,1,0,0,0,0,0,0
1683057396.326198101,17,1683057396.326198101,0.00160944,0.00364538,-0.000312509,0.000238747,-0.000327601,0.000370124,1,0,0,0,0,0,0
1683057396.368383032,18,1683057396.368383032,0.00179716,0.002746,0.000535472,0.000459815,-0.000352952,0.00023688,1,0,0,0,0,0,0
1683057396.410569668,19,1683057396.410569668,0.00301803,0.0023211,-0.000922955,0.000320176,-0.000321361,0.00040608,1,0,0,0,0,0,0
1683057396.435323908,20,1683057396.435323908,0.00324362,0.00130262,-0.000487743,0.000617261,-0.000290614,0.000187518,1,0,0,0,0,0,0
1683057396.531210877,21,1683057396.531210877,0.00540019,0.00323452,0.00246643,0.000292923,-0.000318666,0.000502979,1,0,0,0,0,0,0
1683057396.572284757,22,1683057396.572284757,0.00522903,0.0033057,0.00343569,0.000465889,-0.000324722,0.000319782,1,0,0,0,0,0,0
1683057396.623209002,23,1683057396.623209002,0.00436591,0.00190792,0.00214158,0.00032095,-0.000330345,0.000553002,1,0,0,0,0,0,0
1683057396.663091153,24,1683057396.663091153,0.003667,0.00192485,0.00209944,0.000568736,-0.000225283,0.000419308,1,0,0,0,0,0,0
1683057396.720098159,25,1683057396.720098159,0.0029638,0.00190822,0.00176498,0.000333171,-0.000396507,0.000644334,1,0,0,0,0,0,0
1683057396.743757704,26,1683057396.743757704,0.00286636,0.00170835,0.00188321,0.00054003,-0.000400897,0.000477635,1,0,0,0,0,0,0
1683057396.823533186,27,1683057396.823533186,0.00385752,0.00376035,0.0029673,0.000443092,-0.00037626,0.000667969,1,0,0,0,0,0,0
1683057396.843272470,28,1683057396.843272470,0.0040804,0.0039397,0.00339865,0.000644097,-0.00031702,0.000537395,1,0,0,0,0,0,0
1683057396.933275178,29,1683057396.933275178,0.00341379,0.00426487,0.00463378,0.000457022,-0.00036409,0.000696648,1,0,0,0,0,0,0
1683057396.952970632,30,1683057396.952970632,0.00360169,0.0038432,0.00443506,0.000608231,-0.000405819,0.000571634,1,0,0,0,0,0,0
1683057397.031702742,31,1683057397.031702742,0.00579022,0.00248064,0.00374021,0.000483773,-0.000382158,0.000788782,0.999999,0,0,0,0,0,0
1683057397.052375031,32,1683057397.052375031,0.00527929,0.00264852,0.0031145,0.000650232,-0.000307094,0.000662537,1,0,0,0,0,0,0
1683057397.131082119,33,1683057397.131082119,0.00700579,0.00158374,0.00254861,0.00053812,-0.000460063,0.00079918,0.999999,0,0,0,0,0,0
1683057397.150938468,34,1683057397.150938468,0.00653509,0.00209045,0.00241392,0.000691674,-0.000446779,0.000696108,0.999999,0,0,0,0,0,0
1683057397.248230377,35,1683057397.248230377,0.00629182,0.00132579,0.00385838,0.000596149,-0.000427854,0.000918101,0.999999,0,0,0,0,0,0
1683057397.264411190,36,1683057397.264411190,0.00524762,0.00226124,0.00344536,0.00069198,-0.000423261,0.000849788,0.999999,0,0,0,0,0,0
1683057397.312991822,37,1683057397.312991822,0.00288569,0.00406725,0.000690078,0.000665391,-0.000555311,0.000906897,0.999999,0,0,0,0,0,0
1683057397.338196770,38,1683057397.338196770,0.0024752,0.00405024,0.000830489,0.000873182,-0.000569656,0.00072644,0.999999,0,0,0,0,0,0
1683057397.411832820,39,1683057397.411832820,0.00334223,0.00337013,0.000746187,0.000636683,-0.000590956,0.000978566,0.999999,0,0,0,0,0,0
1683057397.437216027,40,1683057397.437216027,0.00339244,0.00292891,0.00155642,0.000888334,-0.000475723,0.000818415,0.999999,0,0,0,0,0,0
1683057397.524760182,41,1683057397.524760182,0.000392385,0.00195345,0.00234472,0.000612576,-0.000592717,0.00114476,0.999999,0,0,0,0,0,0
1683057397.538290655,42,1683057397.538290655,-0.000199945,0.00159511,0.00230799,0.000900309,-0.000501721,0.000953547,0.999999,0,0,0,0,0,0
1683057397.622382727,43,1683057397.622382727,0.000608678,0.00440668,0.00216746,0.000653959,-0.000604302,0.00115382,0.999999,0,0,0,0,0,0
1683057397.638950859,44,1683057397.638950859,0.000947021,0.00426984,0.00278088,0.000868895,-0.000628077,0.00101347,0.999999,0,0,0,0,0,0
1683057397.719633500,45,1683057397.719633500,0.00323148,0.00551492,0.00248086,0.000710557,-0.000610765,0.00118765,0.999999,0,0,0,0,0,0
1683057397.736874670,46,1683057397.736874670,0.00380011,0.00488418,0.00280969,0.000902974,-0.000635874,0.00103086,0.999999,0,0,0,0,0,0
1683057397.831179065,47,1683057397.831179065,0.00200879,0.00292149,0.00321986,0.000732913,-0.000569468,0.00124853,0.999999,0,0,0,0,0,0
1683057397.845806038,48,1683057397.845806038,0.00217364,0.00263447,0.00281592,0.000932228,-0.000508683,0.00113865,0.999999,0,0,0,0,0,0
1683057397.937895206,49,1683057397.937895206,0.00596167,0.00357517,0.00378254,0.000794069,-0.000613775,0.00117701,0.999999,0,0,0,0,0,0
1683057397.953121920,50,1683057397.953121920,0.00602677,0.00392853,0.00361612,0.000988543,-0.000573892,0.0010471,0.999999,0,0,0,0,0,0
1683057398.029977470,51,1683057398.029977470,0.00636364,0.00399856,0.0037744,0.000830583,-0.000634503,0.00129628,0.999999,0,0,0,0,0,0
1683057398.043708282,52,1683057398.043708282,0.00613069,0.0042773,0.00348309,0.000959192,-0.000656719,0.00119244,0.999999,0,0,0,0,0,0
1683057398.148085357,53,1683057398.148085357,0.00400468,0.00311512,0.00459092,0.000893787,-0.000638702,0.00127651,0.999999,0,0,0,0,0,0
1683057398.162357705,54,1683057398.162357705,0.00366902,0.00334638,0.00400699,0.00102196,-0.000632143,0.00120324,0.999999,0,0,0,0,0,0
1683057398.212128282,55,1683057398.212128282,0.00292253,0.00555615,0.0010241,0.00091907,-0.00076839,0.0014345,0.999998,0,0,0,0,0,0
1683057398.239526264,56,1683057398.239526264,0.00275387,0.00517396,0.000734902,0.00115183,-0.000724416,0.00125082,0.999998,0,0,0,0,0,0
1683057398.311596112,57,1683057398.311596112,0.0031164,0.00624716,0.000387087,0.000937072,-0.000814036,0.00151238,0.999998,0,0,0,0,0,0
1683057398.339389777,58,1683057398.339389777,0.00284299,0.00528722,0.00112909,0.00115776,-0.000856539,0.0013673,0.999998,0,0,0,0,0,0
1683057398.411480606,59,1683057398.411480606,0.000587934,0.00509744,0.00074708,0.000951082,-0.000796981,0.00151179,0.999998,0,0,0,0,0,0
1683057398.437634462,60,1683057398.437634462,0.000709122,0.0040424,0.00124201,0.00117637,-0.000788484,0.00137178,0.999998,0,0,0,0,0,0
1683057398.509875416,61,1683057398.509875416,0.00175305,0.00635899,0.000698137,0.00101287,-0.0008515,0.00162913,0.999998,0,0,0,0,0,0
1683057398.540436093,62,1683057398.540436093,0.00196872,0.00559142,0.00146157,0.00118964,-0.000889893,0.00145936,0.999998,0,0,0,0,0,0
1683057398.621451033,63,1683057398.621451033,0.00272816,0.00401174,0.00247003,0.00102206,-0.000817223,0.0015892,0.999998,0,0,0,0,0,0
1683057398.639001794,64,1683057398.639001794,0.00292556,0.00371388,0.00258551,0.00127392,-0.000773907,0.00144552,0.999998,0,0,0,0,0,0
1683057398.720625930,65,1683057398.720625930,0.00364124,0.00763148,0.0020484,0.00100108,-0.000882896,0.00165625,0.999998,0,0,0,0,0,0
1683057398.735469817,66,1683057398.735469817,0.00385691,0.00729853,0.00254199,0.00126991,-0.000874113,0.0015012,0.999998,0,0,0,0,0,0
1683057398.822805217,67,1683057398.822805217,0.00631426,0.00676459,0.00367259,0.00109783,-0.000841961,0.0016959,0.999998,0,0,0,0,0,0
1683057398.838482435,68,1683057398.838482435,0.00645891,0.00591104,0.00386979,0.00129837,-0.000802501,0.00153598,0.999998,0,0,0,0,0,0
1683057398.931904678,69,1683057398.931904678,0.00411352,0.00506698,0.00447836,0.00109824,-0.000844523,0.00171408,0.999998,0,0,0,0,0,0
1683057398.945259118,70,1683057398.945259118,0.00342878,0.0046619,0.00445223,0.00126223,-0.000876848,0.00156825,0.999998,0,0,0,0,0,0
1683057399.029960721,71,1683057399.029960721,0.00435562,0.00373263,0.00501831,0.00116011,-0.000860995,0.00177171,0.999997,0,0,0,0,0,0
1683057399.044728471,72,1683057399.044728471,0.0038242,0.00392292,0.00476484,0.00130386,-0.00086471,0.00165527,0.999997,0,0,0,0,0,0
1683057399.131157161,73,1683057399.131157161,0.00418719,0.00653584,0.00490361,0.00118834,-0.000930945,0.00183753,0.999997,0,0,0,0,0,0
1683057399.143305563,74,1683057399.143305563,0.00401229,0.00640338,0.0052205,0.00133847,-0.000902482,0.0017496,0.999997,0,0,0,0,0,0
1683057399.242065252,75,1683057399.242065252,0.0040571,0.00676696,0.00502654,0.0012679,-0.000884311,0.00189306,0.999997,0,0,0,0,0,0
1683057399.258570049,76,1683057399.258570049,0.00385229,0.0063092,0.00533374,0.00138605,-0.000909807,0.00182789,0.999997,0,0,0,0,0,0
1683057399.313200666,77,1683057399.313200666,0.00095076,0.00797147,0.00188901,0.00129137,-0.0010109,0.00189171,0.999997,0,0,0,0,0,0
1683057399.348585629,78,1683057399.348585629,0.000594389,0.00603339,0.00185099,0.001537,-0.000977552,0.00167531,0.999997,0,0,0,0,0,0
1683057399.412338220,79,1683057399.412338220,0.00283358,0.00841121,0.00106385,0.00132045,-0.00104989,0.00198374,0.999997,0,0,0,0,0,0
1683057399.443375043,80,1683057399.443375043,0.00302317,0.00649209,0.0023139,0.00155393,-0.00103985,0.00180297,0.999997,0,0,0,0,0,0
1683057399.515024343,81,1683057399.515024343,0.00400264,0.00775527,0.00141794,0.00133702,-0.00109458,0.00212022,0.999996,0,0,0,0,0,0
1683057399.539105036,82,1683057399.539105036,0.00380515,0.00636487,0.00269143,0.00161092,-0.00105397,0.00194781,0.999996,0,0,0,0,0,0
1683057399.611176208,83,1683057399.611176208,0.00563147,0.00850878,0.00250602,0.00137303,-0.00111649,0.00210438,0.999996,0,0,0,0,0,0
1683057399.641861245,84,1683057399.641861245,0.00536525,0.00697742,0.00393175,0.00159043,-0.00113752,0.00188942,0.999996,0,0,0,0,0,0
1683057399.723051771,85,1683057399.723051771,0.00405467,0.00863242,0.00395991,0.00137224,-0.00108586,0.00219618,0.999996,0,0,0,0,0,0
1683057399.738088035,86,1683057399.738088035,0.0034298,0.0075914,0.00522097,0.00160314,-0.00104994,0.00205461,0.999996,0,0,0,0,0,0
1683057399.820127170,87,1683057399.820127170,0.00287922,0.00934433,0.00446617,0.00148148,-0.00109367,0.00217679,0.999996,0,0,0,0,0,0
1683057399.837465538,88,1683057399.837465538,0.00270564,0.00790657,0.00538766,0.00160239,-0.00114264,0.00203931,0.999996,0,0,0,0,0,0
1683057399.933340158,89,1683057399.933340158,0.00254405,0.00736824,0.00560666,0.00148699,-0.00108901,0.00227701,0.999996,0,0,0,0,0,0
1683057399.946673756,90,1683057399.946673756,0.00244308,0.00591013,0.00633087,0.00171242,-0.00108134,0.00212944,0.999996,0,0,0,0,0,0
1683057400.032152188,91,1683057400.032152188,0.00575474,0.00984163,0.00587174,0.00152688,-0.0011326,0.00221989,0.999996,0,0,0,0,0,0
1683057400.049400975,92,1683057400.049400975,0.00598316,0.00911963,0.00650387,0.00166435,-0.00113661,0.00212648,0.999996,0,0,0,0,0,0
1683057400.140292514,93,1683057400.140292514,0.0103236,0.0121336,0.00564884,0.00155075,-0.00108457,0.00226428,0.999996,0,0,0,0,0,0
1683057400.154751021,94,1683057400.154751021,0.0106896,0.0110376,0.00608494,0.00171427,-0.00108016,0.00218102,0.999996,0,0,0,0,0,0
1683057400.241077876,95,1683057400.241077876,0.00712757,0.00792441,0.0054992,0.0016195,-0.00113513,0.00230046,0.999995,0,0,0,0,0,0
1683057400.255060802,96,1683057400.255060802,0.00616418,0.00676913,0.00580904,0.00170407,-0.00114961,0.00224542,0.999995,0,0,0,0,0,0
1683057400.310254762,97,1683057400.310254762,0.00404563,0.00873773,0.00221466,0.00161686,-0.00126469,0.00240448,0.999995,0,0,0,0,0,0
1683057400.341195619,98,1683057400.341195619,0.00274528,0.00680409,0.00147037,0.00187916,-0.00118632,0.0022595,0.999995,0,0,0,0,0,0
1683057400.410629814,99,1683057400.410629814,0.00295459,0.0101797,0.00160969,0.001601,-0.001329,0.00254886,0.999995,0,0,0,0,0,0
1683057400.437185590,100,1683057400.437185590,0.00164658,0.00920768,0.00257321,0.00186732,-0.00134289,0.00239737,0.999994,0,0,0,0,0,0
1683057400.510744235,101,1683057400.510744235,0.00114626,0.0112878,0.00187532,0.00168948,-0.00131261,0.00247136,0.999995,0,0,0,0,0,0
1683057400.551494279,102,1683057400.551494279,0.0005502,0.00897946,0.00238907,0.0018419,-0.00130936,0.0022476,0.999995,0,0,0,0,0,0
1683057400.611748578,103,1683057400.611748578,0.00613059,0.00652731,0.0048937,0.00163183,-0.00122075,0.0024743,0.999995,0,0,0,0,0,0
1683057400.639503758,104,1683057400.639503758,0.00588825,0.00449538,0.00613329,0.00180917,-0.00121586,0.00224325,0.999995,0,0,0,0,0,0
1683057400.722419497,105,1683057400.722419497,0.00738643,0.0103154,0.00538075,0.00162595,-0.00122584,0.00237962,0.999995,0,0,0,0,0,0
1683057400.752655038,106,1683057400.752655038,0.00725658,0.00970084,0.00634578,0.0018297,-0.00115137,0.00216751,0.999995,0,0,0,0,0,0
1683057400.835142713,107,1683057400.835142713,0.00447153,0.00916461,0.0075796,0.00159172,-0.00117019,0.00243917,0.999995,0,0,0,0,0,0
1683057400.851978593,108,1683057400.851978593,0.00369303,0.0073276,0.00823163,0.00176362,-0.00108894,0.00227909,0.999995,0,0,0,0,0,0
1683057400.931764289,109,1683057400.931764289,0.00341388,0.00611398,0.00748952,0.00158797,-0.00113462,0.00243896,0.999995,0,0,0,0,0,0
1683057400.958834337,110,1683057400.958834337,0.00278032,0.00519009,0.00803408,0.0017098,-0.00112597,0.00226833,0.999995,0,0,0,0,0,0
1683057401.036529776,111,1683057401.036529776,0.00680482,0.00684415,0.00690434,0.00157263,-0.00107163,0.00228852,0.999996,0,0,0,0,0,0
1683057401.064509794,112,1683057401.064509794,0.00675842,0.00639493,0.007231,0.00169008,-0.00107874,0.00214834,0.999996,0,0,0,0,0,0
1683057401.144739858,113,1683057401.144739858,0.00384306,0.00658572,0.00646576,0.0015857,-0.00105939,0.00236096,0.999995,0,0,0,0,0,0
1683057401.156537952,114,1683057401.156537952,0.00345863,0.0055214,0.00691625,0.0016599,-0.00104432,0.00225539,0.999996,0,0,0,0,0,0
1683057401.212552181,115,1683057401.212552181,0.000189011,0.00698092,0.00284749,0.00150488,-0.00118555,0.00229574,0.999996,0,0,0,0,0,0
1683057401.244569848,116,1683057401.244569848,-0.00150157,0.00531169,0.00146817,0.00172472,-0.00112595,0.00202674,0.999996,0,0,0,0,0,0
1683057401.310463304,117,1683057401.310463304,0.00149883,0.0094474,0.00294998,0.00145601,-0.00113637,0.00228278,0.999996,0,0,0,0,0,0
1683057401.340412827,118,1683057401.340412827,0.000995555,0.00774561,0.00382952,0.00167637,-0.00110817,0.0020825,0.999996,0,0,0,0,0,0
1683057401.414946237,119,1683057401.414946237,-0.00123184,0.00707246,0.00337462,0.00145639,-0.00112775,0.00229103,0.999996,0,0,0,0,0,0
1683057401.461743778,120,1683057401.461743778,-0.00221331,0.00458622,0.00418788,0.00165592,-0.00109397,0.00209204,0.999996,0,0,0,0,0,0
1683057401.510585659,121,1683057401.510585659,-0.00167376,0.00776697,0.00298134,0.00145464,-0.00111237,0.00218064,0.999996,0,0,0,0,0,0
1683057401.540438686,122,1683057401.540438686,-0.00217815,0.00572364,0.00309,0.0016959,-0.00103992,0.0019372,0.999996,0,0,0,0,0,0
1683057401.641685975,123,1683057401.641685975,-0.000294859,0.00762604,0.00402472,0.00134057,-0.00110569,0.00218114,0.999996,0,0,0,0,0,0
1683057401.657718660,124,1683057401.657718660,-0.0005313,0.00576075,0.00470055,0.00159462,-0.00100348,0.00195817,0.999996,0,0,0,0,0,0
1683057401.744176535,125,1683057401.744176535,0.000685209,0.00595255,0.00445072,0.0013583,-0.00105077,0.00218208,0.999996,0,0,0,0,0,0
1683057401.758658669,126,1683057401.758658669,0.00020449,0.00449546,0.00496964,0.00151804,-0.00103646,0.00196916,0.999996,0,0,0,0,0,0
1683057401.820991262,127,1683057401.820991262,0.000847888,0.00709497,0.0052397,0.0013243,-0.00102424,0.00209932,0.999996,0,0,0,0,0,0
1683057401.837284286,128,1683057401.837284286,0.000369352,0.00565579,0.00553867,0.00148958,-0.000969657,0.00189141,0.999997,0,0,0,0,0,0
1683057401.930359207,129,1683057401.930359207,0.000511288,0.00629064,0.00655873,0.001273,-0.000936934,0.00211678,0.999997,0,0,0,0,0,0
1683057401.943357360,130,1683057401.943357360,0.000412836,0.00463027,0.00739088,0.00144366,-0.000915607,0.00196259,0.999997,0,0,0,0,0,0
1683057402.030314964,131,1683057402.030314964,0.00112111,0.00471959,0.00621594,0.00128545,-0.000956347,0.00204084,0.999997,0,0,0,0,0,0
1683057402.043111889,132,1683057402.043111889,0.000752354,0.00362569,0.00658072,0.00140945,-0.000924471,0.00187923,0.999997,0,0,0,0,0,0
1683057402.131180654,133,1683057402.131180654,0.00681402,0.00683166,0.0068344,0.00124394,-0.000906487,0.00192438,0.999997,0,0,0,0,0,0
1683057402.146074496,134,1683057402.146074496,0.00705481,0.00597026,0.00744839,0.00135398,-0.000892262,0.00176682,0.999997,0,0,0,0,0,0
1683057402.229786131,135,1683057402.229786131,0.00366735,0.0053563,0.00706126,0.00129441,-0.000863461,0.00196118,0.999997,0,0,0,0,0,0
1683057402.243093169,136,1683057402.243093169,0.00303485,0.0040649,0.00747626,0.00138562,-0.000853914,0.00183608,0.999997,0,0,0,0,0,0
1683057402.309570047,137,1683057402.309570047,0.00281212,0.00706669,0.00322248,0.00120575,-0.000965522,0.00183572,0.999997,0,0,0,0,0,0
1683057402.338216461,138,1683057402.338216461,0.00186516,0.00514107,0.00141498,0.00145156,-0.000896554,0.00161361,0.999997,0,0,0,0,0,0
1683057402.416763899,139,1683057402.416763899,0.00450805,0.0072058,0.00211399,0.00112978,-0.000951406,0.00178199,0.999997,0,0,0,0,0,0
1683057402.437134044,140,1683057402.437134044,0.00401057,0.00495184,0.00184512,0.00134149,-0.000848842,0.00153213,0.999998,0,0,0,0,0,0
1683057402.511037596,141,1683057402.511037596,0.000324463,0.00591017,0.00249859,0.00113898,-0.000969184,0.00184907,0.999997,0,0,0,0,0,0
1683057402.538837187,142,1683057402.538837187,-0.00135123,0.0040365,0.00397955,0.00134876,-0.000975542,0.00163636,0.999997,0,0,0,0,0,0
1683057402.610724499,143,1683057402.610724499,-0.0018018,0.00524947,0.00273963,0.00113345,-0.000963152,0.00183381,0.999997,0,0,0,0,0,0
1683057402.638611190,144,1683057402.638611190,-0.00287424,0.00265016,0.00322577,0.00135743,-0.000899521,0.00160035,0.999997,0,0,0,0,0,0
1683057402.743585104,145,1683057402.743585104,0.00217712,0.00562758,0.00459418,0.00107332,-0.00085182,0.0017951,0.999997,0,0,0,0,0,0
1683057402.763032251,146,1683057402.763032251,0.00256476,0.00364824,0.00635817,0.00123028,-0.000813556,0.00158411,0.999998,0,0,0,0,0,0
1683057402.822334236,147,1683057402.822334236,0.00256681,0.00591765,0.00506862,0.00104297,-0.000868291,0.0017161,0.999998,0,0,0,0,0,0
1683057402.837213333,148,1683057402.837213333,0.00255763,0.00453455,0.00610338,0.0012488,-0.000815707,0.00150434,0.999998,0,0,0,0,0,0
1683057402.922099910,149,1683057402.922099910,0.0047612,0.00658776,0.00600478,0.00101463,-0.00084166,0.00167961,0.999998,0,0,0,0,0,0
1683057402.937049929,150,1683057402.937049929,0.00507561,0.00459017,0.00705754,0.00120941,-0.000762827,0.00147597,0.999998,0,0,0,0,0,0
1683057403.031746215,151,1683057403.031746215,0.00478479,0.00475069,0.00608808,0.000984906,-0.0007522,0.00167018,0.999998,0,0,0,0,0,0
1683057403.045366058,152,1683057403.045366058,0.00442389,0.00295818,0.00662052,0.00115027,-0.000698605,0.00150961,0.999998,0,0,0,0,0,0
1683057403.142532334,153,1683057403.142532334,0.0024362,0.00393118,0.00748325,0.000989849,-0.000695563,0.00172289,0.999998,0,0,0,0,0,0
1683057403.156583773,154,1683057403.156583773,0.00232703,0.00284502,0.0083128,0.00108758,-0.000753826,0.00158741,0.999998,0,0,0,0,0,0
1683057403.231306766,155,1683057403.231306766,0.00599456,0.00588385,0.00746415,0.000958847,-0.000672818,0.00156858,0.999998,0,0,0,0,0,0
1683057403.246428069,156,1683057403.246428069,0.00576334,0.00507808,0.00818997,0.00107515,-0.000597638,0.00143281,0.999998,0,0,0,0,0,0
1683057403.341841799,157,1683057403.341841799,0.00162758,0.00509906,0.00745501,0.000972253,-0.00071495,0.00154987,0.999998,0,0,0,0,0,0
1683057403.354036394,158,1683057403.354036394,0.00143388,0.00394306,0.00800271,0.00106985,-0.000684783,0.00140639,0.999998,0,0,0,0,0,0
1683057403.413836924,159,1683057403.413836924,0.00061393,0.00476521,0.0033923,0.000888349,-0.000774815,0.00153073,0.999998,0,0,0,0,0,0
1683057403.440810617,160,1683057403.440810617,-0.00109029,0.00321638,0.00161498,0.00112822,-0.000715921,0.00134035,0.999998,0,0,0,0,0,0
1683057403.503881924,161,1683057403.503881924,-0.000226002,0.00281245,0.00252239,0.000864932,-0.000766746,0.00149268,0.999998,0,0,0,0,0,0
1683057403.539573679,162,1683057403.539573679,-0.00126522,0.00115726,0.0019461,0.0010566,-0.000750803,0.00127565,0.999998,0,0,0,0,0,0
1683057403.619340559,163,1683057403.619340559,-0.000347329,0.00442983,0.00335025,0.000835936,-0.000727234,0.00156497,0.999998,0,0,0,0,0,0
1683057403.637342674,164,1683057403.637342674,-0.000201928,0.00342927,0.00457371,0.00108965,-0.000651914,0.00131378,0.999998,0,0,0,0,0,0
1683057403.711766324,165,1683057403.711766324,0.00158045,0.00327996,0.00366511,0.000806172,-0.000752406,0.00148273,0.999998,0,0,0,0,0,0
1683057403.737858235,166,1683057403.737858235,0.00146962,0.00322227,0.00432054,0.00105199,-0.000724452,0.00122067,0.999998,0,0,0,0,0,0
1683057403.823550778,167,1683057403.823550778,0.00126416,0.00383347,0.00569222,0.000771816,-0.000654571,0.00147838,0.999998,0,0,0,0,0,0
1683057403.837788008,168,1683057403.837788008,0.00132368,0.00245587,0.00736592,0.000961502,-0.000652277,0.00124061,0.999999,0,0,0,0,0,0
1683057403.921573194,169,1683057403.921573194,0.000610056,0.00408408,0.00665397,0.00079691,-0.000619471,0.00144137,0.999998,0,0,0,0,0,0
1683057403.936632759,170,1683057403.936632759,0.000815093,0.00277589,0.00735137,0.000973022,-0.000622349,0.00123417,0.999999,0,0,0,0,0,0
1683057404.024369697,171,1683057404.024369697,0.00195725,0.00505643,0.00515217,0.000711429,-0.000626877,0.00130442,0.999999,0,0,0,0,0,0
1683057404.039178144,172,1683057404.039178144,0.00225249,0.00401759,0.00517189,0.000859768,-0.000564526,0.00109945,0.999999,0,0,0,0,0,0
1683057404.132034692,173,1683057404.132034692,0.00407031,0.00283567,0.00599619,0.00066011,-0.000550853,0.0013239,0.999999,0,0,0,0,0,0
1683057404.146509535,174,1683057404.146509535,0.00384936,0.00155949,0.00660009,0.000834413,-0.00046493,0.00114659,0.999999,0,0,0,0,0,0
1683057404.234447504,175,1683057404.234447504,0.00189818,0.00178396,0.0079061,0.000662522,-0.000535963,0.00137765,0.999999,0,0,0,0,0,0
1683057404.247101948,176,1683057404.247101948,0.00136703,0.00162632,0.00908339,0.00076474,-0.000560067,0.00118899,0.999999,0,0,0,0,0,0
1683057404.333650588,177,1683057404.333650588,0.000914341,0.00135937,0.0091453,0.000673831,-0.000508113,0.00126599,0.999999,0,0,0,0,0,0
1683057404.347135948,178,1683057404.347135948,0.000652711,0.000930295,0.00972153,0.000789966,-0.00047695,0.00109912,0.999999,0,0,0,0,0,0
1683057404.439684182,179,1683057404.439684182,0.000391594,0.00243974,0.00776224,0.000647098,-0.000478571,0.00124466,0.999999,0,0,0,0,0,0
1683057404.452553754,180,1683057404.452553754,0.000248715,0.00145633,0.00786546,0.000718499,-0.000476681,0.00112375,0.999999,0,0,0,0,0,0
1683057404.520728070,181,1683057404.520728070,-0.000589584,0.00431887,0.00339973,0.000603111,-0.000585333,0.0011887,0.999999,0,0,0,0,0,0
1683057404.539215847,182,1683057404.539215847,-0.00130871,0.00440937,0.00185145,0.000911728,-0.000519112,0.000996387,0.999999,0,0,0,0,0,0
1683057404.610497755,183,1683057404.610497755,-0.00279437,0.00411612,0.00225609,0.000523382,-0.000575623,0.00113506,0.999999,0,0,0,0,0,0
1683057404.640890159,184,1683057404.640890159,-0.00370518,0.00193209,0.002392,0.000786647,-0.000607731,0.000936587,0.999999,0,0,0,0,0,0
1683057404.710648352,185,1683057404.710648352,-0.00442651,0.00111933,0.00323009,0.000546866,-0.000495116,0.0012324,0.999999,0,0,0,0,0,0
1683057404.736842580,186,1683057404.736842580,-0.00546243,-0.00206936,0.00422351,0.000778755,-0.000432098,0.00100279,0.999999,0,0,0,0,0,0
1683057404.810139041,187,1683057404.810139041,-0.00585912,0.00250785,0.00337609,0.000526949,-0.000536388,0.00117676,0.999999,0,0,0,0,0,0
1683057404.836965559,188,1683057404.836965559,-0.00651237,0.00297623,0.00415126,0.000690315,-0.000460792,0.000960307,0.999999,0,0,0,0,0,0
1683057404.922086261,189,1683057404.922086261,-0.00480573,0.00310819,0.00634931,0.000443063,-0.000472614,0.00113688,0.999999,0,0,0,0,0,0
1683057404.938704723,190,1683057404.938704723,-0.00473218,0.00172862,0.00787227,0.00065072,-0.000338397,0.000923833,0.999999,0,0,0,0,0,0
1683057405.020540865,191,1683057405.020540865,-0.00474372,0.00245105,0.00562873,0.000441064,-0.000488279,0.00107191,0.999999,0,0,0,0,0,0
1683057405.037574967,192,1683057405.037574967,-0.00451169,0.00144718,0.00618081,0.000639769,-0.000441212,0.000846964,0.999999,0,0,0,0,0,0
1683057405.120728731,193,1683057405.120728731,-0.00308715,0.000412444,0.00656579,0.000445088,-0.000406794,0.00104618,0.999999,0,0,0,0,0,0
1683057405.137707989,194,1683057405.137707989,-0.0031463,-0.000566721,0.00739235,0.000644404,-0.000339776,0.000831013,0.999999,0,0,0,0,0,0
1683057405.233546455,195,1683057405.233546455,-0.000588967,0.001174,0.00738166,0.000401924,-0.000356902,0.00102928,0.999999,0,0,0,0,0,0
1683057405.245210583,196,1683057405.245210583,-0.000521413,0.000595535,0.00800276,0.00052369,-0.000341429,0.000856229,0.999999,0,0,0,0,0,0
1683057405.312076000,197,1683057405.312076000,-0.00227811,0.00102366,0.00302338,0.000386887,-0.000459914,0.000883127,0.999999,0,0,0,0,0,0
1683057405.336990496,198,1683057405.336990496,-0.00249179,-0.00074257,0.00128666,0.000637456,-0.000394979,0.00067245,0.999999,0,0,0,0,0,0
1683057405.412723795,199,1683057405.412723795,-0.00258223,0.000477312,0.00127967,0.000317177,-0.000456145,0.000933496,0.999999,0,0,0,0,0,0
1683057405.436744517,200,1683057405.436744517,-0.0028617,-0.00117553,0.0013059,0.000593213,-0.000412391,0.000695304,0.999999,0,0,0,0,0,0
1683057405.513444722,201,1683057405.513444722,-0.00144366,0.00172253,0.00200793,0.000333787,-0.000400725,0.000835018,1,0,0,0,0,0,0
1683057405.566768468,202,1683057405.566768468,-0.00152175,0.000504767,0.0030827,0.000586564,-0.000377238,0.000635763,1,0,0,0,0,0,0
1683057405.717230025,203,1683057405.717230025,-0.00221821,0.000638313,0.00196691,0.000319895,-0.000430135,0.000892806,0.999999,0,0,0,0,0,0
1683057405.735343533,204,1683057405.735343533,-0.00235623,-0.00130704,0.00248301,0.000531351,-0.000379321,0.00070539,1,0,0,0,0,0,0
1683057405.796879575,205,1683057405.796879575,-0.00246387,0.00169595,0.00550867,0.00026996,-0.000359219,0.00080275,1,0,0,0,0,0,0
1683057405.826467740,206,1683057405.826467740,-0.00287081,0.00103411,0.00726875,0.000475064,-0.000304581,0.000582673,1,0,0,0,0,0,0
1683057405.889955494,207,1683057405.889955494,-0.00122045,0.00156798,0.00570619,0.000284423,-0.000377862,0.0008929,0.999999,0,0,0,0,0,0
1683057405.917335993,208,1683057405.917335993,-0.00122972,0.00079673,0.00653875,0.000518177,-0.000309506,0.000674489,1,0,0,0,0,0,0
1683057405.938421483,209,1683057405.938421483,-0.00266151,0.000918215,0.00609424,0.000291441,-0.000334098,0.00082839,1,0,0,0,0,0,0
1683057405.954538300,210,1683057405.954538300,-0.00308263,0.000399167,0.00679856,0.000534384,-0.000326907,0.00060895,1,0,0,0,0,0,0
1683057406.031541532,211,1683057406.031541532,-0.00239871,-0.000325603,0.00707322,0.000276454,-0.000259237,0.000806915,1,0,0,0,0,0,0
1683057406.048126664,212,1683057406.048126664,-0.00297129,-0.00125777,0.00781015,0.000419412,-0.000247898,0.000637492,1,0,0,0,0,0,0
1683057406.187016481,213,1683057406.187016481,-0.00144987,-0.000416976,0.00748432,0.000266443,-0.000258871,0.000820412,1,0,0,0,0,0,0
1683057406.201739250,214,1683057406.201739250,-0.00200393,-0.000739611,0.00809463,0.000438673,-0.00023654,0.000624774,1,0,0,0,0,0,0
1683057406.243441315,215,1683057406.243441315,-0.00197948,-0.00108008,0.00828452,0.000314177,-0.000261618,0.000802969,1,0,0,0,0,0,0
1683057406.256836369,216,1683057406.256836369,-0.00275786,-0.00170784,0.00857439,0.000423643,-0.000222884,0.000689711,1,0,0,0,0,0,0
1683057406.367579762,217,1683057406.367579762,-0.00323647,-0.00140195,0.00356739,0.000291526,-0.000354156,0.000796444,1,0,0,0,0,0,0
1683057406.403439873,218,1683057406.403439873,-0.00412919,-0.00306942,0.0017874,0.000566062,-0.000325674,0.000594113,1,0,0,0,0,0,0
1683057406.436064895,219,1683057406.436064895,-0.000308111,0.000288206,0.00157483,0.000258816,-0.000323421,0.00081319,1,0,0,0,0,0,0
1683057406.470080026,220,1683057406.470080026,-0.000979746,4.13007e-05,0.00135453,0.000488356,-0.000328315,0.000635736,1,0,0,0,0,0,0
1683057406.514873399,221,1683057406.514873399,-0.000960184,0.000391949,0.00313952,0.000243296,-0.000301665,0.000766077,1,0,0,0,0,0,0
1683057406.549552692,222,1683057406.549552692,-0.00179646,-0.0013173,0.00437282,0.000520469,-0.000206532,0.000578971,1,0,0,0,0,0,0
1683057406.612473059,223,1683057406.612473059,-0.000592533,0.000110946,0.00334594,0.000264844,-0.000327938,0.000706996,1,0,0,0,0,0,0
1683057406.650366701,224,1683057406.650366701,-0.00087061,-0.00158642,0.00412903,0.000507912,-0.000283908,0.000508465,1,0,0,0,0,0,0
1683057406.725301134,225,1683057406.725301134,-0.0028449,-0.00144757,0.0054282,0.000195068,-0.000300865,0.000785594,1,0,0,0,0,0,0
1683057406.743286251,226,1683057406.743286251,-0.00397026,-0.00314812,0.00649771,0.00040735,-0.000253402,0.000571395,1,0,0,0,0,0,0
1683057406.826607497,227,1683057406.826607497,-0.00456532,-0.00152261,0.0046273,0.000216711,-0.000292025,0.000763065,1,0,0,0,0,0,0
1683057406.840272951,228,1683057406.840272951,-0.00553044,-0.00264812,0.00485842,0.00038541,-0.000267594,0.000554208,1,0,0,0,0,0,0
1683057406.921926442,229,1683057406.921926442,-0.00515015,-0.00140151,0.00521548,0.000246186,-0.000227853,0.00078767,1,0,0,0,0,0,0
1683057406.936841675,230,1683057406.936841675,-0.00583868,-0.00253691,0.00578041,0.000401484,-0.000172043,0.000601972,1,0,0,0,0,0,0
1683057407.034096799,231,1683057407.034096799,-0.00473893,-0.00267104,0.00710566,0.000189672,-0.000233491,0.000787896,1,0,0,0,0,0,0
1683057407.051647187,232,1683057407.051647187,-0.00532607,-0.00402097,0.00802499,0.000361597,-0.000202883,0.000620622,1,0,0,0,0,0,0
1683057407.137946408,233,1683057407.137946408,-0.00406006,-0.00208468,0.00748782,0.000186161,-0.000244209,0.000705347,1,0,0,0,0,0,0
1683057407.155261588,234,1683057407.155261588,-0.00461223,-0.00295053,0.00791844,0.000330154,-0.000218074,0.000561668,1,0,0,0,0,0,0
1683057407.232821498,235,1683057407.232821498,-0.00485644,-0.00301606,0.00658781,0.000195234,-0.000180475,0.000720342,1,0,0,0,0,0,0
1683057407.245397829,236,1683057407.245397829,-0.00552976,-0.00394554,0.00665295,0.000314392,-0.00019173,0.00057574,1,0,0,0,0,0,0
1683057407.341740307,237,1683057407.341740307,-0.00231078,-0.00350532,0.00537552,0.00016006,-0.00020315,0.000638786,1,0,0,0,0,0,0
1683057407.354876128,238,1683057407.354876128,-0.00237867,-0.00423604,0.00554107,0.000228066,-0.000190913,0.000534357,1,0,0,0,0,0,0
1683057407.415792812,239,1683057407.415792812,-0.00352936,-0.000276424,0.00309111,0.000178838,-0.000314513,0.000631206,1,0,0,0,0,0,0
1683057407.438584680,240,1683057407.438584680,-0.00417052,0.00021552,0.00259578,0.000447538,-0.000178141,0.000420533,1,0,0,0,0,0,0
1683057407.512009067,241,1683057407.512009067,-0.00461159,0.00141373,0.00250565,0.000164893,-0.00027746,0.000551553,1,0,0,0,0,0,0
1683057407.536837414,242,1683057407.536837414,-0.00570116,0.000572765,0.00309736,0.000394629,-0.000259208,0.00031376,1,0,0,0,0,0,0
1683057407.610283163,243,1683057407.610283163,-0.00389044,-0.000399556,0.00209956,0.000192154,-0.000253187,0.000582462,1,0,0,0,0,0,0
1683057407.636944282,244,1683057407.636944282,-0.00416229,-0.00314422,0.00265296,0.000426973,-0.000198467,0.000383887,1,0,0,0,0,0,0
1683057407.711154295,245,1683057407.711154295,-0.00259143,-0.000269923,0.00212862,0.000155239,-0.000255067,0.000627384,1,0,0,0,0,0,0
1683057407.736688572,246,1683057407.736688572,-0.00276349,-0.00100382,0.00293545,0.000372535,-0.000213773,0.000370194,1,0,0,0,0,0,0
1683057407.819301062,247,1683057407.819301062,-0.00490863,-0.0022516,0.00471321,0.000134627,-0.000241797,0.000662689,1,0,0,0,0,0,0
1683057407.836643546,248,1683057407.836643546,-0.00545761,-0.00405186,0.00621445,0.000381301,-0.000160134,0.000423492,1,0,0,0,0,0,0
1683057407.922933133,249,1683057407.922933133,-0.00450509,-0.00219281,0.00477308,0.000156577,-0.000251797,0.000619025,1,0,0,0,0,0,0
1683057407.936713500,250,1683057407.936713500,-0.00492018,-0.00324432,0.00507404,0.00036241,-0.000227449,0.000425368,1,0,0,0,0,0,0
1683057408.018807441,251,1683057408.018807441,-0.00440804,-0.000876749,0.00435998,0.000127378,-0.000194951,0.000593522,1,0,0,0,0,0,0
1683057408.035812708,252,1683057408.035812708,-0.00482559,-0.00116521,0.00472072,0.000311555,-0.000168793,0.000412197,1,0,0,0,0,0,0
1683057408.130949691,253,1683057408.130949691,-0.00619268,-0.00192813,0.00737003,0.000100635,-0.000126997,0.000586181,1,0,0,0,0,0,0
1683057408.144159547,254,1683057408.144159547,-0.00680974,-0.00279272,0.00849548,0.000242192,-0.000104456,0.000433939,1,0,0,0,0,0,0
1683057408.230584815,255,1683057408.230584815,-0.00434268,-0.00194436,0.00823135,0.000129559,-0.000118578,0.000519681,1,0,0,0,0,0,0
1683057408.242662968,256,1683057408.242662968,-0.00457726,-0.00247817,0.0087164,0.000242986,-6.93264e-05,0.000377091,1,0,0,0,0,0,0
1683057408.332203500,257,1683057408.332203500,-0.00389156,-0.00333383,0.0072597,0.000164083,-0.000112572,0.000551188,1,0,0,0,0,0,0
1683057408.343774125,258,1683057408.343774125,-0.00437047,-0.00442802,0.00696935,0.000310716,-8.82603e-05,0.000406474,1,0,0,0,0,0,0
1683057408.441057148,259,1683057408.441057148,-0.00459927,-0.00351654,0.00624783,0.00011628,-0.000148139,0.000533769,1,0,0,0,0,0,0
1683057408.453540418,260,1683057408.453540418,-0.0049557,-0.00434322,0.00631374,0.00023469,-0.000168534,0.000416897,1,0,0,0,0,0,0
1683057408.511963927,261,1683057408.511963927,-0.00435113,-0.00412589,0.00351653,0.000142124,-0.000197191,0.000450445,1,0,0,0,0,0,0
1683057408.535740458,262,1683057408.535740458,-0.00478186,-0.00589136,0.00261406,0.000458111,-0.000132488,0.000221681,1,0,0,0,0,0,0
1683057408.612390670,263,1683057408.612390670,-0.00377386,-0.00236055,0.0008828,0.000110978,-0.000211651,0.00038429,1,0,0,0,0,0,0
1683057408.637078042,264,1683057408.637078042,-0.00411696,-0.00223239,0.000297906,0.00033714,-0.000140564,0.000142814,1,0,0,0,0,0,0
1683057408.712357059,265,1683057408.712357059,-0.00456284,-0.00214118,0.000917626,5.9593e-05,-0.000213805,0.000481667,1,0,0,0,0,0,0
1683057408.737720290,266,1683057408.737720290,-0.00535098,-0.00301982,0.00143296,0.000367695,-0.000101266,0.000264731,1,0,0,0,0,0,0
1683057408.823479700,267,1683057408.823479700,-0.00396233,-0.0026254,0.00381291,1.13072e-05,-0.000189787,0.00042403,1,0,0,0,0,0,0
1683057408.839794364,268,1683057408.839794364,-0.00448729,-0.00480942,0.00566227,0.000236805,-0.000206785,0.000205204,1,0,0,0,0,0,0
1683057408.926233392,269,1683057408.926233392,-0.00548561,-0.00203895,0.00437403,6.23413e-05,-0.000170925,0.000438591,1,0,0,0,0,0,0
1683057408.938343987,270,1683057408.938343987,-0.00594459,-0.00331278,0.00496151,0.000298657,-0.000108608,0.000241719,1,0,0,0,0,0,0
1683057409.021211582,271,1683057409.021211582,-0.00437665,-0.00144221,0.00458312,6.34373e-05,-0.000139347,0.000398357,1,0,0,0,0,0,0
1683057409.037526131,272,1683057409.037526131,-0.00441888,-0.00281607,0.00504941,0.000256992,-0.000103711,0.000192874,1,0,0,0,0,0,0
1683057409.122488377,273,1683057409.122488377,-0.00462156,-0.00219113,0.00499169,3.24997e-05,-0.000144111,0.000516061,1,0,0,0,0,0,0
1683057409.136580891,274,1683057409.136580891,-0.00496064,-0.00364963,0.00533395,0.000224447,-5.80324e-05,0.000322478,1,0,0,0,0,0,0
1683057409.230804628,275,1683057409.230804628,-0.00478455,-0.002166,0.00490043,-2.15607e-05,-0.000121169,0.000432982,1,0,0,0,0,0,0
1683057409.242727974,276,1683057409.242727974,-0.00504863,-0.0028849,0.00530688,0.00014743,-7.62453e-05,0.000276735,1,0,0,0,0,0,0
1683057409.332716252,277,1683057409.332716252,-0.0054729,-0.00155706,0.00628616,1.47156e-05,-8.42693e-05,0.000368987,1,0,0,0,0,0,0
1683057409.344416414,278,1683057409.344416414,-0.00589999,-0.00203342,0.00686744,9.38995e-05,-0.000103087,0.000252884,1,0,0,0,0,0,0
1683057409.412105967,279,1683057409.412105967,-0.00519913,-0.00137039,0.0029791,6.46084e-05,-0.000138154,0.000262462,1,0,0,0,0,0,0
1683057409.436272714,280,1683057409.436272714,-0.00602471,-0.00233275,0.0020792,0.00034913,-8.41683e-05,1.37116e-05,1,0,0,0,0,0,0
1683057409.510125680,281,1683057409.510125680,-0.00220636,0.000596802,0.000952426,1.21696e-05,-0.000150071,0.000258148,1,0,0,0,0,0,0
1683057409.535862946,282,1683057409.535862946,-0.00197535,0.000205421,0.000526831,0.000293963,-8.07763e-05,4.03266e-05,1,0,0,0,0,0,0
1683057409.612665182,283,1683057409.612665182,-9.14771e-05,0.00125112,0.000786285,2.25022e-06,-0.000198492,0.000242137,1,0,0,0,0,0,0
1683057409.635863707,284,1683057409.635863707,0.000106513,0.000314145,0.00114813,0.000246434,-0.000146344,9.29265e-06,1,0,0,0,0,0,0
1683057409.723974374,285,1683057409.723974374,-0.00452419,-0.00236241,0.00466264,-3.02976e-05,-0.000105813,0.000396644,1,0,0,0,0,0,0
1683057409.737538443,286,1683057409.737538443,-0.00583986,-0.00508473,0.00623078,0.00017403,-8.0259e-05,0.000184999,1,0,0,0,0,0,0
1683057409.823034543,287,1683057409.823034543,-0.00500051,-0.00210099,0.00569189,1.77335e-05,-6.96157e-05,0.000336618,1,0,0,0,0,0,0
1683057409.838390294,288,1683057409.838390294,-0.00589273,-0.00261201,0.00631621,0.000208609,-3.69768e-05,0.000121748,1,0,0,0,0,0,0
1683057409.922648827,289,1683057409.922648827,-0.0067212,-0.00364889,0.00358876,-1.47769e-05,-0.000127839,0.00039482,1,0,0,0,0,0,0
1683057409.936680037,290,1683057409.936680037,-0.00784581,-0.00477963,0.00328263,0.000150421,-5.93303e-05,0.000213492,1,0,0,0,0,0,0
1683057410.024860588,291,1683057410.024860588,-0.0070072,-0.00335723,0.0025693,-4.83441e-05,-0.000157373,0.000275584,1,0,0,0,0,0,0
1683057410.037601374,292,1683057410.037601374,-0.00775587,-0.00378635,0.00272657,9.98767e-05,-8.99593e-05,0.000116308,1,0,0,0,0,0,0
1683057410.133529892,293,1683057410.133529892,-0.00631209,-0.00224525,0.00543223,-6.73958e-05,-6.31559e-05,0.000300873,1,0,0,0,0,0,0
1683057410.146426264,294,1683057410.146426264,-0.00684832,-0.00268276,0.00651948,6.19792e-05,-4.1458e-05,0.000148047,1,0,0,0,0,0,0
1683057410.235969925,295,1683057410.235969925,-0.00610654,-0.00186603,0.0071847,-2.54127e-05,3.10595e-06,0.000249104,1,0,0,0,0,0,0
1683057410.252273137,296,1683057410.252273137,-0.00645058,-0.00254388,0.00781682,5.75927e-05,-3.20883e-06,0.000103955,1,0,0,0,0,0,0
1683057410.331103641,297,1683057410.331103641,-0.00535519,-0.00336371,0.00650554,-4.32901e-05,-4.79415e-06,0.000242461,1,0,0,0,0,0,0
1683057410.342705900,298,1683057410.342705900,-0.00567754,-0.00427143,0.00643342,3.35656e-05,3.38952e-05,0.000133359,1,0,0,0,0,0,0
1683057410.414557802,299,1683057410.414557802,-0.00567827,-0.00171707,0.00187754,-1.05086e-05,-9.09969e-05,0.000132312,1,0,0,0,0,0,0
1683057410.439695795,300,1683057410.439695795,-0.00604402,-0.00161183,-0.000560764,0.00023474,-6.76013e-05,-8.84236e-05,1,0,0,0,0,0,0
1683057410.514291105,301,1683057410.514291105,-0.00501115,-0.00217839,0.000216672,-8.25932e-05,-0.000132194,0.00022906,1,0,0,0,0,0,0
1683057410.546354023,302,1683057410.546354023,-0.00525122,-0.00314446,-0.000694904,0.000224155,-6.31293e-05,2.57865e-06,1,0,0,0,0,0,0
1683057410.629205200,303,1683057410.629205200,-0.0070184,-0.00338903,-0.000645724,-3.73915e-05,-0.000146261,0.000204255,1,0,0,0,0,0,0
1683057410.644762188,304,1683057410.644762188,-0.00825166,-0.00456044,-0.000457502,0.000260038,-0.000135673,-3.33397e-05,1,0,0,0,0,0,0
1683057410.710498945,305,1683057410.710498945,-0.00766865,-0.00246004,0.000409037,-4.39122e-05,-0.000121309,0.000221377,1,0,0,0,0,0,0
1683057410.739977695,306,1683057410.739977695,-0.00870384,-0.00277422,0.00145723,0.000190739,6.85607e-06,1.43353e-05,1,0,0,0,0,0,0
1683057410.821248527,307,1683057410.821248527,-0.00782665,-0.0011308,0.00145521,-7.8245e-05,-0.000156087,0.000219561,1,0,0,0,0,0,0
1683057410.849731900,308,1683057410.849731900,-0.00866469,-0.00170121,0.00248947,0.000201365,-6.55654e-05,2.36464e-05,1,0,0,0,0,0,0
1683057410.947832753,309,1683057410.947832753,-0.00718013,-0.00223221,0.00378324,-6.03947e-05,-8.21834e-05,0.000247334,1,0,0,0,0,0,0
1683057410.974399333,310,1683057410.974399333,-0.00774071,-0.00339043,0.00495147,0.000169656,-1.70144e-05,2.84395e-05,1,0,0,0,0,0,0
1683057411.022126425,311,1683057411.022126425,-0.00589023,-0.00286943,0.00510317,-3.03944e-05,-3.70931e-05,0.000279746,1,0,0,0,0,0,0
1683057411.039283297,312,1683057411.039283297,-0.00621675,-0.00355609,0.00581343,0.000143675,-1.98267e-05,0.000123406,1,0,0,0,0,0,0
1683057411.124288062,313,1683057411.124288062,-0.00767128,-0.00177445,0.00303444,-2.93489e-05,-9.72846e-05,0.000263501,1,0,0,0,0,0,0
1683057411.138800142,314,1683057411.138800142,-0.00861085,-0.00201805,0.00271703,9.99198e-05,-4.41877e-05,6.20451e-05,1,0,0,0,0,0,0
1683057411.233838599,315,1683057411.233838599,-0.00657935,-0.00270425,0.00481853,-7.29171e-05,-3.98567e-05,0.000277281,1,0,0,0,0,0,0
1683057411.263574808,316,1683057411.263574808,-0.00714605,-0.00347901,0.00563351,9.10342e-05,3.07631e-05,0.000134205,1,0,0,0,0,0,0
1683057411.331502385,317,1683057411.331502385,-0.00778903,-0.00338205,0.00671971,-7.99681e-05,-4.6675e-05,0.000315872,1,0,0,0,0,0,0
1683057411.356966540,318,1683057411.356966540,-0.00838594,-0.00383065,0.00738254,5.45415e-05,-5.06995e-05,0.000197566,1,0,0,0,0,0,0
1683057411.432294239,319,1683057411.432294239,-0.00767485,-0.00475479,0.00668142,-5.34189e-05,-5.33118e-06,0.000262682,1,0,0,0,0,0,0
1683057411.447780173,320,1683057411.447780173,-0.00821047,-0.00530676,0.00685502,4.95275e-05,7.62264e-06,0.000156711,1,0,0,0,0,0,0
1683057411.523743415,321,1683057411.523743415,-0.00670614,-0.00386255,0.00173164,-4.04235e-05,-0.000124464,0.000224347,1,0,0,0,0,0,0
1683057411.540872769,322,1683057411.540872769,-0.00639951,-0.00412617,-0.00109594,0.000159552,-7.39355e-05,-7.14386e-06,1,0,0,0,0,0,0
1683057411.618489246,323,1683057411.618489246,-0.00660853,-0.00347027,0.000510608,-7.56179e-05,-6.79319e-05,0.000269008,1,0,0,0,0,0,0
1683057411.637469856,324,1683057411.637469856,-0.00653911,-0.00370632,-0.000348841,0.000200174,6.90954e-05,0.000100995,1,0,0,0,0,0,0
1683057411.712833318,325,1683057411.712833318,-0.00672277,-0.00360791,-0.000943639,-3.47733e-05,-0.000159347,0.00029275,1,0,0,0,0,0,0
1683057411.735786121,326,1683057411.735786121,-0.00735667,-0.00444646,-0.00134854,0.000253249,-0.000153354,9.40113e-05,1,0,0,0,0,0,0
1683057411.822887293,327,1683057411.822887293,-0.00514361,-0.0026228,0.000430529,-3.36902e-05,-5.834e-05,0.000209631,1,0,0,0,0,0,0
1683057411.842291469,328,1683057411.842291469,-0.0048868,-0.00268383,0.000976757,0.000211851,-2.32048e-06,2.9377e-06,1,0,0,0,0,0,0
1683057411.938750337,329,1683057411.938750337,-0.00220046,-0.00244602,0.00249746,-5.69683e-05,-9.46085e-05,0.000208053,1,0,0,0,0,0,0
1683057411.951605767,330,1683057411.951605767,-0.00191764,-0.00297389,0.00325769,6.28048e-05,-4.47608e-05,2.33792e-05,1,0,0,0,0,0,0
1683057412.023734324,331,1683057412.023734324,-0.00434869,-0.00433643,0.0022826,-6.75259e-05,-9.88081e-05,0.000204746,1,0,0,0,0,0,0
1683057412.039378487,332,1683057412.039378487,-0.00485695,-0.00509303,0.00219284,8.43874e-05,-1.27395e-05,4.09597e-05,1,0,0,0,0,0,0
1683057412.132809323,333,1683057412.132809323,-0.0067049,-0.00407194,0.00487223,-9.45683e-05,-8.85907e-05,0.000270337,1,0,0,0,0,0,0
1683057412.144875606,334,1683057412.144875606,-0.00756012,-0.00431478,0.00572997,3.41302e-05,-3.41736e-05,0.00014231,1,0,0,0,0,0,0
1683057412.211164385,335,1683057412.211164385,-0.0079426,-0.00371858,0.000292728,2.30173e-06,-9.52672e-05,0.000245871,1,0,0,0,0,0,0
1683057412.245677402,336,1683057412.245677402,-0.00848266,-0.00427391,-0.00210564,0.000240488,-6.47382e-05,1.20826e-05,1,0,0,0,0,0,0
1683057412.361984927,337,1683057412.361984927,-0.00510137,-0.00193751,-0.000811669,-7.36107e-05,-0.000109463,0.000273422,1,0,0,0,0,0,0
1683057412.376020088,338,1683057412.376020088,-0.00473407,-0.00174891,-0.00138651,0.000173761,-1.72539e-05,6.95475e-05,1,0,0,0,0,0,0
1683057412.416398900,339,1683057412.416398900,-0.00733509,-0.00197853,-0.000464947,-8.12776e-05,-0.000121574,0.00021664,1,0,0,0,0,0,0
1683057412.437938060,340,1683057412.437938060,-0.00777806,-0.00272898,-0.000114682,0.000151306,-4.72817e-05,3.21722e-06,1,0,0,0,0,0,0
1683057412.517148882,341,1683057412.517148882,-0.00813695,-0.00247195,0.00245198,-0.000104454,-0.000123022,0.000302155,1,0,0,0,0,0,0
1683057412.537356279,342,1683057412.537356279,-0.00871548,-0.00325521,0.00415608,0.000117254,-0.000128772,0.000100326,1,0,0,0,0,0,0
1683057412.619415802,343,1683057412.619415802,-0.00614298,-0.00456709,0.002912,-5.50438e-05,-9.997e-05,0.00027319,1,0,0,0,0,0,0
1683057412.642192395,344,1683057412.642192395,-0.00618832,-0.00552189,0.00340602,0.000125623,-4.8922e-05,8.68142e-05,1,0,0,0,0,0,0
1683057412.726256648,345,1683057412.726256648,-0.00661838,-0.00243283,0.00127157,-9.63347e-05,-9.63999e-05,0.00024633,1,0,0,0,0,0,0
1683057412.737376554,346,1683057412.737376554,-0.00684687,-0.00182376,0.00111082,6.2002e-05,-0.000105826,4.20182e-05,1,0,0,0,0,0,0
1683057412.822068190,347,1683057412.822068190,-0.00767901,-0.0024908,0.00122635,-9.48823e-05,-0.000125691,0.000293076,1,0,0,0,0,0,0
1683057412.838104059,348,1683057412.838104059,-0.00801597,-0.00279294,0.0016555,0.000135662,-3.13044e-05,0.000136667,1,0,0,0,0,0,0
1683057412.940740988,349,1683057412.940740988,-0.0109309,-0.00530735,0.00388185,-0.000117591,-9.44897e-05,0.000367447,1,0,0,0,0,0,0
1683057412.955528209,350,1683057412.955528209,-0.0122248,-0.00563009,0.0051675,2.23258e-05,-6.78765e-05,0.000224063,1,0,0,0,0,0,0
1683057413.033064180,351,1683057413.033064180,-0.00798693,-0.00486383,0.00572756,-6.17011e-05,-2.6843e-05,0.000268792,1,0,0,0,0,0,0
1683057413.044684737,352,1683057413.044684737,-0.0083077,-0.00450423,0.00650671,2.18512e-05,2.99628e-05,0.000116577,1,0,0,0,0,0,0
1683057413.112539545,353,1683057413.112539545,-0.00893332,-0.00359207,0.000880867,-5.63518e-05,-0.000125666,0.000276475,1,0,0,0,0,0,0
1683057413.135858902,354,1683057413.135858902,-0.00880075,-0.00348685,-0.00159431,0.000167402,-4.44217e-05,3.45586e-05,1,0,0,0,0,0,0
1683057413.210328748,355,1683057413.210328748,-0.0088736,-0.00392698,-0.00103933,-0.000119893,-0.00013219,0.000229523,1,0,0,0,0,0,0
1683057413.235629504,356,1683057413.235629504,-0.0088756,-0.00374661,-0.00182571,0.00014654,-1.64806e-05,3.12972e-05,1,0,0,0,0,0,0
1683057413.312740685,357,1683057413.312740685,-0.00799468,-0.00150534,-0.00027855,-9.71613e-05,-0.000105416,0.000231289,1,0,0,0,0,0,0
1683057413.335293040,358,1683057413.335293040,-0.00760867,-0.000912508,0.00027211,0.00015324,-1.81451e-05,-4.49653e-06,1,0,0,0,0,0,0
1683057413.421772344,359,1683057413.421772344,-0.00944273,-0.00306237,0.00218828,-0.000126393,-0.000104931,0.00031334,1,0,0,0,0,0,0
1683057413.436227156,360,1683057413.436227156,-0.00984769,-0.00293034,0.00359397,5.3944e-05,-7.23795e-05,0.000116132,1,0,0,0,0,0,0
1683057413.520262678,361,1683057413.520262678,-0.00771913,-0.00288836,0.00236403,-7.04713e-05,-7.77827e-05,0.000350665,1,0,0,0,0,0,0
1683057413.539745629,362,1683057413.539745629,-0.00775563,-0.00209201,0.00313093,7.60304e-05,-6.64288e-05,0.000163034,1,0,0,0,0,0,0
1683057413.630071110,363,1683057413.630071110,-0.00911467,-0.00343687,0.00315887,-0.000132668,-0.000100483,0.000232297,1,0,0,0,0,0,0
1683057413.642341735,364,1683057413.642341735,-0.00950052,-0.00305253,0.00355424,6.81711e-06,-9.12646e-05,5.10756e-05,1,0,0,0,0,0,0
1683057413.731145499,365,1683057413.731145499,-0.00601544,-0.00369083,0.00352941,-8.52866e-05,-6.37322e-05,0.000295869,1,0,0,0,0,0,0
1683057413.742690736,366,1683057413.742690736,-0.00578575,-0.00408657,0.00402661,5.2965e-05,3.49929e-05,0.000135409,1,0,0,0,0,0,0
1683057413.833160370,367,1683057413.833160370,-0.00835456,-0.00453147,0.00479463,-8.43906e-05,-9.38648e-05,0.000315056,1,0,0,0,0,0,0
1683057413.844949982,368,1683057413.844949982,-0.00912502,-0.00400234,0.00534595,-2.49257e-05,-8.56239e-05,0.000172795,1,0,0,0,0,0,0
1683057413.936162724,369,1683057413.936162724,-0.00668807,-0.00470854,0.00549147,-8.01792e-05,2.13564e-06,0.000358701,1,0,0,0,0,0,0
1683057413.947992083,370,1683057413.947992083,-0.00711283,-0.00407893,0.00575497,1.57174e-05,2.51577e-05,0.000245345,1,0,0,0,0,0,0
1683057414.010586991,371,1683057414.010586991,-0.00521987,-0.0034119,-0.000740932,-6.19979e-05,-0.000118862,0.000200486,1,0,0,0,0,0,0
1683057414.035808249,372,1683057414.035808249,-0.00459812,-0.00323433,-0.00399699,0.000138344,-8.64137e-05,1.94418e-05,1,0,0,0,0,0,0
1683057414.113351459,373,1683057414.113351459,-0.00544818,-0.00208998,-0.00157995,-9.93095e-05,-0.000103919,0.000308623,1,0,0,0,0,0,0
1683057414.136700881,374,1683057414.136700881,-0.00541066,-0.00198001,-0.00225643,0.000142862,4.08215e-06,7.55151e-05,1,0,0,0,0,0,0
1683057414.213153507,375,1683057414.213153507,-0.00731861,-0.00266181,-0.0022399,-6.59912e-05,-0.000171258,0.000284746,1,0,0,0,0,0,0
1683057414.236857605,376,1683057414.236857605,-0.00761693,-0.00323424,-0.00231616,0.000136956,-0.000144976,7.76537e-05,1,0,0,0,0,0,0
1683057414.312200510,377,1683057414.312200510,-0.00839784,-0.0033828,-0.00163995,-7.88599e-06,-9.0759e-05,0.000292384,1,0,0,0,0,0,0
1683057414.335648244,378,1683057414.335648244,-0.00891181,-0.00361861,-0.00144009,0.000233288,-2.99428e-05,9.94628e-05,1,0,0,0,0,0,0
1683057414.422504722,379,1683057414.422504722,-0.011166,-0.00332772,0.000652844,-0.00010812,-0.000137162,0.000352118,1,0,0,0,0,0,0
1683057414.436221392,380,1683057414.436221392,-0.011609,-0.003263,0.00209518,9.21649e-05,-0.000133722,0.000161455,1,0,0,0,0,0,0
1683057414.521272545,381,1683057414.521272545,-0.0130639,-0.00507247,0.00126731,-8.16655e-05,-0.000131577,0.000326656,1,0,0,0,0,0,0
1683057414.536838333,382,1683057414.536838333,-0.0139548,-0.00529883,0.00136355,0.000101365,-2.82714e-05,0.000136241,1,0,0,0,0,0,0
1683057414.622959888,383,1683057414.622959888,-0.0139366,-0.0022233,0.000685152,-9.29822e-05,-0.000114313,0.000397251,1,0,0,0,0,0,0
1683057414.636129900,384,1683057414.636129900,-0.0139837,-0.00144798,0.00105891,5.30921e-05,-8.16399e-05,0.000199436,1,0,0,0,0,0,0
1683057414.732151987,385,1683057414.732151987,-0.011779,-0.00345152,0.00342493,-0.000133945,-9.16706e-05,0.000402337,1,0,0,0,0,0,0
1683057414.743386571,386,1683057414.743386571,-0.0116497,-0.00349344,0.00424226,2.00561e-05,-3.40323e-05,0.000233623,1,0,0,0,0,0,0
1683057414.833799910,387,1683057414.833799910,-0.0105541,-0.00299826,0.0032468,-8.18134e-05,-6.25716e-05,0.000371319,1,0,0,0,0,0,0
1683057414.845257417,388,1683057414.845257417,-0.0105957,-0.0026862,0.00367783,1.93837e-05,-4.28377e-05,0.000220078,1,0,0,0,0,0,0
1683057414.932428097,389,1683057414.932428097,-0.0112514,-0.00420135,0.00270766,-6.19172e-05,-9.0277e-05,0.000402996,1,0,0,0,0,0,0
1683057414.943404243,390,1683057414.943404243,-0.011424,-0.00384817,0.00283819,3.2664e-05,-1.74267e-05,0.000269718,1,0,0,0,0,0,0
1683057415.042895871,391,1683057415.042895871,-0.0076722,-0.00558924,0.00411373,-0.000125941,-8.33601e-05,0.000364621,1,0,0,0,0,0,0
1683057415.054795653,392,1683057415.054795653,-0.00757612,-0.00582034,0.00445019,-4.33105e-05,-6.38898e-05,0.000255941,1,0,0,0,0,0,0
1683057415.113991935,393,1683057415.113991935,-0.00937774,-0.00398814,-0.00113353,-1.58558e-05,-0.000107002,0.000268469,1,0,0,0,0,0,0
1683057415.138763049,394,1683057415.138763049,-0.0091849,-0.00302071,-0.00393682,0.000268984,-1.18301e-05,3.94509e-05,1,0,0,0,0,0,0
1683057415.214879825,395,1683057415.214879825,-0.0105567,-0.00161211,-0.00248063,-0.000108366,-0.000133031,0.00028195,1,0,0,0,0,0,0
1683057415.236767067,396,1683057415.236767067,-0.0104383,-0.00124017,-0.00324112,9.60608e-05,-0.000128304,5.84665e-05,1,0,0,0,0,0,0
1683057415.314314543,397,1683057415.314314543,-0.013287,-0.00243788,-0.00183254,-9.9793e-05,-0.00015063,0.000284147,1,0,0,0,0,0,0
1683057415.339799256,398,1683057415.339799256,-0.0141979,-0.00274758,-0.00161236,0.000147839,-9.55878e-06,7.30181e-05,1,0,0,0,0,0,0
1683057415.411632260,399,1683057415.411632260,-0.0125269,-0.00245802,-0.00239046,-7.8267e-05,-0.000179082,0.000370611,1,0,0,0,0,0,0
1683057415.436391649,400,1683057415.436391649,-0.012208,-0.00304708,-0.00237779,8.44424e-05,-0.000152828,0.000159341,1,0,0,0,0,0,0
1683057415.520771433,401,1683057415.520771433,-0.0102261,-0.00373043,0.000489112,-0.000136895,-0.000133551,0.000351035,1,0,0,0,0,0,0
1683057415.555588170,402,1683057415.555588170,-0.00970209,-0.00312183,0.00252585,7.6735e-05,-5.78325e-05,0.000166223,1,0,0,0,0,0,0
1683057415.718398386,403,1683057415.718398386,-0.0099786,-0.00455218,0.00191718,-8.37914e-05,-0.00010338,0.000374888,1,0,0,0,0,0,0
1683057415.738835651,404,1683057415.738835651,-0.00954185,-0.00493948,0.00270317,0.00010276,-0.000139477,0.000186101,1,0,0,0,0,0,0
1683057415.825059215,405,1683057415.825059215,-0.00895464,-0.0037749,0.000972334,-7.066e-05,-0.00012303,0.000371095,1,0,0,0,0,0,0
1683057415.853959731,406,1683057415.853959731,-0.0085212,-0.00360177,0.000911425,0.000149256,-4.5709e-06,0.000164221,1,0,0,0,0,0,0
1683057415.995299138,407,1683057415.995299138,-0.0089669,-0.00332595,0.00266797,-0.000149493,-0.000114879,0.000366604,1,0,0,0,0,0,0
1683057416.011937950,408,1683057416.011937950,-0.00935547,-0.00257526,0.0034336,-2.53852e-05,-6.63331e-05,0.00019576,1,0,0,0,0,0,0
1683057416.084495795,409,1683057416.084495795,-0.00918485,-0.00519768,0.00421789,-0.000131247,-8.40579e-05,0.000380837,1,0,0,0,0,0,0
1683057416.099738366,410,1683057416.099738366,-0.00916887,-0.00581107,0.00528356,-1.01806e-05,5.75108e-07,0.000232019,1,0,0,0,0,0,0
1683057416.114684722,411,1683057416.114684722,-0.00935847,-0.0053298,0.00378619,-0.000101335,-8.98907e-05,0.000358282,1,0,0,0,0,0,0
1683057416.127165388,412,1683057416.127165388,-0.00990766,-0.00469415,0.00387625,-9.34528e-06,-0.000131304,0.000218236,1,0,0,0,0,0,0
1683057416.148181804,413,1683057416.148181804,-0.0089302,-0.00471356,0.00455428,-8.80468e-05,2.01362e-06,0.000363177,1,0,0,0,0,0,0
1683057416.161139160,414,1683057416.161139160,-0.00953424,-0.00356491,0.0049389,-1.63508e-05,7.95375e-05,0.000230254,1,0,0,0,0,0,0
1683057416.201633386,415,1683057416.201633386,-0.00999997,-0.00271054,0.000212355,-5.34031e-05,-0.000140081,0.000283592,1,0,0,0,0,0,0
1683057416.240004073,416,1683057416.240004073,-0.00968861,-0.00176567,-0.00235586,0.000214555,-0.000140745,4.36908e-05,1,0,0,0,0,0,0
1683057416.314837053,417,1683057416.314837053,-0.00971441,-0.00250135,-0.00198866,-0.000118822,-0.000152067,0.000246577,1,0,0,0,0,0,0
1683057416.339581112,418,1683057416.339581112,-0.00929834,-0.00306128,-0.00289642,8.93291e-05,-8.92532e-05,4.3835e-05,1,0,0,0,0,0,0
1683057416.414676995,419,1683057416.414676995,-0.00801101,-0.00161621,-0.00241111,-8.52292e-05,-0.000132859,0.000259613,1,0,0,0,0,0,0
1683057416.443550123,420,1683057416.443550123,-0.00734072,-0.00178363,-0.00243892,0.000185082,-5.6694e-05,5.42518e-05,1,0,0,0,0,0,0
1683057416.512483197,421,1683057416.512483197,-0.00905929,-0.000836649,-0.00265284,-7.00155e-05,-0.000145913,0.000276985,1,0,0,0,0,0,0
1683057416.538719497,422,1683057416.538719497,-0.00922005,-0.000896576,-0.0025177,0.000138838,-0.000169866,5.31764e-05,1,0,0,0,0,0,0
1683057416.622585928,423,1683057416.622585928,-0.00856129,-0.00233087,-0.000525541,-0.000140917,-0.000139841,0.000348822,1,0,0,0,0,0,0
1683057416.648416747,424,1683057416.648416747,-0.00823226,-0.00309652,0.000875967,0.000110576,-4.11889e-05,0.000120147,1,0,0,0,0,0,0
1683057416.730357703,425,1683057416.730357703,-0.0064728,-0.00239999,0.000878803,-0.000132106,-0.000118526,0.000306149,1,0,0,0,0,0,0
1683057416.749911043,426,1683057416.749911043,-0.00662882,-0.00220172,0.00121649,4.78878e-05,-0.000126382,0.000116111,1,0,0,0,0,0,0
1683057416.828610354,427,1683057416.828610354,-0.00478258,-0.000673932,-0.000457638,-0.000128095,-0.000118178,0.000289765,1,0,0,0,0,0,0
1683057416.839931102,428,1683057416.839931102,-0.00383451,-0.00063543,-0.000771268,7.28098e-05,-1.84646e-05,8.21241e-05,1,0,0,0,0,0,0
1683057416.934918988,429,1683057416.934918988,-0.00379073,-0.00278634,0.00267826,-0.000162662,-8.02063e-05,0.000302859,1,0,0,0,0,0,0
1683057416.967553138,430,1683057416.967553138,-0.00367022,-0.00343278,0.00386691,-7.44795e-05,-0.000126493,9.95007e-05,1,0,0,0,0,0,0
1683057417.057174378,431,1683057417.057174378,-0.00722434,-0.00288338,0.00229825,-9.21664e-05,-6.04897e-05,0.00028346,1,0,0,0,0,0,0
1683057417.084719272,432,1683057417.084719272,-0.00773371,-0.00285536,0.0029453,8.84547e-05,6.45654e-05,0.000113056,1,0,0,0,0,0,0
1683057417.137216802,433,1683057417.137216802,-0.00870111,-0.00264447,0.00430397,-0.000123532,-0.000110219,0.000295778,1,0,0,0,0,0,0
1683057417.148947357,434,1683057417.148947357,-0.00930525,-0.00257108,0.00455462,-5.37569e-05,-6.82671e-05,0.000194155,1,0,0,0,0,0,0
1683057417.267986912,435,1683057417.267986912,-0.0105656,-0.00338365,0.00253626,-8.04337e-05,-4.60221e-05,0.000269191,1,0,0,0,0,0,0
1683057417.279958691,436,1683057417.279958691,-0.0112492,-0.00382476,0.00254781,1.68847e-05,1.05928e-06,0.000159241,1,0,0,0,0,0,0
1683057417.354584092,437,1683057417.354584092,-0.00765259,-0.00179043,-0.00175905,-0.000109794,-0.000178135,0.000259805,1,0,0,0,0,0,0
1683057417.366473346,438,1683057417.366473346,-0.00694394,-0.000936115,-0.00454832,0.000132385,-0.000148797,6.91083e-05,1,0,0,0,0,0,0
1683057417.444370682,439,1683057417.444370682,-0.00531568,-0.000877301,-0.00111649,-0.000129178,-9.29967e-05,0.000235366,1,0,0,0,0,0,0
1683057417.456387214,440,1683057417.456387214,-0.00373787,-0.000999456,-0.000811479,0.000150189,3.22269e-05,-2.11604e-05,1,0,0,0,0,0,0
1683057417.513416503,441,1683057417.513416503,-0.0069743,-0.00145128,-0.00113088,-0.000115559,-0.000130223,0.000212627,1,0,0,0,0,0,0
1683057417.536154678,442,1683057417.536154678,-0.00736686,-0.00151989,-0.000306199,0.000101757,-3.59554e-05,1.08411e-05,1,0,0,0,0,0,0
1683057417.618353694,443,1683057417.618353694,-0.00629757,-0.00247426,-0.000915271,-8.07787e-05,-7.35757e-05,0.000270019,1,0,0,0,0,0,0
1683057417.637428958,444,1683057417.637428958,-0.00676619,-0.00331525,5.65033e-05,0.000147742,-1.83147e-05,8.5668e-05,1,0,0,0,0,0,0
