%time,field.header.seq,field.header.stamp,field.pose.position.x,field.pose.position.y,field.pose.position.z,field.pose.orientation.x,field.pose.orientation.y,field.pose.orientation.z,field.pose.orientation.w,field.twist.twist.linear.x,field.twist.twist.linear.y,field.twist.twist.linear.z,field.twist.twist.angular.x,field.twist.twist.angular.y,field.twist.twist.angular.z
1609045333348801840,0,1609045333348801840,-1.11061e-05,0.000601381,0.00052237,-0.000182506,-0.000123022,0.000174295,1,0,0,0,0,0,0
1609045333451408127,1,1609045333451408127,0.000388659,0.00052544,0.00133632,-0.000106595,-0.000206249,0.000142599,1,0,0,0,0,0,0
1609045333554259442,2,1609045333554259442,0.00100877,0.000748015,0.00108836,-7.90717e-05,-0.000119543,0.000101123,1,0,0,0,0,0,0
1609045333657127079,3,1609045333657127079,0.000557392,0.000378092,0.00217241,-0.000129585,-0.000199345,0.000109271,1,0,0,0,0,0,0
1609045333760306807,4,1609045333760306807,0.0018829,0.00165555,0.00193688,-9.21858e-05,-0.000123851,2.88746e-05,1,0,0,0,0,0,0
1609045333863747823,5,1609045333863747823,0.00200669,-0.000498098,0.00240866,-3.33145e-05,-8.26308e-05,3.09191e-05,1,0,0,0,0,0,0
1609045333934010280,6,1609045333934010280,0.00057296,-0.00158527,0.00291267,-1.48808e-05,-4.81091e-05,2.32625e-05,1,0,0,0,0,0,0
1609045334035312750,7,1609045334035312750,0.00209596,0.000752927,0.00103907,-2.63493e-05,-8.34168e-05,-4.41867e-05,1,0,0,0,0,0,0
1609045334138331775,8,1609045334138331775,0.00144335,0.0024779,-0.000188606,-4.35425e-05,-0.000137639,-3.03218e-06,1,0,0,0,0,0,0
1609045334241468648,9,1609045334241468648,0.00284038,0.00156877,-0.00139058,-1.99949e-05,-9.9896e-05,-2.31076e-05,1,0,0,0,0,0,0
1609045334344986375,10,1609045334344986375,0.00480142,0.00178748,0.00193592,-7.30268e-05,-8.59769e-05,5.4106e-05,1,0,0,0,0,0,0
1609045334448817033,11,1609045334448817033,0.0032193,0.000235063,0.00183722,-7.44763e-05,-6.52156e-05,3.51769e-05,1,0,0,0,0,0,0
1609045334550580743,12,1609045334550580743,0.00238496,0.000232693,0.00138789,-0.000102831,-0.000109655,6.35773e-05,1,0,0,0,0,0,0
1609045334654011082,13,1609045334654011082,0.00311334,0.00217237,0.00272602,-2.77914e-05,-5.82525e-05,4.53529e-05,1,0,0,0,0,0,0
1609045334756903906,14,1609045334756903906,0.00205066,0.00189575,0.00444292,-4.8226e-05,-1.74943e-05,4.44843e-05,1,0,0,0,0,0,0
1609045334860278746,15,1609045334860278746,0.0049822,0.000134541,0.00355167,-7.11937e-05,-8.81761e-06,8.41431e-05,1,0,0,0,0,0,0
1609045334962992249,16,1609045334962992249,0.00554347,-0.000655323,0.00205678,-4.77575e-05,-6.98928e-05,6.07934e-05,1,0,0,0,0,0,0
1609045335036881994,17,1609045335036881994,0.00467741,-0.00151404,0.00361628,-2.45196e-05,-1.03221e-05,0.000143238,1,0,0,0,0,0,0
1609045335140093684,18,1609045335140093684,0.000630141,0.00166403,0.00061998,1.78827e-05,-0.000110041,4.64134e-05,1,0,0,0,0,0,0
1609045335243832046,19,1609045335243832046,0.00110981,0.000454713,0.00052714,-4.92461e-05,-0.000124401,6.90472e-05,1,0,0,0,0,0,0
1609045335346648794,20,1609045335346648794,-0.00147974,-0.00119443,0.00211467,-0.000113218,-9.64775e-05,0.000219521,1,0,0,0,0,0,0
1609045335450445708,21,1609045335450445708,-0.000593154,0.00134198,0.00161444,-0.000110996,-8.96587e-05,0.000139319,1,0,0,0,0,0,0
1609045335553537074,22,1609045335553537074,0.00166847,0.00236503,0.00213953,-8.29253e-05,-6.80307e-05,0.00016247,1,0,0,0,0,0,0
1609045335657122533,23,1609045335657122533,0.000868676,-0.000609059,0.0026966,-0.000101855,-1.02922e-05,0.000173121,1,0,0,0,0,0,0
1609045335758650635,24,1609045335758650635,0.00451303,-5.20444e-05,0.00361174,-6.7923e-05,-1.87047e-05,5.17066e-05,1,0,0,0,0,0,0
1609045335861435989,25,1609045335861435989,0.00443876,0.000402809,0.00359079,-6.87924e-05,-2.24463e-05,0.00013329,1,0,0,0,0,0,0
1609045335933333316,26,1609045335933333316,0.00202137,-0.000914003,0.00454855,-4.3286e-05,8.19977e-06,7.75607e-05,1,0,0,0,0,0,0
1609045336033698866,27,1609045336033698866,0.000336192,0.00103158,0.000937927,-6.94563e-05,-9.9466e-05,0.00018934,1,0,0,0,0,0,0
1609045336137942855,28,1609045336137942855,0.000187689,0.00173528,0.000158316,-8.30313e-05,-0.000131148,0.000207324,1,0,0,0,0,0,0
1609045336240868301,29,1609045336240868301,-0.00251212,0.00045776,0.000393773,-0.000110361,-8.99367e-05,0.000181785,1,0,0,0,0,0,0
1609045336342889199,30,1609045336342889199,-0.00165002,0.00151037,0.000601515,-7.42801e-05,-0.000111427,0.000243946,1,0,0,0,0,0,0
1609045336445773839,31,1609045336445773839,-0.000647222,-0.000871405,0.00253166,-9.7095e-05,-4.75129e-05,0.000166735,1,0,0,0,0,0,0
1609045336550275340,32,1609045336550275340,0.000762512,0.00263052,0.00223472,-0.000154184,-8.53696e-05,0.000168265,1,0,0,0,0,0,0
1609045336652543720,33,1609045336652543720,0.00375814,0.00187625,0.0036233,-8.73195e-05,-2.59214e-05,0.000170984,1,0,0,0,0,0,0
1609045336755619516,34,1609045336755619516,0.00167188,0.000593353,0.00428219,-0.000140067,-6.57342e-06,0.000110206,1,0,0,0,0,0,0
1609045336858505284,35,1609045336858505284,0.00192723,-0.000812759,0.00519054,-0.000107422,1.94335e-06,0.000117871,1,0,0,0,0,0,0
1609045336961292435,36,1609045336961292435,0.00110736,0.00138882,0.00462313,-0.000111848,-5.67809e-05,0.000165882,1,0,0,0,0,0,0
1609045337034416236,37,1609045337034416236,0.0004432,0.00141645,0.00463061,-7.39036e-05,3.0305e-05,0.000184463,1,0,0,0,0,0,0
1609045337133888768,38,1609045337133888768,-0.00257252,0.00248205,0.00149269,-8.90336e-05,-7.98439e-05,0.000139861,1,0,0,0,0,0,0
1609045337237661233,39,1609045337237661233,-0.00103875,0.00259209,0.000797682,-9.62116e-05,-9.33662e-05,0.000180289,1,0,0,0,0,0,0
1609045337339965043,40,1609045337339965043,0.000623428,0.00154713,0.00107047,-0.000117634,-0.000105384,0.000243429,1,0,0,0,0,0,0
1609045337442790301,41,1609045337442790301,0.00208882,0.00249072,0.00188124,-0.000131267,-0.000105776,0.000180103,1,0,0,0,0,0,0
1609045337550874594,42,1609045337550874594,-0.000742546,0.00208365,0.00346269,-0.000155221,-4.66981e-05,0.000265614,1,0,0,0,0,0,0
1609045337653517084,43,1609045337653517084,-0.00237413,0.00241041,0.00405306,-8.58125e-05,-3.26462e-05,0.000187803,1,0,0,0,0,0,0
1609045337758701331,44,1609045337758701331,-0.00182175,0.000771808,0.00519901,-0.000116719,-7.73245e-06,0.000221016,1,0,0,0,0,0,0
1609045337861159235,45,1609045337861159235,0.000362602,0.00162457,0.00549293,-0.000111684,-2.09937e-05,0.000168697,1,0,0,0,0,0,0
1609045337964150116,46,1609045337964150116,0.00602574,0.00420527,0.0052343,-0.000118052,4.98841e-05,0.000130705,1,0,0,0,0,0,0
1609045338033470182,47,1609045338033470182,0.00319153,0.000717995,0.00492677,-8.99528e-05,2.6663e-05,0.000113563,1,0,0,0,0,0,0
1609045338135342352,48,1609045338135342352,0.00013349,0.00126344,0.00196479,-0.000118527,-7.93405e-05,0.000165122,1,0,0,0,0,0,0
1609045338240126520,49,1609045338240126520,-0.000944826,0.00190859,0.00104761,-0.000165675,-0.000119799,0.000267244,1,0,0,0,0,0,0
1609045338341446165,50,1609045338341446165,-0.00265833,0.00329245,0.00137991,-0.000125732,-7.80375e-05,0.000123823,1,0,0,0,0,0,0
1609045338446226256,51,1609045338446226256,0.00292993,-0.00101447,0.00470128,-0.000147813,5.10003e-07,0.000171285,1,0,0,0,0,0,0
1609045338552102091,52,1609045338552102091,0.0037725,0.00274589,0.00504331,-0.000131014,-2.48757e-05,0.000125104,1,0,0,0,0,0,0
1609045338655307359,53,1609045338655307359,-4.39889e-06,0.00138879,0.00699768,-0.000146044,7.06897e-06,0.000231226,1,0,0,0,0,0,0
1609045338758886290,54,1609045338758886290,-0.0004383,-0.00066701,0.00696711,-0.000127781,2.87804e-05,0.000246887,1,0,0,0,0,0,0
1609045338861420384,55,1609045338861420384,0.0032925,7.097e-05,0.00619339,-0.000102641,7.42568e-05,0.000131094,1,0,0,0,0,0,0
1609045338933745887,56,1609045338933745887,0.000601054,0.000493175,0.0058179,-6.73961e-05,7.05689e-05,0.00022964,1,0,0,0,0,0,0
1609045339033212980,57,1609045339033212980,-0.00255417,0.000775098,0.00221835,-0.000131676,-7.40801e-05,0.000184731,1,0,0,0,0,0,0
1609045339136552111,58,1609045339136552111,-0.000758966,0.00318427,0.00242523,-0.000136223,-3.74331e-05,0.000224021,1,0,0,0,0,0,0
1609045339239628696,59,1609045339239628696,-0.00380883,0.00115536,0.003051,-0.000106133,-5.23143e-05,0.000241314,1,0,0,0,0,0,0
1609045339343123773,60,1609045339343123773,-0.00420732,0.00164059,0.00281792,-8.01127e-05,-5.10029e-05,0.000170745,1,0,0,0,0,0,0
1609045339445812238,61,1609045339445812238,-0.00347487,0.00146504,0.0039407,-0.000169882,-5.56554e-05,0.000220043,1,0,0,0,0,0,0
1609045339548739986,62,1609045339548739986,-0.00215341,0.000367765,0.00437339,-0.00012394,-2.28676e-05,0.00023138,1,0,0,0,0,0,0
1609045339651870893,63,1609045339651870893,-0.00166244,0.00132202,0.00500141,-0.00013074,-1.4775e-05,0.00019157,1,0,0,0,0,0,0
1609045339758233429,64,1609045339758233429,-0.00190053,0.00104221,0.00629584,-0.000147088,5.13505e-05,0.000232357,1,0,0,0,0,0,0
1609045339858290330,65,1609045339858290330,-0.00145455,-0.000124041,0.00559703,-0.000115552,1.65114e-05,0.000183892,1,0,0,0,0,0,0
1609045339961101515,66,1609045339961101515,0.00420652,0.00165131,0.00648394,-0.000127948,5.21681e-05,0.000105555,1,0,0,0,0,0,0
1609045340032992629,67,1609045340032992629,0.00133047,0.000407374,0.00689978,-4.24847e-05,8.07864e-05,0.000191199,1,0,0,0,0,0,0
1609045340133539304,68,1609045340133539304,0.00127182,0.00300616,0.00302985,-0.000104329,-3.82771e-05,9.35888e-05,1,0,0,0,0,0,0
1609045340237145459,69,1609045340237145459,0.00285484,0.00287242,0.00189641,-0.000148581,-4.02616e-05,7.03186e-05,1,0,0,0,0,0,0
1609045340339724833,70,1609045340339724833,-0.000244795,0.0016603,0.00271658,-0.000111703,-7.69047e-05,0.000159511,1,0,0,0,0,0,0
1609045340442773242,71,1609045340442773242,-0.00254293,0.00136238,0.00248156,-0.000102373,-9.35298e-05,0.000166789,1,0,0,0,0,0,0
1609045340546105457,72,1609045340546105457,0.000432509,0.00145929,0.0043114,-0.000135217,-7.47838e-06,0.000172178,1,0,0,0,0,0,0
1609045340649161791,73,1609045340649161791,0.000610202,0.0019825,0.00465293,-0.000133737,-4.18211e-05,0.000136674,1,0,0,0,0,0,0
1609045340754080604,74,1609045340754080604,0.00261341,0.00239481,0.00566553,-0.000133467,-2.53595e-05,0.000134836,1,0,0,0,0,0,0
1609045340855360345,75,1609045340855360345,0.00299447,0.00125564,0.00565836,-0.000146942,4.14356e-05,0.000168512,1,0,0,0,0,0,0
1609045340958522376,76,1609045340958522376,0.000971049,0.00061727,0.00700255,-0.000116883,7.70191e-05,0.000231151,1,0,0,0,0,0,0
1609045341062419645,77,1609045341062419645,0.00356878,0.00196987,0.00705488,-0.000116682,8.36011e-05,0.000165179,1,0,0,0,0,0,0
1609045341133512727,78,1609045341133512727,-0.001165,0.00139811,0.00710859,-6.94464e-05,2.84432e-05,0.000161492,1,0,0,0,0,0,0
1609045341233565143,79,1609045341233565143,-0.0037764,0.000734379,0.00312421,-0.000116169,-5.71122e-05,0.000173329,1,0,0,0,0,0,0
1609045341337487823,80,1609045341337487823,-0.00280601,-0.000233578,0.00243386,-0.000104007,-6.08619e-05,0.000125857,1,0,0,0,0,0,0
1609045341439461642,81,1609045341439461642,-0.00103085,0.0020236,0.0031608,-0.000126182,-3.52587e-05,0.000198874,1,0,0,0,0,0,0
1609045341543758735,82,1609045341543758735,0.00288644,0.00202138,0.0032226,-0.000132152,-8.46729e-05,0.000134289,1,0,0,0,0,0,0
1609045341645858638,83,1609045341645858638,0.00250308,0.00260632,0.00557716,-0.000138156,9.95097e-06,0.000190576,1,0,0,0,0,0,0
1609045341748830484,84,1609045341748830484,0.000936804,0.00296308,0.00661101,-7.79086e-05,2.64133e-05,0.000165139,1,0,0,0,0,0,0
1609045341852291177,85,1609045341852291177,0.00259841,0.00322755,0.00562308,-0.000109091,6.01634e-06,0.000109466,1,0,0,0,0,0,0
1609045341954957247,86,1609045341954957247,0.00423143,0.00108245,0.00584288,-0.000154565,5.50474e-05,0.000158084,1,0,0,0,0,0,0
1609045342058225368,87,1609045342058225368,0.00217342,8.11293e-05,0.00767336,-0.000118444,5.00727e-05,0.000246345,1,0,0,0,0,0,0
1609045342161844020,88,1609045342161844020,0.00177344,0.000261475,0.00864664,-9.61982e-05,5.68152e-05,0.000167656,1,0,0,0,0,0,0
1609045342232941724,89,1609045342232941724,0.00231132,0.0014288,0.00741049,-8.36341e-05,7.77899e-05,0.000138009,1,0,0,0,0,0,0
1609045342333453700,90,1609045342333453700,0.00207434,0.00311185,0.00329605,-9.18259e-05,-4.76422e-05,0.000128721,1,0,0,0,0,0,0
1609045342436954943,91,1609045342436954943,-0.00120454,0.0035227,0.00191834,-0.000143167,-5.37057e-05,0.000104975,1,0,0,0,0,0,0
1609045342540521104,92,1609045342540521104,-0.00420701,0.000411045,0.00278074,-0.000105747,-5.39382e-06,0.000238871,1,0,0,0,0,0,0
1609045342642505278,93,1609045342642505278,-0.0058383,0.00247681,0.00306059,-8.92518e-05,-5.66803e-05,0.000231957,1,0,0,0,0,0,0
1609045342745962502,94,1609045342745962502,-0.00481787,0.0029378,0.00627195,-0.000146745,-5.30795e-06,0.000226686,1,0,0,0,0,0,0
1609045342849233953,95,1609045342849233953,-0.00563408,0.00198456,0.0053985,-0.000118721,-4.63176e-05,0.00020055,1,0,0,0,0,0,0
1609045342954205413,96,1609045342954205413,-0.00344914,0.000243743,0.00615116,-9.82091e-05,2.11485e-05,0.000201705,1,0,0,0,0,0,0
1609045343033104257,97,1609045343033104257,-0.000213931,0.000457814,0.00707835,-0.000104678,4.90315e-05,0.000220337,1,0,0,0,0,0,0
1609045343133380431,98,1609045343133380431,-0.00124986,0.00208447,0.00276764,-9.52876e-05,-5.96978e-05,7.99522e-05,1,0,0,0,0,0,0
1609045343236848341,99,1609045343236848341,-0.00140198,0.00117645,0.00118233,-0.000140786,-7.73841e-05,0.00013943,1,0,0,0,0,0,0
1609045343339487350,100,1609045343339487350,-0.000161856,0.00202247,0.00222212,-8.268e-05,-3.89281e-05,9.00712e-05,1,0,0,0,0,0,0
1609045343443235894,101,1609045343443235894,-0.00211641,0.00187717,0.00180725,-0.000105591,-8.13537e-05,0.000192701,1,0,0,0,0,0,0
1609045343545778106,102,1609045343545778106,-0.00178401,0.00276028,0.00507675,-0.000153562,-1.37388e-05,9.67103e-05,1,0,0,0,0,0,0
1609045343648859831,103,1609045343648859831,-0.000392169,0.00190315,0.00553708,-0.000118222,-3.89379e-05,0.000181104,1,0,0,0,0,0,0
1609045343753595104,104,1609045343753595104,-0.000137264,0.00262139,0.00593322,-0.000107139,4.96011e-06,0.000135928,1,0,0,0,0,0,0
1609045343854918286,105,1609045343854918286,0.00212291,0.00225001,0.00720445,-0.000110454,7.77969e-05,7.51341e-05,1,0,0,0,0,0,0
1609045343962770516,106,1609045343962770516,-0.000561298,0.000217457,0.0078088,-0.000103497,6.86415e-05,0.000163401,1,0,0,0,0,0,0
1609045344032966014,107,1609045344032966014,-0.00237478,-0.000336756,0.00832831,-6.69452e-05,5.58193e-05,0.000172232,1,0,0,0,0,0,0
1609045344135595890,108,1609045344135595890,-0.00284554,0.000239428,0.0037328,-8.09563e-05,-5.03734e-05,0.000167397,1,0,0,0,0,0,0
1609045344237783511,109,1609045344237783511,0.000316132,0.00239801,0.00190243,-0.000100071,-2.06265e-05,0.000174569,1,0,0,0,0,0,0
1609045344340911982,110,1609045344340911982,-0.000319424,0.00246512,0.00336606,-0.000121323,-7.1555e-06,0.000152983,1,0,0,0,0,0,0
1609045344444251477,111,1609045344444251477,0.000922767,0.00235349,0.00345658,-8.63564e-05,-3.62404e-05,0.000128544,1,0,0,0,0,0,0
1609045344547606511,112,1609045344547606511,-0.00170051,0.000416142,0.00546688,-0.000148652,-1.6114e-05,0.000205653,1,0,0,0,0,0,0
1609045344650313554,113,1609045344650313554,-0.00301297,0.000856768,0.00503819,-0.000105047,-1.64568e-06,0.000192026,1,0,0,0,0,0,0
1609045344753411880,114,1609045344753411880,-0.00303103,0.00107701,0.00553514,-7.88946e-05,5.36059e-05,0.00021146,1,0,0,0,0,0,0
1609045344856489234,115,1609045344856489234,-0.00287905,-0.000248232,0.00751755,-0.000126287,3.86311e-05,0.00022448,1,0,0,0,0,0,0
1609045344959580776,116,1609045344959580776,-0.00197654,0.000288063,0.00800177,-0.000116263,2.33626e-05,0.000141653,1,0,0,0,0,0,0
1609045345064863021,117,1609045345064863021,-0.00281295,-0.000744868,0.00682507,-0.000102446,7.61628e-05,0.000198099,1,0,0,0,0,0,0
1609045345133845112,118,1609045345133845112,-0.000360492,-0.00116689,0.00537035,-0.000141704,5.04651e-05,0.000116048,1,0,0,0,0,0,0
1609045345235021969,119,1609045345235021969,-0.00226995,0.00202606,0.00324104,-0.000108451,-6.94912e-05,0.000134282,1,0,0,0,0,0,0
1609045345337998674,120,1609045345337998674,-0.00311356,0.00380562,0.00287038,-0.000111018,-4.28599e-05,7.5344e-05,1,0,0,0,0,0,0
1609045345441191372,121,1609045345441191372,-0.00272372,0.00242041,0.00213419,-9.81212e-05,-2.5958e-05,7.47883e-05,1,0,0,0,0,0,0
1609045345544755271,122,1609045345544755271,-0.00113145,0.0023496,0.00225912,-0.000116367,-3.32383e-05,0.000164969,1,0,0,0,0,0,0
1609045345647147953,123,1609045345647147953,-0.00213501,0.000648825,0.00502769,-0.000120916,-2.08002e-05,0.000178158,1,0,0,0,0,0,0
1609045345750727221,124,1609045345750727221,-0.00148697,0.00127173,0.00487744,-0.000101247,-3.93847e-05,0.00018479,1,0,0,0,0,0,0
1609045345853605062,125,1609045345853605062,-0.000927187,0.002569,0.00476206,-0.000110248,1.90271e-05,0.000139691,1,0,0,0,0,0,0
1609045345956710336,126,1609045345956710336,-0.00266482,0.00146569,0.00792766,-0.000137263,7.99555e-05,0.000144361,1,0,0,0,0,0,0
1609045346059508582,127,1609045346059508582,-0.00227676,0.00145434,0.00858541,-9.84484e-05,7.84076e-05,0.000127148,1,0,0,0,0,0,0
1609045346162642933,128,1609045346162642933,-0.00321612,0.000118501,0.00734871,-6.51731e-05,7.19121e-05,0.000164749,1,0,0,0,0,0,0
1609045346234099899,129,1609045346234099899,-0.00276672,0.000102186,0.00670948,-9.42073e-05,4.01387e-05,0.000149317,1,0,0,0,0,0,0
1609045346336392983,130,1609045346336392983,-0.00206926,0.000305911,0.00364587,-7.06725e-05,-1.72862e-05,7.46045e-05,1,0,0,0,0,0,0
1609045346439334769,131,1609045346439334769,-0.00153991,0.00158819,0.00101564,-0.000100276,-3.82583e-05,4.2541e-05,1,0,0,0,0,0,0
1609045346542101244,132,1609045346542101244,-0.00181641,0.00203411,0.00126271,-0.000132822,-4.86274e-05,0.00013393,1,0,0,0,0,0,0
1609045346644128131,133,1609045346644128131,-0.00166223,0.0010502,0.00442185,-0.000169279,-2.88069e-05,9.92468e-05,1,0,0,0,0,0,0
1609045346747209980,134,1609045346747209980,-0.00359141,0.00112612,0.00463645,-0.000129262,-1.73698e-05,0.000159854,1,0,0,0,0,0,0
1609045346850269992,135,1609045346850269992,-0.00221607,0.00243374,0.00506618,-0.000111344,1.57574e-05,0.000107709,1,0,0,0,0,0,0
1609045346956470099,136,1609045346956470099,-0.00258535,0.00137142,0.00558833,-0.000128323,2.52884e-07,0.000229827,1,0,0,0,0,0,0
1609045347061722613,137,1609045347061722613,-0.00290791,0.00122544,0.00561893,-0.000188796,2.0603e-05,0.000190335,1,0,0,0,0,0,0
1609045347133174611,138,1609045347133174611,-0.00288949,0.00248928,0.00670655,-0.000136892,5.29667e-05,0.000102357,1,0,0,0,0,0,0
1609045347233131213,139,1609045347233131213,-0.00264823,0.0027704,0.0035929,-8.4314e-05,-7.21182e-06,5.96524e-06,1,0,0,0,0,0,0
1609045347336453616,140,1609045347336453616,0.000115933,0.0043128,0.00151613,-0.000131462,-3.17605e-05,2.76888e-05,1,0,0,0,0,0,0
1609045347443693918,141,1609045347443693918,0.00210014,0.00496642,0.00113774,-0.000135283,-8.39608e-05,1.89254e-05,1,0,0,0,0,0,0
1609045347545498599,142,1609045347545498599,-0.00144811,0.00236238,0.00515959,-0.000153147,4.8599e-06,0.000144464,1,0,0,0,0,0,0
1609045347648868296,143,1609045347648868296,-0.00222951,0.00244179,0.00629038,-0.000101582,3.88752e-05,0.000149138,1,0,0,0,0,0,0
1609045347752139386,144,1609045347752139386,-0.00438335,0.00097388,0.00421174,-0.000121538,-2.62485e-05,0.000192092,1,0,0,0,0,0,0
1609045347856669716,145,1609045347856669716,-0.00470887,0.00126618,0.00325742,-0.000147768,-5.94647e-05,0.00011605,1,0,0,0,0,0,0
1609045347957723281,146,1609045347957723281,-0.00374887,0.00226107,0.00613602,-0.000165742,2.32853e-05,0.000125919,1,0,0,0,0,0,0
1609045348061068369,147,1609045348061068369,-0.00410024,0.00266173,0.00782471,-0.00011164,8.82784e-05,0.00010822,1,0,0,0,0,0,0
1609045348133418607,148,1609045348133418607,-0.00233059,0.00173945,0.00724903,-0.000109737,7.13448e-05,9.13107e-05,1,0,0,0,0,0,0
1609045348232813749,149,1609045348232813749,-0.00244894,0.0036137,0.00252411,-8.30578e-05,-1.90782e-05,-6.99851e-06,1,0,0,0,0,0,0
1609045348336083941,150,1609045348336083941,-0.00145076,0.00327451,0.000957949,-0.000149474,-6.39224e-05,0.000111758,1,0,0,0,0,0,0
1609045348439252345,151,1609045348439252345,-0.00414336,0.00205793,0.000460771,-9.22289e-05,-7.6557e-05,7.78878e-05,1,0,0,0,0,0,0
1609045348542086435,152,1609045348542086435,-0.00432038,0.00296925,0.00095437,-0.000112657,-6.31667e-05,9.89836e-05,1,0,0,0,0,0,0
1609045348645901599,153,1609045348645901599,-0.00340722,0.0043688,0.00212976,-0.00014901,-8.77855e-05,7.21664e-05,1,0,0,0,0,0,0
1609045348748370624,154,1609045348748370624,-0.00336877,0.00242539,0.00434635,-0.000121574,-2.22174e-05,0.000123197,1,0,0,0,0,0,0
1609045348851533809,155,1609045348851533809,-0.00166681,0.00174444,0.00578277,-9.28978e-05,3.1281e-05,0.000172949,1,0,0,0,0,0,0
1609045348954504972,156,1609045348954504972,-0.00407309,0.00267292,0.00354887,-9.01407e-05,-3.06736e-05,0.000136435,1,0,0,0,0,0,0
1609045349057685126,157,1609045349057685126,-0.00246591,0.00210213,0.00531575,-0.000130906,2.5616e-05,0.000143246,1,0,0,0,0,0,0
1609045349160915264,158,1609045349160915264,-0.00351864,0.00104827,0.00729376,-0.000131451,1.55906e-05,0.000196459,1,0,0,0,0,0,0
1609045349233337181,159,1609045349233337181,-0.00307756,-0.000158214,0.00735014,-0.000104316,5.338e-05,0.000122496,1,0,0,0,0,0,0
1609045349332709694,160,1609045349332709694,-0.00104502,0.00115773,0.00228952,-9.49744e-05,-6.2523e-05,9.4664e-05,1,0,0,0,0,0,0
1609045349435904172,161,1609045349435904172,-0.00104144,0.000599993,0.00104771,-0.000131895,-2.56557e-06,0.000123219,1,0,0,0,0,0,0
1609045349538886330,162,1609045349538886330,-0.00160516,0.00055814,-0.000283655,-7.9346e-05,-9.63193e-05,0.000144933,1,0,0,0,0,0,0
1609045349646875283,163,1609045349646875283,0.000655624,0.00143843,0.000784023,-8.40768e-05,6.36123e-07,5.78718e-05,1,0,0,0,0,0,0
1609045349749678574,164,1609045349749678574,0.00318561,0.00199143,0.00306838,-0.000104845,-3.10134e-05,6.63201e-05,1,0,0,0,0,0,0
1609045349859791316,165,1609045349859791316,0.000870306,-0.000166073,0.00268189,-0.000107583,-4.28804e-05,7.70215e-05,1,0,0,0,0,0,0
1609045349934590373,166,1609045349934590373,4.03305e-05,0.000593631,0.00574315,-0.000136121,-1.32553e-05,0.00010734,1,0,0,0,0,0,0
1609045350035774272,167,1609045350035774272,-0.00210742,0.000353281,0.00120371,-2.30289e-05,-2.72357e-05,9.65663e-05,1,0,0,0,0,0,0
1609045350139122796,168,1609045350139122796,0.000337779,0.00174082,-0.000321103,-0.00012211,-4.50075e-05,0.000118254,1,0,0,0,0,0,0
1609045350242171406,169,1609045350242171406,-0.00234377,0.0021027,-9.49087e-05,-0.00012687,-6.73434e-05,7.21505e-05,1,0,0,0,0,0,0
1609045350346286440,170,1609045350346286440,-0.00367436,0.00100721,0.00286233,-0.000147098,-6.14781e-05,0.00017998,1,0,0,0,0,0,0
1609045350448590109,171,1609045350448590109,0.000197755,-0.000672304,0.00343035,-8.97512e-05,-3.60446e-05,0.000119811,1,0,0,0,0,0,0
1609045350550964356,172,1609045350550964356,-6.5834e-05,0.000940247,0.00179784,-0.000129341,-3.72662e-05,8.88763e-05,1,0,0,0,0,0,0
1609045350654372284,173,1609045350654372284,-0.000687473,0.00105857,0.001904,-0.00012446,-5.95948e-05,0.000137845,1,0,0,0,0,0,0
1609045350757294824,174,1609045350757294824,-0.00461318,-0.00167556,0.00448875,-0.000155459,-3.53115e-05,0.000215131,1,0,0,0,0,0,0
1609045350832198524,175,1609045350832198524,-0.00119908,-0.00146348,0.006406,-8.85982e-05,4.05758e-05,0.000135596,1,0,0,0,0,0,0
1609045350935307209,176,1609045350935307209,-0.000334956,0.000318503,0.00159798,-8.22538e-05,-6.222e-05,8.82332e-05,1,0,0,0,0,0,0
1609045351038373711,177,1609045351038373711,-0.000507995,5.21019e-05,-0.000206305,-0.000144372,-6.89122e-05,4.91933e-05,1,0,0,0,0,0,0
1609045351142491982,178,1609045351142491982,-0.000464035,0.00159811,-9.88253e-05,-0.000135997,-5.37615e-05,8.03427e-05,1,0,0,0,0,0,0
1609045351246604335,179,1609045351246604335,-0.00182817,-0.000298842,0.00242981,-0.000162592,-4.99091e-05,0.000142612,1,0,0,0,0,0,0
1609045351352691730,180,1609045351352691730,-0.000676119,0.000167412,0.00270113,-0.000101272,-2.31415e-05,0.000194002,1,0,0,0,0,0,0
1609045351455860272,181,1609045351455860272,-0.00180172,-0.000125948,0.00402002,-0.0001536,-3.71316e-05,6.79481e-05,1,0,0,0,0,0,0
1609045351558960132,182,1609045351558960132,0.00133309,-0.000634983,0.00389145,-0.000111928,-9.81199e-06,0.000154486,1,0,0,0,0,0,0
1609045351662139371,183,1609045351662139371,-0.000632595,-0.00175311,0.00526096,-0.000121593,-3.66454e-05,0.000168453,1,0,0,0,0,0,0
1609045351733428057,184,1609045351733428057,0.000527502,-0.00194457,0.00600296,-9.82242e-05,5.85508e-05,0.000206095,1,0,0,0,0,0,0
1609045351833963332,185,1609045351833963332,0.00242347,-0.00129279,-0.000284611,-8.66089e-05,-6.98189e-05,3.92853e-05,1,0,0,0,0,0,0
1609045351937256915,186,1609045351937256915,0.00255305,0.000545871,-0.00118926,-0.000127557,-5.19261e-05,0.000156606,1,0,0,0,0,0,0
1609045352041355923,187,1609045352041355923,0.000870041,7.74194e-05,-0.00183967,-8.90714e-05,-0.000114776,0.000122437,1,0,0,0,0,0,0
1609045352143471456,188,1609045352143471456,0.000359281,-0.000422691,-0.00121468,-2.97734e-05,-3.18942e-05,9.87224e-05,1,0,0,0,0,0,0
1609045352247821602,189,1609045352247821602,-0.00190389,-0.000404023,0.00123772,-0.000127683,-8.15351e-05,0.000162968,1,0,0,0,0,0,0
1609045352351258818,190,1609045352351258818,-0.00425178,-0.00225622,0.00170073,-0.000104461,-7.98289e-05,0.000148159,1,0,0,0,0,0,0
1609045352453060502,191,1609045352453060502,-0.00448163,-6.67348e-05,0.00110523,-0.000113347,-5.65174e-05,0.000233198,1,0,0,0,0,0,0
1609045352555871972,192,1609045352555871972,-0.00275321,-0.000936747,0.0039919,-0.000147951,-3.79707e-05,0.000209844,1,0,0,0,0,0,0
1609045352658162422,193,1609045352658162422,-0.00185473,-0.000576229,0.00356522,-0.000107172,-1.59371e-05,0.000195788,1,0,0,0,0,0,0
1609045352761680599,194,1609045352761680599,-0.00204039,-0.0015763,0.00288778,-8.07162e-05,-4.81124e-05,0.00021392,1,0,0,0,0,0,0
1609045352831988320,195,1609045352831988320,0.00103212,-0.00340505,0.00423363,-0.000144637,-3.49561e-05,0.000188007,1,0,0,0,0,0,0
1609045352934341775,196,1609045352934341775,0.00034696,-0.00205545,-0.000614195,-1.25992e-05,-5.90571e-05,9.14115e-05,1,0,0,0,0,0,0
1609045353037779825,197,1609045353037779825,-0.000641236,0.000381394,-0.0019368,-0.000111909,-8.03167e-05,8.91998e-05,1,0,0,0,0,0,0
1609045353140322372,198,1609045353140322372,-0.00320988,-0.000412539,-0.00144106,-0.00010949,-9.84179e-05,0.000107029,1,0,0,0,0,0,0
1609045353243667422,199,1609045353243667422,-0.00141837,-0.000111219,-0.00200676,-9.41038e-05,-0.00012795,0.000192443,1,0,0,0,0,0,0
1609045353346687912,200,1609045353346687912,-0.000273296,-0.00185929,0.000825547,-0.00014118,-8.59428e-05,0.000187968,1,0,0,0,0,0,0
1609045353449727959,201,1609045353449727959,-0.000602753,-0.00285166,0.00216917,-9.402e-05,-6.23316e-05,0.000199701,1,0,0,0,0,0,0
1609045353553206008,202,1609045353553206008,0.000790353,-0.00175025,0.00130746,-8.48404e-05,-7.81923e-05,0.000201324,1,0,0,0,0,0,0
1609045353655855956,203,1609045353655855956,0.00106554,-0.00142165,0.00302987,-0.000153648,-7.37762e-05,0.000176905,1,0,0,0,0,0,0
1609045353758787959,204,1609045353758787959,0.000610414,-0.00325095,0.0044926,-0.000140313,-4.16569e-05,0.000199566,1,0,0,0,0,0,0
1609045353862223810,205,1609045353862223810,-3.44527e-05,-0.0036118,0.0043767,-9.99961e-05,-4.51164e-05,0.000196646,1,0,0,0,0,0,0
1609045353932296081,206,1609045353932296081,0.00127196,-0.00293805,0.00501747,-9.0421e-05,4.47994e-05,0.000194564,1,0,0,0,0,0,0
1609045354034006678,207,1609045354034006678,-0.00075396,-0.0012228,0.000564995,-6.00259e-05,-9.99228e-05,0.000126821,1,0,0,0,0,0,0
1609045354137630540,208,1609045354137630540,-0.00145369,-0.000270878,-0.00195846,-0.000120157,-0.000122397,9.11188e-05,1,0,0,0,0,0,0
1609045354240041135,209,1609045354240041135,0.000338436,-0.000293676,-0.00231853,-8.94171e-05,-0.000102227,0.000120161,1,0,0,0,0,0,0
1609045354345477887,210,1609045354345477887,-0.000974255,0.000805271,-0.00227433,-6.62334e-05,-0.000112386,0.000136256,1,0,0,0,0,0,0
1609045354446232118,211,1609045354446232118,-0.00111005,-0.00127984,-0.000173985,-0.000129099,-0.000107799,0.000215089,1,0,0,0,0,0,0
1609045354549063652,212,1609045354549063652,0.000530666,-0.00119775,0.00140874,-0.000113585,-8.97843e-05,0.000175305,1,0,0,0,0,0,0
1609045354652084637,213,1609045354652084637,0.00176857,-6.83312e-05,4.9284e-05,-0.000117212,-9.03864e-05,0.000180834,1,0,0,0,0,0,0
1609045354755288363,214,1609045354755288363,0.00296936,-0.00173012,0.00288791,-0.000153223,-5.77501e-05,0.00019811,1,0,0,0,0,0,0
1609045354862078669,215,1609045354862078669,0.000101555,-0.00164309,0.00231379,-8.60873e-05,-3.90874e-05,0.000160786,1,0,0,0,0,0,0
1609045354961490962,216,1609045354961490962,-0.001842,-0.00164888,0.00446692,-0.000106122,-9.01538e-05,0.000185802,1,0,0,0,0,0,0
1609045355032277603,217,1609045355032277603,-0.00328458,-0.00200706,0.00285314,-6.93148e-05,-2.61517e-05,0.000165576,1,0,0,0,0,0,0
1609045355133394787,218,1609045355133394787,-0.00125526,-0.00104189,-0.00128466,-9.00941e-05,-0.00015292,0.000160559,1,0,0,0,0,0,0
1609045355237012348,219,1609045355237012348,0.000813457,0.000352602,-0.00100508,-0.000111276,-7.96193e-05,0.000141213,1,0,0,0,0,0,0
1609045355339962808,220,1609045355339962808,-0.00192698,-0.000530458,-0.000993229,-0.000100339,-0.000118972,0.000140914,1,0,0,0,0,0,0
1609045355442709562,221,1609045355442709562,-0.000514272,-0.00168962,-0.00100234,-7.67842e-05,-6.54398e-05,0.000192198,1,0,0,0,0,0,0
1609045355545970181,222,1609045355545970181,-0.0020901,-0.000567951,-3.37715e-05,-0.000104615,-0.000104629,0.000213087,1,0,0,0,0,0,0
1609045355649053131,223,1609045355649053131,-0.00152878,-0.00286598,0.00114503,-0.000132029,-0.000107831,0.000212946,1,0,0,0,0,0,0
1609045355752284467,224,1609045355752284467,-0.000717108,-0.000993114,0.00232778,-9.03508e-05,-9.37938e-05,0.000155557,1,0,0,0,0,0,0
1609045355855209619,225,1609045355855209619,-0.000739715,-0.000612699,0.00104677,-8.57896e-05,-4.7105e-05,0.000241483,1,0,0,0,0,0,0
1609045355958298876,226,1609045355958298876,0.000284581,-0.00148551,0.00288329,-0.000118711,-5.98438e-05,0.000232393,1,0,0,0,0,0,0
1609045356061548102,227,1609045356061548102,0.000876522,-0.00201485,0.00403607,-5.91537e-05,-5.01333e-05,0.000229513,1,0,0,0,0,0,0
1609045356131896013,228,1609045356131896013,-0.000735144,-0.00295131,0.00377188,-7.07341e-05,-6.75149e-05,0.000200521,1,0,0,0,0,0,0
1609045356233950809,229,1609045356233950809,-0.00278977,3.58328e-05,-0.000929427,-0.000106338,-0.000193492,0.000169477,1,0,0,0,0,0,0
1609045356337673123,230,1609045356337673123,-0.00281883,-0.00316906,-0.00127928,-9.65631e-05,-0.000119127,0.000197721,1,0,0,0,0,0,0
1609045356439819787,231,1609045356439819787,-0.00361947,-0.00241246,0.000208652,-8.44714e-05,-7.07255e-05,0.000263044,1,0,0,0,0,0,0
1609045356542840458,232,1609045356542840458,-0.00319086,-0.00236569,-0.00187021,-8.78576e-05,-0.000160577,0.000197663,1,0,0,0,0,0,0
1609045356646822884,233,1609045356646822884,-0.000192602,-0.00186604,0.000255125,-0.00013789,-0.000107534,0.000167925,1,0,0,0,0,0,0
1609045356755345145,234,1609045356755345145,-0.000280963,-0.000419084,0.000257682,-6.26448e-05,-9.70822e-05,0.000161216,1,0,0,0,0,0,0
1609045356858776973,235,1609045356858776973,0.000303421,-0.00157463,0.00315152,-7.49023e-05,-4.95486e-05,0.000147075,1,0,0,0,0,0,0
1609045356962072761,236,1609045356962072761,-0.000449021,-0.00200293,0.00366635,-7.86012e-05,-8.5882e-05,0.000209399,1,0,0,0,0,0,0
1609045357031393476,237,1609045357031393476,-0.000202334,-0.000750144,0.00265909,-5.68637e-05,-3.86054e-05,0.000183645,1,0,0,0,0,0,0
1609045357135709932,238,1609045357135709932,0.000868564,-3.83592e-05,-0.000851497,-7.15733e-05,-0.000141111,0.000127158,1,0,0,0,0,0,0
1609045357238911050,239,1609045357238911050,0.00105989,0.000295971,-0.00034734,-0.000112012,-0.000111239,0.000110321,1,0,0,0,0,0,0
1609045357340174750,240,1609045357340174750,0.000201011,-0.000579084,-0.000439595,-6.74138e-05,-0.000129879,0.000106042,1,0,0,0,0,0,0
1609045357443092620,241,1609045357443092620,-0.00182569,-0.00170333,-0.000538613,-7.25365e-05,-0.000120867,0.000140365,1,0,0,0,0,0,0
1609045357546181604,242,1609045357546181604,-0.00225869,-0.000430936,0.00063883,-0.000102524,-0.00010409,0.00018956,1,0,0,0,0,0,0
1609045357649516562,243,1609045357649516562,0.000339048,-0.00195565,0.000367682,-7.51447e-05,-0.000136787,0.000193445,1,0,0,0,0,0,0
1609045357752487234,244,1609045357752487234,0.00105007,-0.00143033,0.00145147,-0.000110073,-0.000107128,0.000183262,1,0,0,0,0,0,0
1609045357855449276,245,1609045357855449276,0.00144192,-0.00239352,0.00383731,-9.67826e-05,-7.37329e-05,0.000255291,1,0,0,0,0,0,0
1609045357958674578,246,1609045357958674578,0.00524739,0.000657381,0.00428205,-6.86024e-05,-6.45744e-05,0.000162656,1,0,0,0,0,0,0
1609045358061515872,247,1609045358061515872,0.00339662,0.000365592,0.00465196,-1.48831e-05,-3.43405e-05,0.000232635,1,0,0,0,0,0,0
1609045358131766432,248,1609045358131766432,0.00136264,-0.000829438,0.00424526,-2.75027e-05,-9.51571e-05,0.000177367,1,0,0,0,0,0,0
1609045358233575711,249,1609045358233575711,0.00153732,0.000371436,0.00114152,-8.16319e-05,-0.000138004,0.000116003,1,0,0,0,0,0,0
1609045358336685476,250,1609045358336685476,0.0010733,0.00130037,-0.000845876,-4.89125e-05,-0.000101068,9.25033e-05,1,0,0,0,0,0,0
1609045358440450801,251,1609045358440450801,0.00183246,0.00108729,4.14166e-05,-4.61457e-05,-9.27182e-05,0.00011008,1,0,0,0,0,0,0
1609045358542962090,252,1609045358542962090,0.00149742,-0.00147109,0.000993104,-6.60462e-05,-9.81394e-05,0.000122181,1,0,0,0,0,0,0
1609045358646140982,253,1609045358646140982,-0.000413029,-0.00227894,0.000133477,-9.63106e-05,-0.000129619,0.00018354,1,0,0,0,0,0,0
1609045358749271656,254,1609045358749271656,0.000139818,-0.00220637,0.00146799,-7.05212e-05,-7.96655e-05,0.000210452,1,0,0,0,0,0,0
1609045358852361650,255,1609045358852361650,0.00149593,-0.00029306,0.00200571,-7.22208e-05,-5.78891e-05,9.64532e-05,1,0,0,0,0,0,0
1609045358955761405,256,1609045358955761405,-0.000144494,3.08397e-05,0.00215506,-8.92185e-05,-9.22044e-05,0.000223071,1,0,0,0,0,0,0
1609045359058362411,257,1609045359058362411,7.49639e-05,-0.00149037,0.00361077,-0.000103417,-7.69579e-05,0.000230727,1,0,0,0,0,0,0
1609045359160843410,258,1609045359160843410,-0.000207166,-0.00311402,0.00352743,-6.954e-05,-1.35551e-05,0.000183235,1,0,0,0,0,0,0
1609045359231533405,259,1609045359231533405,-0.000597047,-0.00148456,0.00398909,-4.37757e-05,-5.21152e-05,0.000162896,1,0,0,0,0,0,0
1609045359333363308,260,1609045359333363308,-0.00268771,-0.00125435,-0.000544953,-9.52214e-06,-0.000129303,0.000116959,1,0,0,0,0,0,0
1609045359436570157,261,1609045359436570157,-0.00246286,-0.00104677,-0.00126727,-7.75922e-05,-0.000151126,0.000147415,1,0,0,0,0,0,0
1609045359539655059,262,1609045359539655059,-0.0011257,6.81163e-05,-0.000794853,-4.46027e-05,-0.000105452,0.000141404,1,0,0,0,0,0,0
1609045359642843858,263,1609045359642843858,0.00291647,0.00120531,0.000329841,-6.1031e-05,-0.000100147,3.17216e-05,1,0,0,0,0,0,0
1609045359745853147,264,1609045359745853147,0.00228296,-0.000607476,0.00156074,-8.84328e-05,-0.000102531,0.000203317,1,0,0,0,0,0,0
1609045359849003418,265,1609045359849003418,0.000567967,0.000177485,0.000356457,-7.67699e-05,-0.000128355,0.000157575,1,0,0,0,0,0,0
1609045359952252140,266,1609045359952252140,0.0013232,0.00142529,0.00176019,-8.25224e-05,-5.05473e-05,0.000114008,1,0,0,0,0,0,0
1609045360055291793,267,1609045360055291793,8.26149e-06,-0.000346041,0.00291499,-3.38673e-05,-4.13238e-05,0.00010579,1,0,0,0,0,0,0
1609045360158235687,268,1609045360158235687,-0.00106262,-0.00182105,0.00345023,-5.94012e-05,-2.6762e-05,0.000180088,1,0,0,0,0,0,0
1609045360261337455,269,1609045360261337455,-0.00366743,-0.00313368,0.00257076,-6.96399e-05,-8.59741e-05,0.000200442,1,0,0,0,0,0,0
1609045360331643381,270,1609045360331643381,-0.00099174,-0.000470084,0.00356493,-6.09855e-05,-7.47638e-05,0.00024332,1,0,0,0,0,0,0
1609045360433461210,271,1609045360433461210,-0.00147929,0.00127877,0.000211353,-1.56909e-05,-8.51717e-05,9.9384e-05,1,0,0,0,0,0,0
1609045360536498368,272,1609045360536498368,-0.00157597,0.000351275,-0.000987468,-7.83679e-05,-9.45516e-05,0.000111892,1,0,0,0,0,0,0
1609045360639825522,273,1609045360639825522,-0.00217241,9.18044e-05,-0.00135659,-7.25246e-05,-0.000135539,8.84879e-05,1,0,0,0,0,0,0
1609045360742610443,274,1609045360742610443,-0.00209016,0.00147857,0.000429658,-6.11072e-05,-7.09199e-05,0.000141581,1,0,0,0,0,0,0
1609045360845783132,275,1609045360845783132,-0.00450118,0.000305917,0.000392667,-5.56256e-05,-5.93965e-05,0.000121803,1,0,0,0,0,0,0
1609045360948768697,276,1609045360948768697,-0.00570795,-0.000146127,0.00132769,-7.63973e-05,-7.64717e-05,0.000233151,1,0,0,0,0,0,0
1609045361051917961,277,1609045361051917961,-0.00509256,0.00105139,0.00120303,-8.57382e-05,-0.000117818,0.000169642,1,0,0,0,0,0,0
1609045361154649397,278,1609045361154649397,-0.00312067,0.00151049,0.00108592,-0.000107458,-0.000107048,9.0783e-05,1,0,0,0,0,0,0
1609045361257855997,279,1609045361257855997,-0.00119902,0.00153392,0.00384832,-7.5002e-05,-3.96083e-05,0.000204279,1,0,0,0,0,0,0
1609045361360918005,280,1609045361360918005,0.00014413,0.00205015,0.00437748,-6.53233e-05,-3.92642e-05,0.000123364,1,0,0,0,0,0,0
1609045361431264984,281,1609045361431264984,-0.000787876,5.66386e-05,0.00319767,-3.40054e-05,-5.70584e-05,7.82084e-05,1,0,0,0,0,0,0
1609045361533029100,282,1609045361533029100,-0.001032,0.00155945,-4.61677e-05,-2.2127e-05,-9.1155e-05,6.39393e-05,1,0,0,0,0,0,0
1609045361636012600,283,1609045361636012600,-0.00161205,0.00163492,0.000578553,-9.37011e-05,-2.91949e-05,3.30256e-05,1,0,0,0,0,0,0
1609045361739069057,284,1609045361739069057,-0.00360171,0.00153747,-0.00106548,-9.27369e-05,-0.000168394,6.12319e-05,1,0,0,0,0,0,0
1609045361842687221,285,1609045361842687221,-0.00196779,0.00251758,6.8306e-05,-8.85668e-05,-7.09952e-05,9.45071e-05,1,0,0,0,0,0,0
1609045361945674739,286,1609045361945674739,-0.00352668,0.00318235,0.000823232,-8.32013e-05,-7.33759e-05,0.000139601,1,0,0,0,0,0,0
1609045362048807830,287,1609045362048807830,-0.00405887,0.000956048,0.00165876,-0.00011102,-4.57761e-05,9.64744e-05,1,0,0,0,0,0,0
1609045362151858497,288,1609045362151858497,-0.00172603,0.00126382,0.00220718,-5.71344e-05,-3.23404e-05,0.000145728,1,0,0,0,0,0,0
1609045362255241532,289,1609045362255241532,-0.00102261,0.00169455,0.00107337,-8.31689e-05,-0.000114564,0.0001224,1,0,0,0,0,0,0
1609045362358287092,290,1609045362358287092,-0.000138428,0.000944873,0.00425008,-0.000115755,-5.20133e-05,2.92874e-05,1,0,0,0,0,0,0
1609045362461383926,291,1609045362461383926,-0.000640472,0.00101486,0.00338049,-4.98746e-05,-5.77032e-05,0.00015099,1,0,0,0,0,0,0
1609045362531601590,292,1609045362531601590,-0.00136211,0.00140589,0.00178432,-4.06924e-05,-1.39092e-05,8.10091e-05,1,0,0,0,0,0,0
1609045362633414294,293,1609045362633414294,-0.00167053,0.00206507,-8.13444e-05,-6.39188e-05,-7.84555e-05,6.6854e-05,1,0,0,0,0,0,0
1609045362736429576,294,1609045362736429576,-0.00091748,0.00102675,1.51765e-05,-8.55491e-05,-5.09163e-05,2.05841e-05,1,0,0,0,0,0,0
1609045362839648578,295,1609045362839648578,-0.000634385,0.0033458,-0.000508801,-5.39496e-05,-9.06777e-05,8.71496e-06,1,0,0,0,0,0,0
1609045362942562841,296,1609045362942562841,-0.00196461,0.00272705,-0.00146595,-6.46384e-05,-0.000134225,2.61265e-05,1,0,0,0,0,0,0
1609045363045731340,297,1609045363045731340,0.000108369,0.00429459,-0.00100194,-0.00011641,-0.000109119,4.4378e-05,1,0,0,0,0,0,0
1609045363148877600,298,1609045363148877600,-5.62506e-05,0.00310272,0.000813289,-9.83963e-05,-6.51094e-05,8.96103e-05,1,0,0,0,0,0,0
1609045363252388119,299,1609045363252388119,0.000249973,0.00224961,0.00174953,-7.90122e-05,-6.56701e-05,4.76188e-05,1,0,0,0,0,0,0
1609045363355829807,300,1609045363355829807,-0.000109553,0.00360246,0.00182769,-6.84278e-05,-2.38837e-05,0.000111374,1,0,0,0,0,0,0
1609045363457896675,301,1609045363457896675,-0.00118389,0.0023928,0.00297076,-6.59011e-05,-1.24371e-05,0.000102165,1,0,0,0,0,0,0
1609045363561176046,302,1609045363561176046,0.000892416,0.000960013,0.00209697,-8.95306e-05,-8.58525e-05,0.000149819,1,0,0,0,0,0,0
1609045363631530930,303,1609045363631530930,-5.31768e-06,0.00221098,0.00230517,-8.39858e-05,-2.64248e-05,3.4622e-05,1,0,0,0,0,0,0
1609045363733346105,304,1609045363733346105,0.000841405,0.00250147,0.000412756,-7.99084e-05,-8.69006e-05,3.2452e-05,1,0,0,0,0,0,0
1609045363836479125,305,1609045363836479125,0.00101465,0.00270339,-6.17821e-05,-8.73766e-05,-7.0291e-05,4.30072e-05,1,0,0,0,0,0,0
1609045363939492731,306,1609045363939492731,0.0013437,0.00322422,0.00136179,-0.000145193,-6.77426e-05,1.01963e-05,1,0,0,0,0,0,0
1609045364042618385,307,1609045364042618385,-0.0010383,0.00291676,0.000230468,-8.13798e-05,-0.00010092,7.0955e-05,1,0,0,0,0,0,0
1609045364145671697,308,1609045364145671697,-0.00195425,0.0035523,-0.00155131,-0.000106401,-0.000138307,0.000101334,1,0,0,0,0,0,0
1609045364248308379,309,1609045364248308379,-0.00130716,0.00255487,0.00179679,-0.000144912,-2.97064e-05,6.08775e-05,1,0,0,0,0,0,0
1609045364352055733,310,1609045364352055733,-0.000981076,0.00280906,0.0016775,-9.21194e-05,-5.62207e-05,2.96088e-05,1,0,0,0,0,0,0
1609045364455469109,311,1609045364455469109,-0.00124208,0.00301389,0.00205559,-0.000144747,-7.48831e-05,0.000126119,1,0,0,0,0,0,0
1609045364558759317,312,1609045364558759317,-0.000746853,0.00139598,0.0037412,-0.000117527,-1.74242e-05,0.000114833,1,0,0,0,0,0,0
1609045364661556811,313,1609045364661556811,-2.60309e-05,0.000373296,0.00378213,-5.9523e-05,-1.70375e-05,0.000108165,1,0,0,0,0,0,0
1609045364731485649,314,1609045364731485649,-0.000266612,0.00255733,0.0031374,-4.95828e-05,4.39755e-05,5.785e-05,1,0,0,0,0,0,0
1609045364833323228,315,1609045364833323228,-0.00116799,0.0021927,0.000305697,-0.000105121,-0.000106469,-4.38781e-07,1,0,0,0,0,0,0
1609045364936540105,316,1609045364936540105,0.000391723,0.00230041,-0.000301038,-8.15861e-05,-1.37653e-05,6.46125e-05,1,0,0,0,0,0,0
1609045365038935023,317,1609045365038935023,0.000542884,0.00179393,0.00139233,-0.000108066,-5.71566e-05,2.8041e-05,1,0,0,0,0,0,0
1609045365141975416,318,1609045365141975416,-0.000416147,0.00135135,0.00130663,-0.000106269,-7.6039e-05,1.80208e-05,1,0,0,0,0,0,0
1609045365245730326,319,1609045365245730326,-0.0013207,0.00270415,0.000564921,-0.00011717,-9.69183e-05,-8.79347e-07,1,0,0,0,0,0,0
1609045365348766370,320,1609045365348766370,-0.00192381,0.00144036,0.00173225,-0.000141338,-2.5579e-05,0.000116331,1,0,0,0,0,0,0
1609045365452180860,321,1609045365452180860,-0.00110728,0.00324261,0.00212009,-9.75732e-05,1.05932e-05,5.35165e-05,1,0,0,0,0,0,0
1609045365555227333,322,1609045365555227333,-0.00124328,0.00214102,0.00158146,-0.00017708,-8.6765e-05,0.000151088,1,0,0,0,0,0,0
1609045365658289450,323,1609045365658289450,0.000451804,0.000241761,0.00349272,-0.000154923,-2.56246e-05,0.000111251,1,0,0,0,0,0,0
1609045365761258466,324,1609045365761258466,0.00024852,0.000690627,0.00370323,-0.000108236,-3.3667e-05,6.68885e-05,1,0,0,0,0,0,0
1609045365831453296,325,1609045365831453296,0.00220662,0.00131136,0.00451675,-3.66511e-05,2.91936e-05,9.46242e-05,1,0,0,0,0,0,0
1609045365933325881,326,1609045365933325881,0.00147525,0.00312928,0.000942665,-8.38781e-05,-8.4108e-05,7.31014e-05,1,0,0,0,0,0,0
1609045366036532118,327,1609045366036532118,0.000793728,0.00369276,0.000511098,-0.000134869,-3.67545e-05,8.96063e-06,1,0,0,0,0,0,0
1609045366140005333,328,1609045366140005333,0.00133171,0.00435883,0.00148999,-0.000120516,-3.2111e-05,-4.25632e-06,1,0,0,0,0,0,0
1609045366242765271,329,1609045366242765271,0.0019637,0.00344477,0.00130054,-0.000111485,-2.82156e-05,-6.85414e-05,1,0,0,0,0,0,0
1609045366345786890,330,1609045366345786890,0.00119613,0.00325621,0.000893085,-0.00015529,-9.6655e-05,2.77535e-05,1,0,0,0,0,0,0
1609045366448918126,331,1609045366448918126,0.00133193,0.00411386,0.00185319,-0.000147201,-3.0099e-05,3.61739e-05,1,0,0,0,0,0,0
1609045366551988559,332,1609045366551988559,-0.000270593,0.00351241,0.00387835,-0.000155835,-1.91071e-05,0.000109417,1,0,0,0,0,0,0
1609045366655180291,333,1609045366655180291,0.000267619,0.00144042,0.00303468,-0.00010471,-9.46982e-06,0.000103815,1,0,0,0,0,0,0
1609045366758187461,334,1609045366758187461,0.00152631,0.00155394,0.00311358,-0.000130289,-2.5779e-05,0.000178038,1,0,0,0,0,0,0
1609045366861323911,335,1609045366861323911,0.00180809,0.00112294,0.00391024,-9.97965e-05,-1.66292e-05,8.14081e-05,1,0,0,0,0,0,0
1609045366931638399,336,1609045366931638399,0.00255338,0.00215945,0.00359149,-0.00011151,2.29464e-06,0.000143634,1,0,0,0,0,0,0
1609045367033211989,337,1609045367033211989,0.000854103,0.0033544,0.00132661,-6.61467e-05,-5.22998e-05,-4.52316e-06,1,0,0,0,0,0,0
1609045367136453237,338,1609045367136453237,0.000908571,0.0035114,0.000667081,-9.8057e-05,-7.29915e-05,2.51619e-05,1,0,0,0,0,0,0
1609045367239051652,339,1609045367239051652,0.000561349,0.00290404,0.00159961,-0.000144684,-8.73136e-05,4.4757e-05,1,0,0,0,0,0,0
1609045367342326356,340,1609045367342326356,0.000257909,0.00174117,0.00355437,-0.000116706,-2.47667e-06,5.01715e-05,1,0,0,0,0,0,0
1609045367445249321,341,1609045367445249321,0.000907947,0.0030572,0.00216529,-0.000106988,-3.01004e-05,0.000100526,1,0,0,0,0,0,0
1609045367548366040,342,1609045367548366040,0.00184965,0.00303447,0.00483638,-0.000167374,2.92411e-05,6.44989e-05,1,0,0,0,0,0,0
1609045367651268078,343,1609045367651268078,0.000698389,0.00316042,0.00549955,-0.000141373,8.39711e-06,7.81183e-05,1,0,0,0,0,0,0
1609045367754429549,344,1609045367754429549,-0.000666781,0.00336764,0.00548691,-0.000150198,1.14859e-05,0.000111754,1,0,0,0,0,0,0
1609045367857505083,345,1609045367857505083,-0.00285757,0.00202343,0.00427158,-0.000154162,-8.80224e-07,0.000127769,1,0,0,0,0,0,0
1609045367960665580,346,1609045367960665580,-0.000610712,0.00220347,0.00516283,-0.000127925,1.70426e-06,0.000182821,1,0,0,0,0,0,0
1609045368030850506,347,1609045368030850506,0.000470629,0.00155532,0.00580775,-9.0159e-05,6.69641e-05,0.000118808,1,0,0,0,0,0,0
1609045368132719552,348,1609045368132719552,0.000768912,0.00310545,0.00317215,-0.000108195,-2.11637e-05,1.90856e-05,1,0,0,0,0,0,0
1609045368236078558,349,1609045368236078558,0.00075873,0.00151067,0.000891088,-0.000104659,-8.8679e-05,0.0001155,1,0,0,0,0,0,0
1609045368338953723,350,1609045368338953723,0.00137616,0.00322806,0.0015994,-0.00017948,-6.63375e-05,5.51408e-05,1,0,0,0,0,0,0
1609045368442005887,351,1609045368442005887,0.0010216,0.00314373,0.00238376,-0.000104226,-6.08247e-05,4.19477e-05,1,0,0,0,0,0,0
1609045368545081652,352,1609045368545081652,0.00145532,0.00307862,0.00232831,-0.000108316,-4.17125e-05,0.000128382,1,0,0,0,0,0,0
1609045368648285711,353,1609045368648285711,0.00187747,0.00291057,0.0047739,-0.000176746,2.76942e-06,4.05962e-05,1,0,0,0,0,0,0
1609045368751024089,354,1609045368751024089,-0.0007981,-0.000301953,0.00397756,-0.000119467,1.63516e-05,0.000161831,1,0,0,0,0,0,0
1609045368854365980,355,1609045368854365980,-0.00156596,0.000768927,0.00298416,-0.000179567,-3.82451e-05,0.000146779,1,0,0,0,0,0,0
1609045368957562096,356,1609045368957562096,-0.00049669,0.000159115,0.00451247,-0.000130089,1.48326e-05,0.000131565,1,0,0,0,0,0,0
1609045369060560645,357,1609045369060560645,-0.000783352,0.000212005,0.00523017,-0.000146989,-1.48462e-05,9.79568e-05,1,0,0,0,0,0,0
1609045369130891195,358,1609045369130891195,-0.000314632,0.000776082,0.00548718,-8.06776e-05,2.73161e-05,0.000116804,1,0,0,0,0,0,0
1609045369232808423,359,1609045369232808423,-0.00109729,0.0030362,0.00151717,-5.77131e-05,-6.94384e-05,4.48769e-05,1,0,0,0,0,0,0
1609045369335831355,360,1609045369335831355,-0.00194391,0.00171092,-0.000397251,-9.99089e-05,-9.85012e-05,1.65977e-05,1,0,0,0,0,0,0
1609045369438898967,361,1609045369438898967,-0.00271278,0.00168227,0.00216958,-0.000139653,-2.37544e-05,0.000101661,1,0,0,0,0,0,0
1609045369541910640,362,1609045369541910640,-0.000992949,0.00126792,0.00288192,-0.000153234,-1.36333e-05,0.000126367,1,0,0,0,0,0,0
1609045369645150106,363,1609045369645150106,0.00102585,0.00179708,0.0026331,-0.000172176,-5.08563e-05,7.60604e-05,1,0,0,0,0,0,0
1609045369748201039,364,1609045369748201039,0.000346118,0.00137508,0.00326939,-0.000188037,-4.43971e-05,0.00013609,1,0,0,0,0,0,0
1609045369851355285,365,1609045369851355285,-0.000242443,0.000545763,0.00392575,-0.000190887,-1.93841e-05,0.000132353,1,0,0,0,0,0,0
1609045369954454999,366,1609045369954454999,0.000952817,-0.000221347,0.00315347,-0.000136508,1.74137e-05,9.07055e-05,1,0,0,0,0,0,0
1609045370057595374,367,1609045370057595374,0.00130485,-0.000595751,0.00457981,-0.000159552,4.41173e-06,0.000155676,1,0,0,0,0,0,0
1609045370160584494,368,1609045370160584494,0.00135956,0.0011285,0.00452373,-0.000135246,-1.48781e-05,9.26301e-05,1,0,0,0,0,0,0
1609045370230849152,369,1609045370230849152,-0.000225446,0.00080287,0.00376969,-0.000142296,6.11207e-06,0.000100816,1,0,0,0,0,0,0
1609045370333203698,370,1609045370333203698,-0.000653315,0.00155331,0.00028913,-5.65734e-05,-5.49485e-05,7.02303e-05,1,0,0,0,0,0,0
1609045370435946415,371,1609045370435946415,-0.00181019,0.000953816,0.00069381,-0.000177883,-8.07863e-05,8.68784e-05,1,0,0,0,0,0,0
1609045370538863297,372,1609045370538863297,-0.00137684,0.000727672,0.000432736,-0.000138088,-7.94327e-05,2.50534e-05,1,0,0,0,0,0,0
1609045370642008578,373,1609045370642008578,-0.000318497,0.000115709,0.000888739,-0.000123238,-5.57267e-05,2.17338e-05,1,0,0,0,0,0,0
1609045370744952522,374,1609045370744952522,-0.00118697,0.000528926,0.00126544,-9.61864e-05,5.87297e-06,5.13578e-05,1,0,0,0,0,0,0
1609045370848251589,375,1609045370848251589,-0.00134862,0.000237983,0.00393521,-0.000176248,1.91182e-05,0.000141713,1,0,0,0,0,0,0
1609045370951250560,376,1609045370951250560,-0.00125749,0.000265011,0.00293138,-0.000186425,-3.35583e-05,0.000158802,1,0,0,0,0,0,0
1609045371054955745,377,1609045371054955745,-0.00177216,-0.000126272,0.00221367,-0.000225298,-6.28259e-05,0.000151159,1,0,0,0,0,0,0
1609045371157604663,378,1609045371157604663,-0.00452414,-0.0026196,0.00160936,-0.000173239,-9.48087e-06,0.000241591,1,0,0,0,0,0,0
1609045371260588517,379,1609045371260588517,-0.00284811,0.000366304,0.00351522,-0.000139156,-2.49907e-06,0.000222693,1,0,0,0,0,0,0
1609045371330885593,380,1609045371330885593,-0.00210274,0.000325771,0.00318536,-0.000105359,-4.18347e-06,0.000184499,1,0,0,0,0,0,0
1609045371432804354,381,1609045371432804354,-0.00399259,0.000724421,-9.10065e-05,-0.000106852,-7.68449e-05,9.4049e-05,1,0,0,0,0,0,0
1609045371535912386,382,1609045371535912386,-0.00605578,9.39293e-05,-0.00100623,-0.000116206,-6.87403e-05,0.000114743,1,0,0,0,0,0,0
1609045371639040208,383,1609045371639040208,-0.00536991,-0.000451331,-0.000264191,-0.000163261,-6.86804e-05,7.36014e-05,1,0,0,0,0,0,0
1609045371742160368,384,1609045371742160368,-0.00367001,0.00088716,0.000106484,-0.000162329,-0.000104027,0.000153537,1,0,0,0,0,0,0
1609045371844905919,385,1609045371844905919,-0.00181572,0.00129828,0.00105115,-0.000184576,-8.25671e-06,0.000103542,1,0,0,0,0,0,0
1609045371948234312,386,1609045371948234312,-0.0016843,0.000239587,0.00212999,-0.000201968,-1.5126e-05,0.000181434,1,0,0,0,0,0,0
1609045372051243078,387,1609045372051243078,-0.00297695,0.000990326,0.00181082,-0.000182881,-3.3658e-05,0.000218053,1,0,0,0,0,0,0
1609045372154814228,388,1609045372154814228,-0.00305342,0.00104716,0.00259376,-0.000179798,-3.16777e-05,0.000168951,1,0,0,0,0,0,0
1609045372257599194,389,1609045372257599194,-0.004644,-0.0015508,0.00181795,-0.000141866,-6.85902e-05,0.000173422,1,0,0,0,0,0,0
1609045372360807574,390,1609045372360807574,-0.00358402,-0.00283842,0.00143683,-0.000186384,-6.44763e-05,0.00017301,1,0,0,0,0,0,0
1609045372431073610,391,1609045372431073610,-0.00270181,-0.00282474,0.00125902,-0.000153223,-4.9998e-05,0.000220833,1,0,0,0,0,0,0
1609045372532938154,392,1609045372532938154,-0.00308191,-0.00117988,-0.0010965,-0.000103451,-6.3058e-05,6.05556e-05,1,0,0,0,0,0,0
1609045372635845623,393,1609045372635845623,-0.00438082,-0.000343163,-0.00169099,-0.000118472,-2.51895e-05,8.06441e-05,1,0,0,0,0,0,0
1609045372738979615,394,1609045372738979615,-0.00533868,0.000602682,-0.000574941,-0.000184461,-7.19915e-05,8.65558e-05,1,0,0,0,0,0,0
1609045372842013188,395,1609045372842013188,-0.00564509,-0.00143246,-0.00189684,-0.000135691,-6.64057e-05,0.000139464,1,0,0,0,0,0,0
1609045372945111975,396,1609045372945111975,-0.00370309,0.000130925,-0.00152108,-0.000210596,-0.000118004,1.61841e-05,1,0,0,0,0,0,0
1609045373048193916,397,1609045373048193916,-0.000160881,-0.000267023,-9.78246e-05,-0.000234324,-7.98522e-05,9.39314e-05,1,0,0,0,0,0,0
1609045373151260063,398,1609045373151260063,-0.00170463,-0.000240175,-0.000560551,-0.000225826,-8.99436e-05,8.6729e-05,1,0,0,0,0,0,0
1609045373254409419,399,1609045373254409419,-0.00230461,0.0010091,-4.18622e-05,-0.000223797,-1.76695e-05,0.000141682,1,0,0,0,0,0,0
1609045373357430475,400,1609045373357430475,-0.00249893,-0.000324958,0.00270383,-0.000192501,-1.22044e-05,0.000180559,1,0,0,0,0,0,0
1609045373460498893,401,1609045373460498893,-0.00270529,-0.00232252,0.00167534,-0.000146497,-1.52826e-05,0.000193908,1,0,0,0,0,0,0
1609045373530825231,402,1609045373530825231,-0.000743505,-0.00216936,0.000602272,-0.000156008,-4.60009e-05,0.000170099,1,0,0,0,0,0,0
1609045373632563937,403,1609045373632563937,-0.00298758,-0.000348804,-0.00222611,-9.83073e-05,-8.4584e-05,1.45504e-05,1,0,0,0,0,0,0
1609045373736071725,404,1609045373736071725,-0.00350779,-0.00130727,-0.00239735,-0.000160471,-0.000107005,3.37959e-05,1,0,0,0,0,0,0
1609045373838775983,405,1609045373838775983,-0.00223333,-0.00112017,-0.00150629,-0.000206217,-6.60063e-05,8.24411e-05,1,0,0,0,0,0,0
1609045373942149158,406,1609045373942149158,-0.00191814,-0.00180165,-0.00158605,-0.000165253,-0.000119085,6.47318e-05,1,0,0,0,0,0,0
1609045374045190688,407,1609045374045190688,-0.00301682,-0.000375095,-0.00179541,-0.000141057,-8.67356e-05,0.000161811,1,0,0,0,0,0,0
1609045374148506882,408,1609045374148506882,-0.00479368,-0.00094544,0.000672939,-0.000209685,-5.03315e-05,0.000195321,1,0,0,0,0,0,0
1609045374251546982,409,1609045374251546982,-0.00523876,-0.000304929,0.000666899,-0.00017981,-8.97504e-05,0.000188907,1,0,0,0,0,0,0
1609045374354596751,410,1609045374354596751,-0.00456437,0.0011405,0.00130234,-0.000200543,-4.02806e-05,0.000120197,1,0,0,0,0,0,0
1609045374457621354,411,1609045374457621354,-0.00287617,-0.000323424,0.0011119,-0.000216339,-0.000100502,0.000203346,1,0,0,0,0,0,0
1609045374630982343,412,1609045374630982343,0.000692413,3.70115e-05,0.00209461,-0.000189883,-4.30538e-05,0.00017352,1,0,0,0,0,0,0
1609045374630982343,413,1609045374630982343,0.00101249,-0.00201854,0.00171159,-0.000129238,1.02264e-06,0.000190984,1,0,0,0,0,0,0
1609045374732777584,414,1609045374732777584,-0.000930707,0.000710551,-0.00222401,-6.01188e-05,-0.000125343,4.18658e-05,1,0,0,0,0,0,0
1609045374835876294,415,1609045374835876294,-0.00369687,-0.0015567,-0.00201711,-0.000156245,-5.92895e-05,1.53578e-05,1,0,0,0,0,0,0
1609045374938973586,416,1609045374938973586,-0.00323069,-0.000720286,-0.000581845,-0.000174868,-8.34667e-05,9.93265e-05,1,0,0,0,0,0,0
1609045375042018598,417,1609045375042018598,-0.00225971,-0.00189463,-0.00114814,-0.000172802,-0.00011962,0.00016786,1,0,0,0,0,0,0
1609045375145104523,418,1609045375145104523,-0.00390492,-0.0010038,-0.000282484,-0.000169154,-8.06083e-05,6.83816e-05,1,0,0,0,0,0,0
1609045375248273098,419,1609045375248273098,-0.00191967,0.00028022,0.00301492,-0.000256401,-4.65772e-05,0.000103548,1,0,0,0,0,0,0
1609045375351145881,420,1609045375351145881,-0.000194857,0.000168792,0.00340058,-0.000182848,5.33928e-06,0.000201485,1,0,0,0,0,0,0
1609045375454366173,421,1609045375454366173,-0.00219167,-0.000749766,0.00157253,-0.000154453,-5.51106e-05,0.000112901,1,0,0,0,0,0,0
1609045375557381087,422,1609045375557381087,-0.00368612,-0.000544427,0.00138519,-0.000175481,-4.16966e-05,0.00018914,1,0,0,0,0,0,0
1609045375660591853,423,1609045375660591853,-0.00421329,-0.00131069,0.00273667,-0.000204864,-8.73374e-05,0.000231857,1,0,0,0,0,0,0
1609045375730479815,424,1609045375730479815,-0.00405848,-0.00245695,0.00224221,-0.000143048,-3.57094e-05,0.000170733,1,0,0,0,0,0,0
1609045375832367416,425,1609045375832367416,-0.00460281,-0.000230617,-0.00240101,-6.5895e-05,-0.000175889,0.000131213,1,0,0,0,0,0,0
1609045375935706685,426,1609045375935706685,-0.00566286,4.84686e-05,-0.00424781,-5.04446e-05,-0.000104895,0.000150392,1,0,0,0,0,0,0
1609045376038850677,427,1609045376038850677,-0.00543293,-0.00113449,-0.00122476,-0.000184358,-0.00013633,0.000103403,1,0,0,0,0,0,0
1609045376142024055,428,1609045376142024055,-0.0044886,-0.000253741,-0.000110774,-0.000142318,-9.69666e-05,0.000150758,1,0,0,0,0,0,0
1609045376245121034,429,1609045376245121034,-0.00234969,-0.000221982,-0.00141471,-0.000186668,-0.000123786,0.000126494,1,0,0,0,0,0,0
1609045376348201880,430,1609045376348201880,-0.00152259,-0.000147461,0.00159142,-0.000181774,-7.0739e-05,0.000162435,1,0,0,0,0,0,0
1609045376452311710,431,1609045376452311710,-0.00146567,-0.00072198,0.00335718,-0.00019643,-3.63279e-05,0.00015158,1,0,0,0,0,0,0
1609045376554926339,432,1609045376554926339,-0.0021434,0.000356045,0.000869408,-0.000166328,-5.76044e-05,0.000165809,1,0,0,0,0,0,0
1609045376657546208,433,1609045376657546208,-0.00198611,0.000638026,0.000853968,-0.000180124,-5.27092e-05,0.000185365,1,0,0,0,0,0,0
1609045376760464146,434,1609045376760464146,-0.00228737,0.000290808,0.00158522,-0.000137348,-5.11383e-05,0.000182636,1,0,0,0,0,0,0
1609045376830573913,435,1609045376830573913,-0.00372933,0.000442274,0.00205553,-0.000179949,-0.000100084,0.00019612,1,0,0,0,0,0,0
1609045376932506506,436,1609045376932506506,-0.00405389,-0.000388362,-0.00107006,-3.78103e-05,-0.000127714,0.000118428,1,0,0,0,0,0,0
1609045377035521968,437,1609045377035521968,-0.00668076,0.00121291,-0.00167266,-0.000112856,-0.000108214,0.00011118,1,0,0,0,0,0,0
1609045377138520030,438,1609045377138520030,-0.00407387,0.000549731,-0.000954251,-0.000154894,-0.000137539,0.000143332,1,0,0,0,0,0,0
1609045377241616026,439,1609045377241616026,-0.00347236,0.000395052,-0.000571879,-0.000155253,-0.00015572,9.80265e-05,1,0,0,0,0,0,0
1609045377344847224,440,1609045377344847224,-0.00364166,8.80354e-05,8.88444e-05,-7.34128e-05,-6.43976e-05,0.000169891,1,0,0,0,0,0,0
1609045377447922137,441,1609045377447922137,-0.00486251,-0.000481783,0.00138608,-0.000153737,-4.70605e-05,0.000148841,1,0,0,0,0,0,0
1609045377550966337,442,1609045377550966337,-0.00182275,-0.000623535,0.00231105,-0.000158831,-4.13948e-05,0.000102647,1,0,0,0,0,0,0
1609045377654294695,443,1609045377654294695,-0.00172304,0.00067666,0.00155834,-0.000187719,-8.80074e-05,0.000133545,1,0,0,0,0,0,0
1609045377757139996,444,1609045377757139996,-0.00136062,0.000287407,0.00384287,-0.000183387,-2.34626e-05,0.000261183,1,0,0,0,0,0,0
1609045377860249692,445,1609045377860249692,-0.000254677,-0.00149207,0.00348583,-0.000127157,-4.18004e-05,0.000269403,1,0,0,0,0,0,0
1609045377930523951,446,1609045377930523951,0.000821407,-0.000828298,0.00328087,-0.000138393,-5.96633e-05,0.000200177,1,0,0,0,0,0,0
1609045378032251675,447,1609045378032251675,-0.00128779,0.000173708,-0.00105048,-6.25492e-05,-0.000107993,1.63578e-05,1,0,0,0,0,0,0
1609045378135226620,448,1609045378135226620,0.000265614,0.00248463,-0.00147288,-0.000143063,-5.1179e-05,9.72191e-05,1,0,0,0,0,0,0
1609045378238464914,449,1609045378238464914,-0.00150977,-0.000359854,0.000333489,-0.000122728,-8.96506e-05,0.000128175,1,0,0,0,0,0,0
1609045378341476889,450,1609045378341476889,-0.00068671,0.000478971,0.000113149,-0.000101836,-0.00012325,9.70873e-05,1,0,0,0,0,0,0
1609045378444743399,451,1609045378444743399,-0.00074309,-0.000764185,-4.30614e-05,-0.000120734,-0.000109659,0.00015243,1,0,0,0,0,0,0
1609045378547915026,452,1609045378547915026,0.000235788,-0.00085843,0.00270411,-0.000210064,-4.98989e-05,0.000192704,1,0,0,0,0,0,0
1609045378650939970,453,1609045378650939970,-0.0018932,-0.000751034,0.00260779,-0.000129649,-3.58815e-05,0.000236427,1,0,0,0,0,0,0
