%time,field.header.seq,field.header.stamp,field.pose.position.x,field.pose.position.y,field.pose.position.z,field.pose.orientation.x,field.pose.orientation.y,field.pose.orientation.z,field.pose.orientation.w,field.twist.twist.linear.x,field.twist.twist.linear.y,field.twist.twist.linear.z,field.twist.twist.angular.x,field.twist.twist.angular.y,field.twist.twist.angular.z
1609045333348801840,0,1609045333348801840,0.000261657,-0.000294875,0.000176824,3.38379e-05,-3.99452e-05,1.33415e-05,1,0,0,0,0,0,0
1609045333451408127,1,1609045333451408127,0.000753007,-0.000759556,0.000794152,0.000116308,-0.00011735,-2.01642e-05,1,0,0,0,0,0,0
1609045333554259442,2,1609045333554259442,0.0012937,-0.000397009,0.000573841,0.000147675,-2.90098e-05,-6.7113e-05,1,0,0,0,0,0,0
1609045333657127079,3,1609045333657127079,0.00094911,-0.00092138,0.00161677,0.00010258,-0.000110394,-5.40751e-05,1,0,0,0,0,0,0
1609045333760306807,4,1609045333760306807,0.000818826,0.00122662,0.00122588,8.50274e-05,-7.88516e-05,-3.17094e-06,1,0,0,0,0,0,0
1609045333863747823,5,1609045333863747823,-0.00103779,-0.00148874,0.00148001,0.000136708,-5.90945e-05,4.62725e-06,1,0,0,0,0,0,0
1609045333934010280,6,1609045333934010280,-0.00223222,-0.00270111,0.00166292,0.000169442,-1.12242e-06,-2.58968e-05,1,0,0,0,0,0,0
1609045334035312750,7,1609045334035312750,-0.00134166,-1.46631e-05,0.000189524,0.000121833,-6.11058e-05,-8.49309e-05,1,0,0,0,0,0,0
1609045334138331775,8,1609045334138331775,-0.00144457,0.00147893,-0.00129149,0.000103737,-8.61311e-05,-8.70674e-05,1,0,0,0,0,0,0
1609045334241468648,9,1609045334241468648,-0.000252412,0.000576046,-0.00239892,0.000154822,-6.58205e-05,-4.02429e-05,1,0,0,0,0,0,0
1609045334344986375,10,1609045334344986375,0.000130847,0.000972273,0.000600929,7.43769e-05,-5.068e-05,7.85309e-06,1,0,0,0,0,0,0
1609045334448817033,11,1609045334448817033,-0.00170485,-0.0013422,0.00101145,0.000103309,-3.67004e-05,4.60478e-05,1,0,0,0,0,0,0
1609045334550580743,12,1609045334550580743,-0.00246522,-0.000655207,0.000514458,6.53075e-05,-7.31962e-05,0.000141226,1,0,0,0,0,0,0
1609045334654011082,13,1609045334654011082,-0.00085347,0.00218262,0.0016121,0.000141145,-2.74163e-05,3.5999e-05,1,0,0,0,0,0,0
1609045334756903906,14,1609045334756903906,-0.000597814,0.00174619,0.00323481,0.000112226,1.19403e-05,-2.27162e-05,1,0,0,0,0,0,0
1609045334860278746,15,1609045334860278746,0.00243258,-0.00107166,0.00283823,8.94736e-05,3.48843e-05,1.84813e-05,1,0,0,0,0,0,0
1609045334962992249,16,1609045334962992249,0.00153436,-0.00154626,0.00188577,0.000109928,-2.06498e-05,8.13183e-05,1,0,0,0,0,0,0
1609045335036881994,17,1609045335036881994,0.000215928,-0.00210599,0.00310006,0.000165717,2.91767e-05,0.000143189,1,0,0,0,0,0,0
1609045335140093684,18,1609045335140093684,-0.00421283,0.000427883,1.02048e-05,0.00019838,-8.479e-05,3.49202e-05,1,0,0,0,0,0,0
1609045335243832046,19,1609045335243832046,-0.00274465,-0.000387545,-0.000272105,0.000113887,-6.83021e-05,6.35765e-05,1,0,0,0,0,0,0
1609045335346648794,20,1609045335346648794,-0.00528979,-0.000807205,0.00138513,7.53279e-05,-5.36533e-05,0.000255789,1,0,0,0,0,0,0
1609045335450445708,21,1609045335450445708,-0.00495874,0.000857869,0.00162432,9.01249e-05,-4.03456e-05,0.000113996,1,0,0,0,0,0,0
1609045335553537074,22,1609045335553537074,-0.0039055,0.00172243,0.00148092,0.000102735,-3.01338e-05,0.000191793,1,0,0,0,0,0,0
1609045335657122533,23,1609045335657122533,-0.0062057,-0.000772683,0.00200126,9.55798e-05,2.11396e-05,0.000243261,1,0,0,0,0,0,0
1609045335758650635,24,1609045335758650635,-0.00283176,-0.000862315,0.00322453,0.000122915,6.83067e-06,0.000112802,1,0,0,0,0,0,0
1609045335861435989,25,1609045335861435989,-0.00266974,-0.000826931,0.00305455,0.000121285,2.95925e-06,0.000194026,1,0,0,0,0,0,0
1609045335933333316,26,1609045335933333316,-0.0038577,-0.00173991,0.00408535,0.000160769,3.06576e-05,7.42743e-05,1,0,0,0,0,0,0
1609045336033698866,27,1609045336033698866,-0.00534894,0.000847076,0.000527425,0.000127628,-7.27348e-05,0.000225339,1,0,0,0,0,0,0
1609045336137942855,28,1609045336137942855,-0.00644566,0.000520303,-0.000676674,0.000122894,-9.40549e-05,0.000249993,1,0,0,0,0,0,0
1609045336240868301,29,1609045336240868301,-0.0092287,-0.000829455,-0.000226421,0.000109567,-5.74868e-05,0.000186459,1,0,0,0,0,0,0
1609045336342889199,30,1609045336342889199,-0.00616173,0.000783763,-0.000126767,0.000147171,-8.15873e-05,0.000290829,1,0,0,0,0,0,0
1609045336445773839,31,1609045336445773839,-0.00582656,-0.00142406,0.00204131,0.00011532,-3.09239e-05,0.000137481,1,0,0,0,0,0,0
1609045336550275340,32,1609045336550275340,-0.00537698,0.00106604,0.00190373,8.27995e-05,-6.23985e-05,0.000236149,1,0,0,0,0,0,0
1609045336652543720,33,1609045336652543720,-0.00220639,0.00172654,0.0030382,0.000139309,4.55194e-06,0.00023598,1,0,0,0,0,0,0
1609045336755619516,34,1609045336755619516,-0.00423346,-0.000943154,0.00374817,9.49777e-05,2.85972e-05,0.000169417,1,0,0,0,0,0,0
1609045336858505284,35,1609045336858505284,-0.00294745,-0.00175419,0.0043587,0.000123481,3.72368e-05,0.000185642,1,0,0,0,0,0,0
1609045336961292435,36,1609045336961292435,-0.00407942,0.000306943,0.0037111,0.000109826,-2.12861e-05,0.000189247,1,0,0,0,0,0,0
1609045337034416236,37,1609045337034416236,-0.00560782,0.000136177,0.00414464,0.000168786,6.97353e-05,0.000263667,1,0,0,0,0,0,0
1609045337133888768,38,1609045337133888768,-0.00924936,0.00100447,0.000917772,0.00015809,-4.79386e-05,0.000242067,1,0,0,0,0,0,0
1609045337237661233,39,1609045337237661233,-0.00785588,0.00157531,0.000385697,0.000137875,-4.98305e-05,0.000235197,1,0,0,0,0,0,0
1609045337339965043,40,1609045337339965043,-0.00514884,0.00137814,0.000516784,0.000132982,-7.39024e-05,0.000260602,1,0,0,0,0,0,0
1609045337442790301,41,1609045337442790301,-0.00470694,0.00174148,0.00173002,0.000129624,-7.1524e-05,0.000223428,1,0,0,0,0,0,0
1609045337550874594,42,1609045337550874594,-0.00588952,0.000766098,0.00337191,0.000103652,3.38315e-06,0.000333896,1,0,0,0,0,0,0
1609045337653517084,43,1609045337653517084,-0.00743572,0.00126793,0.0036021,0.000176392,8.1315e-06,0.000257341,1,0,0,0,0,0,0
1609045337758701331,44,1609045337758701331,-0.00685368,-0.000199921,0.00488856,0.00015024,5.00213e-05,0.000299678,1,0,0,0,0,0,0
1609045337861159235,45,1609045337861159235,-0.00481998,-6.32401e-05,0.00547777,0.000153383,2.0194e-05,0.000223215,1,0,0,0,0,0,0
1609045337964150116,46,1609045337964150116,-4.07965e-05,0.00309645,0.00539401,0.00015669,9.0566e-05,0.000214307,1,0,0,0,0,0,0
1609045338033470182,47,1609045338033470182,-0.00368969,0.000276024,0.00513504,0.000184516,7.67443e-05,0.00022454,1,0,0,0,0,0,0
1609045338135342352,48,1609045338135342352,-0.00679271,0.000381837,0.00200117,0.000145922,-3.1795e-05,0.000204868,1,0,0,0,0,0,0
1609045338240126520,49,1609045338240126520,-0.00771926,0.00144184,0.00133441,9.45187e-05,-7.51154e-05,0.000333476,1,0,0,0,0,0,0
1609045338341446165,50,1609045338341446165,-0.00856463,0.00305688,0.00167319,0.000153743,-2.15208e-05,0.000137819,1,0,0,0,0,0,0
1609045338446226256,51,1609045338446226256,-0.00478801,-0.000388877,0.00452835,0.000127732,4.55247e-05,0.000211452,1,0,0,0,0,0,0
1609045338552102091,52,1609045338552102091,-0.00422723,0.00158905,0.00519617,0.000163184,2.12989e-05,0.000196274,1,0,0,0,0,0,0
1609045338655307359,53,1609045338655307359,-0.00802429,0.000612482,0.00692063,0.000144209,4.50623e-05,0.00026562,1,0,0,0,0,0,0
1609045338758886290,54,1609045338758886290,-0.00702116,-0.000541469,0.00677494,0.000139115,7.1062e-05,0.000317219,1,0,0,0,0,0,0
1609045338861420384,55,1609045338861420384,-0.00118289,0.000331329,0.00608561,0.000174963,0.000118337,0.000142768,1,0,0,0,0,0,0
1609045338933745887,56,1609045338933745887,-0.00290276,-0.000703934,0.00591433,0.000213962,0.000125236,0.000285092,1,0,0,0,0,0,0
1609045339033212980,57,1609045339033212980,-0.00759704,0.00036671,0.00237894,0.000149604,-2.29769e-05,0.000214787,1,0,0,0,0,0,0
1609045339136552111,58,1609045339136552111,-0.00637508,0.00310727,0.00225167,0.000126972,9.55658e-06,0.000274506,1,0,0,0,0,0,0
1609045339239628696,59,1609045339239628696,-0.00957584,0.000507858,0.00299972,0.000167749,-1.11438e-05,0.000280558,1,0,0,0,0,0,0
1609045339343123773,60,1609045339343123773,-0.0107842,-0.000597505,0.00302639,0.000206139,-1.05342e-05,0.000248444,1,0,0,0,0,0,0
1609045339445812238,61,1609045339445812238,-0.00946186,0.000553349,0.00419886,0.000100527,-8.16275e-06,0.000288338,1,0,0,0,0,0,0
1609045339548739986,62,1609045339548739986,-0.00981182,-0.00049833,0.004282,0.000158641,1.95198e-05,0.00031499,1,0,0,0,0,0,0
1609045339651870893,63,1609045339651870893,-0.00856378,0.000342226,0.00520203,0.000159622,3.81735e-05,0.000265881,1,0,0,0,0,0,0
1609045339758233429,64,1609045339758233429,-0.00744524,0.000151085,0.00646836,0.00012159,9.55898e-05,0.000287296,1,0,0,0,0,0,0
1609045339858290330,65,1609045339858290330,-0.00580632,-0.000721735,0.00608023,0.000166376,7.02474e-05,0.000286991,1,0,0,0,0,0,0
1609045339961101515,66,1609045339961101515,-0.00158876,0.000230977,0.0065262,0.000150083,9.49688e-05,0.000155385,1,0,0,0,0,0,0
1609045340032992629,67,1609045340032992629,-0.00570261,-0.000785004,0.00675633,0.000223211,0.000117016,0.000241735,1,0,0,0,0,0,0
1609045340133539304,68,1609045340133539304,-0.00545847,0.00192401,0.00312652,0.000173339,7.52868e-07,0.000143115,1,0,0,0,0,0,0
1609045340237145459,69,1609045340237145459,-0.00267524,0.00179553,0.00197835,0.0001196,2.74721e-07,9.43764e-05,1,0,0,0,0,0,0
1609045340339724833,70,1609045340339724833,-0.00609617,-2.88588e-05,0.00272547,0.000152413,-3.70993e-05,0.000242871,1,0,0,0,0,0,0
1609045340442773242,71,1609045340442773242,-0.00801455,-0.000277068,0.00262398,0.000178961,-5.88639e-05,0.000217196,1,0,0,0,0,0,0
1609045340546105457,72,1609045340546105457,-0.00438289,0.000276303,0.0044903,0.000146038,4.36007e-05,0.000231146,1,0,0,0,0,0,0
1609045340649161791,73,1609045340649161791,-0.00487541,0.000723352,0.00458991,0.000150436,-2.44139e-06,0.00017411,1,0,0,0,0,0,0
1609045340754080604,74,1609045340754080604,-0.0035091,-4.55736e-05,0.00554035,0.000141757,1.07325e-05,0.000170812,1,0,0,0,0,0,0
1609045340855360345,75,1609045340855360345,-0.00284301,-0.000835594,0.00568562,0.00014249,8.01293e-05,0.000198174,1,0,0,0,0,0,0
1609045340958522376,76,1609045340958522376,-0.00521333,-0.000686326,0.00705125,0.000186335,0.000118377,0.000286564,1,0,0,0,0,0,0
1609045341062419645,77,1609045341062419645,-0.00245925,0.000381012,0.00669317,0.000180151,0.000118855,0.000202715,1,0,0,0,0,0,0
1609045341133512727,78,1609045341133512727,-0.00761372,-0.000323316,0.0068462,0.000206138,6.49701e-05,0.000232366,1,0,0,0,0,0,0
1609045341233565143,79,1609045341233565143,-0.0109065,-6.97741e-05,0.00308824,0.000169401,-2.46733e-05,0.00019123,1,0,0,0,0,0,0
1609045341337487823,80,1609045341337487823,-0.00842639,-0.00119282,0.00234469,0.000182605,-1.63235e-05,0.000176738,1,0,0,0,0,0,0
1609045341439461642,81,1609045341439461642,-0.00869871,0.000483124,0.00304347,0.000157558,-2.52582e-06,0.00023573,1,0,0,0,0,0,0
1609045341543758735,82,1609045341543758735,-0.00317436,0.000202618,0.00314738,0.000157713,-3.68703e-05,0.000209311,1,0,0,0,0,0,0
1609045341645858638,83,1609045341645858638,-0.00384956,0.00101418,0.00530458,0.00015487,4.27926e-05,0.000229891,1,0,0,0,0,0,0
1609045341748830484,84,1609045341748830484,-0.00575069,0.00134393,0.00632855,0.000214007,5.66518e-05,0.000234024,1,0,0,0,0,0,0
1609045341852291177,85,1609045341852291177,-0.00481066,0.00140065,0.00538978,0.000175328,3.92213e-05,0.000118674,1,0,0,0,0,0,0
1609045341954957247,86,1609045341954957247,-0.00345446,-0.000132088,0.00585766,0.000144033,8.39515e-05,0.0001705,1,0,0,0,0,0,0
1609045342058225368,87,1609045342058225368,-0.00480655,-0.00139549,0.00764879,0.000172281,8.86121e-05,0.000298614,1,0,0,0,0,0,0
1609045342161844020,88,1609045342161844020,-0.00722782,-0.00171444,0.0091487,0.000208272,9.14175e-05,0.000199814,1,0,0,0,0,0,0
1609045342232941724,89,1609045342232941724,-0.00724394,-0.000378075,0.00827636,0.000240485,0.000112752,0.000220469,1,0,0,0,0,0,0
1609045342333453700,90,1609045342333453700,-0.00663454,0.00117885,0.00372649,0.000207654,-2.00866e-05,0.000190329,1,0,0,0,0,0,0
1609045342436954943,91,1609045342436954943,-0.0100951,0.00134246,0.00205649,0.000140283,-2.82779e-05,0.000176478,1,0,0,0,0,0,0
1609045342540521104,92,1609045342540521104,-0.0117943,-0.000962312,0.00285365,0.000183586,3.62287e-05,0.000287568,1,0,0,0,0,0,0
1609045342642505278,93,1609045342642505278,-0.0139828,0.000148895,0.00299083,0.000202902,-3.3917e-05,0.000245857,1,0,0,0,0,0,0
1609045342745962502,94,1609045342745962502,-0.0127184,0.000423112,0.00533871,0.000134261,2.82869e-05,0.000341544,1,0,0,0,0,0,0
1609045342849233953,95,1609045342849233953,-0.014938,-0.000579046,0.004628,0.000173731,-1.95441e-05,0.000260637,1,0,0,0,0,0,0
1609045342954205413,96,1609045342954205413,-0.0116274,-0.00094105,0.00623876,0.000202644,5.12903e-05,0.000280426,1,0,0,0,0,0,0
1609045343033104257,97,1609045343033104257,-0.00717087,-0.000965232,0.00770378,0.00021478,8.8002e-05,0.000280851,1,0,0,0,0,0,0
1609045343133380431,98,1609045343133380431,-0.00614945,-2.7532e-05,0.00306692,0.000221659,-2.17407e-05,8.75895e-05,1,0,0,0,0,0,0
1609045343236848341,99,1609045343236848341,-0.00623643,-0.000716058,0.00125956,0.00015422,-4.72287e-05,0.0001868,1,0,0,0,0,0,0
1609045343339487350,100,1609045343339487350,-0.00595079,0.000667673,0.00223123,0.000222549,-7.01349e-06,0.000112817,1,0,0,0,0,0,0
1609045343443235894,101,1609045343443235894,-0.0108796,-0.000298351,0.00197829,0.00020734,-5.86587e-05,0.000233982,1,0,0,0,0,0,0
1609045343545778106,102,1609045343545778106,-0.0117383,-0.000380355,0.00523006,0.000165278,9.6916e-06,0.000149619,1,0,0,0,0,0,0
1609045343648859831,103,1609045343648859831,-0.00851887,-0.000511634,0.00565725,0.000200293,-4.54707e-06,0.000269219,1,0,0,0,0,0,0
1609045343753595104,104,1609045343753595104,-0.0101003,-0.000124776,0.00596534,0.000202678,2.78785e-05,0.000204424,1,0,0,0,0,0,0
1609045343854918286,105,1609045343854918286,-0.00984627,-0.00150689,0.00685667,0.00018271,9.10989e-05,0.000175883,1,0,0,0,0,0,0
1609045343962770516,106,1609045343962770516,-0.00810609,-0.00179886,0.00749548,0.000185801,8.7029e-05,0.000184176,1,0,0,0,0,0,0
1609045344032966014,107,1609045344032966014,-0.00902497,-0.00318491,0.0081137,0.000242175,8.11747e-05,0.000237651,1,0,0,0,0,0,0
1609045344135595890,108,1609045344135595890,-0.0101783,-0.00306368,0.00342398,0.000221027,-2.1491e-05,0.000163026,1,0,0,0,0,0,0
1609045344237783511,109,1609045344237783511,-0.00713895,-0.00111194,0.00144863,0.000195411,-5.94253e-06,0.000190649,1,0,0,0,0,0,0
1609045344340911982,110,1609045344340911982,-0.00538159,-0.00120728,0.0034863,0.000202298,3.13885e-05,0.000139572,1,0,0,0,0,0,0
1609045344444251477,111,1609045344444251477,-0.0042543,-0.0013602,0.00327209,0.000225303,-8.58714e-06,0.000162245,1,0,0,0,0,0,0
1609045344547606511,112,1609045344547606511,-0.00770682,-0.00244827,0.00529828,0.000156763,2.3159e-05,0.000200104,1,0,0,0,0,0,0
1609045344650313554,113,1609045344650313554,-0.00951219,-0.00211999,0.0047265,0.00020022,1.8788e-05,0.000203314,1,0,0,0,0,0,0
1609045344753411880,114,1609045344753411880,-0.0095968,-0.00316374,0.00518264,0.000238666,7.67474e-05,0.000257808,1,0,0,0,0,0,0
1609045344856489234,115,1609045344856489234,-0.00902498,-0.00376579,0.0069602,0.000174398,6.3557e-05,0.00026926,1,0,0,0,0,0,0
1609045344959580776,116,1609045344959580776,-0.00949436,-0.00309495,0.00748332,0.000191293,4.8294e-05,0.000204162,1,0,0,0,0,0,0
1609045345064863021,117,1609045345064863021,-0.0092454,-0.00414475,0.00668445,0.000206675,9.63735e-05,0.000243396,1,0,0,0,0,0,0
1609045345133845112,118,1609045345133845112,-0.00654954,-0.00398068,0.00507451,0.000143834,7.60501e-05,0.000201396,1,0,0,0,0,0,0
1609045345235021969,119,1609045345235021969,-0.00722284,-0.00111315,0.0026354,0.000186655,-4.87099e-05,0.000181182,1,0,0,0,0,0,0
1609045345337998674,120,1609045345337998674,-0.0091195,0.000525942,0.00215454,0.000174307,-1.41504e-05,0.000102889,1,0,0,0,0,0,0
1609045345441191372,121,1609045345441191372,-0.00906292,-0.00158725,0.00154343,0.000206845,-3.56286e-06,0.00012759,1,0,0,0,0,0,0
1609045345544755271,122,1609045345544755271,-0.00716309,-0.00115948,0.00184182,0.000182712,-8.37049e-06,0.000218218,1,0,0,0,0,0,0
1609045345647147953,123,1609045345647147953,-0.00861491,-0.00283579,0.00467569,0.000184855,4.73913e-06,0.000264526,1,0,0,0,0,0,0
1609045345750727221,124,1609045345750727221,-0.00833217,-0.0026186,0.00398191,0.000187336,-1.60477e-05,0.000238403,1,0,0,0,0,0,0
1609045345853605062,125,1609045345853605062,-0.00778007,-0.00244053,0.00390665,0.000179319,3.15482e-05,0.000206795,1,0,0,0,0,0,0
1609045345956710336,126,1609045345956710336,-0.00987841,-0.00330237,0.00702789,0.000167708,0.000101395,0.000184456,1,0,0,0,0,0,0
1609045346059508582,127,1609045346059508582,-0.00852294,-0.00268908,0.00801795,0.000194603,9.9799e-05,0.000202601,1,0,0,0,0,0,0
1609045346162642933,128,1609045346162642933,-0.00877725,-0.00398412,0.00686423,0.000241281,8.88352e-05,0.000225256,1,0,0,0,0,0,0
1609045346234099899,129,1609045346234099899,-0.00897504,-0.00342812,0.00607226,0.00020809,6.16927e-05,0.000191957,1,0,0,0,0,0,0
1609045346336392983,130,1609045346336392983,-0.00578968,-0.00359413,0.00298693,0.000227954,2.85979e-06,6.51948e-05,1,0,0,0,0,0,0
1609045346439334769,131,1609045346439334769,-0.00410741,-0.00264198,0.000609113,0.000201194,-8.28255e-06,1.73607e-05,1,0,0,0,0,0,0
1609045346542101244,132,1609045346542101244,-0.00509665,-0.00354202,0.00100605,0.000174337,-2.23013e-05,0.000124465,1,0,0,0,0,0,0
1609045346644128131,133,1609045346644128131,-0.00407449,-0.00422788,0.00366551,0.000123479,-6.52015e-06,0.000101633,1,0,0,0,0,0,0
1609045346747209980,134,1609045346747209980,-0.0080181,-0.00343627,0.00425016,0.000174007,8.846e-06,0.000160549,1,0,0,0,0,0,0
1609045346850269992,135,1609045346850269992,-0.00579657,-0.00250801,0.00434811,0.000187418,3.64247e-05,9.56711e-05,1,0,0,0,0,0,0
1609045346956470099,136,1609045346956470099,-0.0069072,-0.00351387,0.00448592,0.000166362,1.67793e-05,0.000191161,1,0,0,0,0,0,0
1609045347061722613,137,1609045347061722613,-0.00781286,-0.00318669,0.00466765,0.000102486,3.72911e-05,0.000200865,1,0,0,0,0,0,0
1609045347133174611,138,1609045347133174611,-0.00740114,-0.00235625,0.00608364,0.000159356,7.56678e-05,7.35215e-05,1,0,0,0,0,0,0
1609045347233131213,139,1609045347233131213,-0.00574331,-0.00201979,0.00283734,0.000219996,1.56647e-05,1.75429e-05,1,0,0,0,0,0,0
1609045347336453616,140,1609045347336453616,-0.004299,-0.00139506,0.000531385,0.000164058,-1.2009e-05,1.09984e-06,1,0,0,0,0,0,0
1609045347443693918,141,1609045347443693918,-0.00170631,-0.000553783,0.00024152,0.000159006,-6.23308e-05,2.60218e-05,1,0,0,0,0,0,0
1609045347545498599,142,1609045347545498599,-0.00537552,-0.00306931,0.00436043,0.000145884,1.92619e-05,0.000116739,1,0,0,0,0,0,0
1609045347648868296,143,1609045347648868296,-0.00562053,-0.00395652,0.0055386,0.000200522,5.32001e-05,0.000109011,1,0,0,0,0,0,0
1609045347752139386,144,1609045347752139386,-0.00821399,-0.00514089,0.00340576,0.00017992,-6.11801e-06,0.000270819,1,0,0,0,0,0,0
1609045347856669716,145,1609045347856669716,-0.00813352,-0.00470479,0.00215766,0.000146562,-3.51803e-05,0.000143036,1,0,0,0,0,0,0
1609045347957723281,146,1609045347957723281,-0.00743934,-0.00364495,0.0049,0.000122595,4.25817e-05,0.000158698,1,0,0,0,0,0,0
1609045348061068369,147,1609045348061068369,-0.00748255,-0.00373934,0.00684703,0.000180784,0.000107612,0.000118387,1,0,0,0,0,0,0
1609045348133418607,148,1609045348133418607,-0.0055033,-0.00506093,0.00619374,0.000181234,8.57972e-05,0.000147995,1,0,0,0,0,0,0
1609045348232813749,149,1609045348232813749,-0.0064382,-0.00312793,0.00135608,0.000206735,-2.24677e-06,-1.49482e-06,1,0,0,0,0,0,0
1609045348336083941,150,1609045348336083941,-0.0053214,-0.00340465,-0.00013316,0.000138986,-5.29827e-05,0.000108058,1,0,0,0,0,0,0
1609045348439252345,151,1609045348439252345,-0.00798227,-0.00512249,-0.000762309,0.000190604,-6.14497e-05,0.000101241,1,0,0,0,0,0,0
1609045348542086435,152,1609045348542086435,-0.00833883,-0.0032351,-0.000320844,0.000163601,-3.79778e-05,0.000140027,1,0,0,0,0,0,0
1609045348645901599,153,1609045348645901599,-0.0097775,-0.00200238,0.00109517,0.000133609,-6.84745e-05,7.12663e-05,1,0,0,0,0,0,0
1609045348748370624,154,1609045348748370624,-0.00801301,-0.00409426,0.00360581,0.000160363,-4.72242e-07,7.86932e-05,1,0,0,0,0,0,0
1609045348851533809,155,1609045348851533809,-0.0077494,-0.0046499,0.00506771,0.000197916,5.47114e-05,0.000129163,1,0,0,0,0,0,0
1609045348954504972,156,1609045348954504972,-0.00908072,-0.00320547,0.0030287,0.000200692,-3.38372e-06,0.000101918,1,0,0,0,0,0,0
1609045349057685126,157,1609045349057685126,-0.00642478,-0.00279641,0.00483133,0.000145341,5.09247e-05,0.000147115,1,0,0,0,0,0,0
1609045349160915264,158,1609045349160915264,-0.00725137,-0.00386555,0.00702729,0.000169762,5.46808e-05,0.000157089,1,0,0,0,0,0,0
1609045349233337181,159,1609045349233337181,-0.00554782,-0.00529791,0.00718603,0.000194827,9.27605e-05,0.000128218,1,0,0,0,0,0,0
1609045349332709694,160,1609045349332709694,-0.00355108,-0.00361094,0.00189627,0.00018301,-1.96205e-05,7.29972e-05,1,0,0,0,0,0,0
1609045349435904172,161,1609045349435904172,-0.00397693,-0.00305744,0.000859689,0.000153114,4.12148e-05,0.000154515,1,0,0,0,0,0,0
1609045349538886330,162,1609045349538886330,-0.00568908,-0.00440857,-0.000580625,0.000201129,-6.07513e-05,0.000124605,1,0,0,0,0,0,0
1609045349646875283,163,1609045349646875283,-0.00389823,-0.00270342,0.000419236,0.000190108,3.59289e-05,0.000106958,1,0,0,0,0,0,0
1609045349749678574,164,1609045349749678574,-0.00316394,-0.00289377,0.00277359,0.000177832,4.66421e-06,9.89957e-05,1,0,0,0,0,0,0
1609045349859791316,165,1609045349859791316,-0.0051145,-0.00502503,0.00264233,0.000178595,8.20686e-06,0.000117172,1,0,0,0,0,0,0
1609045349934590373,166,1609045349934590373,-0.00645281,-0.00407676,0.00521957,0.000133966,2.80966e-05,0.000108157,1,0,0,0,0,0,0
1609045350035774272,167,1609045350035774272,-0.00778936,-0.00381318,0.000981534,0.000244962,2.13084e-05,0.000118602,1,0,0,0,0,0,0
1609045350139122796,168,1609045350139122796,-0.00512875,-0.00296153,-0.000351138,0.000171765,1.92702e-06,0.000130849,1,0,0,0,0,0,0
1609045350242171406,169,1609045350242171406,-0.00765099,-0.00270517,-1.46912e-05,0.000161719,-1.3757e-05,8.32229e-05,1,0,0,0,0,0,0
1609045350346286440,170,1609045350346286440,-0.00880074,-0.00323986,0.00308819,0.000133555,-4.57961e-06,0.000218213,1,0,0,0,0,0,0
1609045350448590109,171,1609045350448590109,-0.00713179,-0.00493005,0.00331063,0.000180141,1.91954e-05,0.000153833,1,0,0,0,0,0,0
1609045350550964356,172,1609045350550964356,-0.00668789,-0.00248634,0.00181304,0.000141886,1.2813e-05,9.32768e-05,1,0,0,0,0,0,0
1609045350654372284,173,1609045350654372284,-0.00809064,-0.00286925,0.00196628,0.000137559,-1.63591e-05,0.0001793,1,0,0,0,0,0,0
1609045350757294824,174,1609045350757294824,-0.0127598,-0.00611326,0.00447483,0.000116269,2.01776e-05,0.000213805,1,0,0,0,0,0,0
1609045350832198524,175,1609045350832198524,-0.0092499,-0.00487885,0.0059936,0.00016903,8.94559e-05,0.000249393,1,0,0,0,0,0,0
1609045350935307209,176,1609045350935307209,-0.0090957,-0.00402802,0.00135697,0.000173772,-9.68763e-06,0.000138448,1,0,0,0,0,0,0
1609045351038373711,177,1609045351038373711,-0.00973308,-0.00416243,-0.000538776,0.000108654,-1.41342e-05,3.80958e-05,1,0,0,0,0,0,0
1609045351142491982,178,1609045351142491982,-0.00939906,-0.00217769,0.000273538,0.000143328,1.42223e-05,9.07326e-05,1,0,0,0,0,0,0
1609045351246604335,179,1609045351246604335,-0.0101802,-0.00395152,0.00292484,0.000121475,1.85348e-05,0.000213075,1,0,0,0,0,0,0
1609045351352691730,180,1609045351352691730,-0.00844291,-0.00347617,0.0033925,0.000180244,4.51733e-05,0.000212712,1,0,0,0,0,0,0
1609045351455860272,181,1609045351455860272,-0.00965682,-0.00394547,0.00399253,0.000107976,3.24848e-05,0.000128011,1,0,0,0,0,0,0
1609045351558960132,182,1609045351558960132,-0.00787457,-0.00436238,0.00445918,0.000161353,5.64447e-05,0.000188056,1,0,0,0,0,0,0
1609045351662139371,183,1609045351662139371,-0.0105634,-0.00433077,0.00585549,0.000154851,3.43141e-05,0.000182121,1,0,0,0,0,0,0
1609045351733428057,184,1609045351733428057,-0.0089569,-0.0060298,0.00574102,0.00015816,0.000118153,0.000260633,1,0,0,0,0,0,0
1609045351833963332,185,1609045351833963332,-0.00610462,-0.00452525,4.82235e-06,0.000176755,-8.26144e-07,7.94453e-05,1,0,0,0,0,0,0
1609045351937256915,186,1609045351937256915,-0.00541297,-0.00231816,-0.000506634,0.000142971,2.7525e-05,0.000193611,1,0,0,0,0,0,0
1609045352041355923,187,1609045352041355923,-0.00645708,-0.00251731,-0.00105661,0.000182443,-2.55358e-05,0.000141691,1,0,0,0,0,0,0
1609045352143471456,188,1609045352143471456,-0.00870545,-0.00341492,-0.0014081,0.000215471,3.58581e-05,0.000151137,1,0,0,0,0,0,0
1609045352247821602,189,1609045352247821602,-0.0122339,-0.0035041,0.00156554,0.000125349,-5.89637e-06,0.000224997,1,0,0,0,0,0,0
1609045352351258818,190,1609045352351258818,-0.0141032,-0.00414975,0.00246837,0.000155572,-5.03226e-06,0.000184935,1,0,0,0,0,0,0
1609045352453060502,191,1609045352453060502,-0.0141688,-0.00303237,0.00200005,0.000147764,2.58273e-05,0.0002593,1,0,0,0,0,0,0
1609045352555871972,192,1609045352555871972,-0.0125764,-0.00344924,0.00448199,0.000115017,4.31408e-05,0.000305252,1,0,0,0,0,0,0
1609045352658162422,193,1609045352658162422,-0.0108663,-0.002686,0.00427439,0.000161763,7.38552e-05,0.000239748,1,0,0,0,0,0,0
1609045352761680599,194,1609045352761680599,-0.010615,-0.00321574,0.00384166,0.000190433,5.09197e-05,0.000297016,1,0,0,0,0,0,0
1609045352831988320,195,1609045352831988320,-0.0084078,-0.00553733,0.00548442,0.00013342,5.59289e-05,0.000247574,1,0,0,0,0,0,0
1609045352934341775,196,1609045352934341775,-0.0103974,-0.00340828,0.000261805,0.000233566,3.99446e-05,0.000133967,1,0,0,0,0,0,0
1609045353037779825,197,1609045353037779825,-0.0108614,-0.00118661,-0.00099638,0.00014576,1.15164e-05,0.00014858,1,0,0,0,0,0,0
1609045353140322372,198,1609045353140322372,-0.0116296,-0.00194165,-0.000255626,0.000149675,3.47303e-06,0.000164504,1,0,0,0,0,0,0
1609045353243667422,199,1609045353243667422,-0.0113946,-0.00235113,-0.000862744,0.000169114,-3.00423e-05,0.000282844,1,0,0,0,0,0,0
1609045353346687912,200,1609045353346687912,-0.0108149,-0.0029827,0.00224956,0.000115287,2.21816e-05,0.000259278,1,0,0,0,0,0,0
1609045353449727959,201,1609045353449727959,-0.0106364,-0.0040192,0.00372188,0.000167725,4.53672e-05,0.000274774,1,0,0,0,0,0,0
1609045353553206008,202,1609045353553206008,-0.00964481,-0.00354596,0.0027303,0.0001691,3.17352e-05,0.000317892,1,0,0,0,0,0,0
1609045353655855956,203,1609045353655855956,-0.0107677,-0.00268488,0.00397819,9.1156e-05,2.47789e-05,0.000312982,1,0,0,0,0,0,0
1609045353758787959,204,1609045353758787959,-0.0110372,-0.00458143,0.00522433,0.000105916,5.82815e-05,0.000314752,1,0,0,0,0,0,0
1609045353862223810,205,1609045353862223810,-0.0120096,-0.00414557,0.00510406,0.000145255,6.18156e-05,0.000326526,1,0,0,0,0,0,0
1609045353932296081,206,1609045353932296081,-0.012778,-0.00474008,0.00569639,0.000144758,0.000146404,0.00036756,1,0,0,0,0,0,0
1609045354034006678,207,1609045354034006678,-0.0132313,-0.00312536,0.00155112,0.000183402,7.72722e-06,0.000214556,1,0,0,0,0,0,0
1609045354137630540,208,1609045354137630540,-0.0140225,-0.00206709,-0.000358278,0.000131631,-1.22577e-06,0.000202197,1,0,0,0,0,0,0
1609045354240041135,209,1609045354240041135,-0.0120015,-0.00205119,-0.00112382,0.00014985,1.2123e-05,0.000213191,1,0,0,0,0,0,0
1609045354345477887,210,1609045354345477887,-0.0109039,-0.00121642,-0.00120482,0.000164164,1.06017e-05,0.000218259,1,0,0,0,0,0,0
1609045354446232118,211,1609045354446232118,-0.0107869,-0.00193963,0.000734535,9.73725e-05,1.38407e-05,0.000324452,1,0,0,0,0,0,0
1609045354549063652,212,1609045354549063652,-0.0116806,-0.00291451,0.00219254,0.000110704,3.05616e-05,0.000306675,1,0,0,0,0,0,0
1609045354652084637,213,1609045354652084637,-0.01277,-0.00194713,0.000927521,0.000109442,2.30712e-05,0.000339756,1,0,0,0,0,0,0
1609045354755288363,214,1609045354755288363,-0.0107979,-0.00389652,0.00365505,6.61945e-05,7.02012e-05,0.000395425,1,0,0,0,0,0,0
1609045354862078669,215,1609045354862078669,-0.0143042,-0.00362824,0.00321799,0.000138317,8.55338e-05,0.000329705,1,0,0,0,0,0,0
1609045354961490962,216,1609045354961490962,-0.014732,-0.00291242,0.00504343,0.000113809,3.31939e-05,0.000356093,1,0,0,0,0,0,0
1609045355032277603,217,1609045355032277603,-0.0156968,-0.00292076,0.00365435,0.000140396,9.40088e-05,0.000372509,1,0,0,0,0,0,0
1609045355133394787,218,1609045355133394787,-0.0122633,-0.00333014,-0.000434878,0.000127921,-2.138e-05,0.000322643,1,0,0,0,0,0,0
1609045355237012348,219,1609045355237012348,-0.0107894,-0.00106905,-0.000313458,0.000106731,5.10417e-05,0.000295159,1,0,0,0,0,0,0
1609045355339962808,220,1609045355339962808,-0.0145276,-0.00204266,-5.04706e-05,0.000122363,2.32386e-05,0.000318237,1,0,0,0,0,0,0
1609045355442709562,221,1609045355442709562,-0.0151034,-0.00298466,-0.000178548,0.000143144,7.10509e-05,0.000349018,1,0,0,0,0,0,0
1609045355545970181,222,1609045355545970181,-0.0163451,-0.00229957,0.00106291,0.000117184,4.31917e-05,0.000400566,1,0,0,0,0,0,0
1609045355649053131,223,1609045355649053131,-0.0131866,-0.00370595,0.00185062,7.25691e-05,3.30822e-05,0.000363647,1,0,0,0,0,0,0
1609045355752284467,224,1609045355752284467,-0.0148188,-0.00212924,0.00288282,0.000105524,4.23106e-05,0.000366597,1,0,0,0,0,0,0
1609045355855209619,225,1609045355855209619,-0.0141466,-0.00244107,0.00159431,0.000117255,9.24169e-05,0.000440583,1,0,0,0,0,0,0
1609045355958298876,226,1609045355958298876,-0.0125368,-0.00225753,0.00326084,8.22138e-05,8.64442e-05,0.00041877,1,0,0,0,0,0,0
1609045356061548102,227,1609045356061548102,-0.0112722,-0.00276803,0.00447123,0.000131384,9.40903e-05,0.000436618,1,0,0,0,0,0,0
1609045356131896013,228,1609045356131896013,-0.0136134,-0.00431018,0.00428745,0.000123719,8.20091e-05,0.000448722,1,0,0,0,0,0,0
1609045356233950809,229,1609045356233950809,-0.0170835,-0.00131086,-2.72501e-05,9.6295e-05,-4.02493e-05,0.00039244,1,0,0,0,0,0,0
1609045356337673123,230,1609045356337673123,-0.0158822,-0.00390959,-0.000512857,9.18405e-05,3.87294e-05,0.00045119,1,0,0,0,0,0,0
1609045356439819787,231,1609045356439819787,-0.0167906,-0.00322746,0.000461057,9.43726e-05,8.49267e-05,0.000486209,1,0,0,0,0,0,0
1609045356542840458,232,1609045356542840458,-0.0170956,-0.00391462,-0.00172302,9.63589e-05,-1.03295e-05,0.000403626,1,0,0,0,0,0,0
1609045356646822884,233,1609045356646822884,-0.0149704,-0.00328381,0.000763858,5.02972e-05,4.70061e-05,0.000391695,1,0,0,0,0,0,0
1609045356755345145,234,1609045356755345145,-0.0158257,-0.00163195,0.000696746,0.000128698,5.76591e-05,0.000495057,1,0,0,0,0,0,0
1609045356858776973,235,1609045356858776973,-0.0151922,-0.00282456,0.00320472,9.56797e-05,9.91683e-05,0.000440787,1,0,0,0,0,0,0
1609045356962072761,236,1609045356962072761,-0.0160219,-0.00191306,0.00386462,0.000104138,6.46467e-05,0.000552789,1,0,0,0,0,0,0
1609045357031393476,237,1609045357031393476,-0.0149999,-0.00230439,0.00246394,0.000119684,0.000104627,0.000422234,1,0,0,0,0,0,0
1609045357135709932,238,1609045357135709932,-0.014473,-0.00144287,-0.000837047,9.94574e-05,7.61754e-06,0.000451612,1,0,0,0,0,0,0
1609045357238911050,239,1609045357238911050,-0.0150643,-0.00183206,-0.000112944,7.97576e-05,4.4864e-05,0.000411756,1,0,0,0,0,0,0
1609045357340174750,240,1609045357340174750,-0.0152691,-0.0020471,-0.00028658,0.000116128,3.06274e-05,0.000382892,1,0,0,0,0,0,0
1609045357443092620,241,1609045357443092620,-0.0176304,-0.00284274,-0.000184053,9.8476e-05,4.1592e-05,0.000507189,1,0,0,0,0,0,0
1609045357546181604,242,1609045357546181604,-0.0176644,-0.00244434,0.00129898,8.6382e-05,6.28016e-05,0.000536485,1,0,0,0,0,0,0
1609045357649516562,243,1609045357649516562,-0.0151041,-0.0038612,0.000736849,0.000101325,3.66103e-05,0.000555773,1,0,0,0,0,0,0
1609045357752487234,244,1609045357752487234,-0.014938,-0.00313516,0.00160174,5.57891e-05,6.04015e-05,0.000519662,1,0,0,0,0,0,0
1609045357855449276,245,1609045357855449276,-0.0142575,-0.00317053,0.00353671,5.78751e-05,8.79249e-05,0.000608362,1,0,0,0,0,0,0
1609045357958674578,246,1609045357958674578,-0.0118854,-0.00105433,0.00397357,8.65868e-05,0.000103111,0.00052311,1,0,0,0,0,0,0
1609045358061515872,247,1609045358061515872,-0.0148217,-0.00145722,0.00427589,0.00014003,0.000128297,0.000604559,1,0,0,0,0,0,0
1609045358131766432,248,1609045358131766432,-0.0148668,-0.00200287,0.00404625,0.000126769,7.27173e-05,0.000521045,1,0,0,0,0,0,0
1609045358233575711,249,1609045358233575711,-0.0140328,-0.0010419,0.000948715,8.1503e-05,3.05025e-05,0.000406796,1,0,0,0,0,0,0
1609045358336685476,250,1609045358336685476,-0.0124381,-0.00080607,-0.000838109,0.000108074,7.46514e-05,0.000432518,1,0,0,0,0,0,0
1609045358440450801,251,1609045358440450801,-0.0123957,-0.000447266,2.07314e-05,0.000117444,7.95685e-05,0.000455243,1,0,0,0,0,0,0
1609045358542962090,252,1609045358542962090,-0.0148655,-0.00268952,0.00092759,9.907e-05,6.79864e-05,0.000455285,1,0,0,0,0,0,0
1609045358646140982,253,1609045358646140982,-0.0155879,-0.00403435,0.000354484,7.31615e-05,4.25017e-05,0.000522246,1,0,0,0,0,0,0
1609045358749271656,254,1609045358749271656,-0.0146427,-0.00408545,0.00148397,9.25361e-05,8.73092e-05,0.000512901,1,0,0,0,0,0,0
1609045358852361650,255,1609045358852361650,-0.0131616,-0.00253429,0.00217545,9.4725e-05,0.000100464,0.000429935,1,0,0,0,0,0,0
1609045358955761405,256,1609045358955761405,-0.014874,-0.00319219,0.00240209,8.17182e-05,6.73775e-05,0.00053398,1,0,0,0,0,0,0
1609045359058362411,257,1609045359058362411,-0.0142394,-0.00404996,0.00365321,7.05437e-05,7.96657e-05,0.000536266,1,0,0,0,0,0,0
1609045359160843410,258,1609045359160843410,-0.0142194,-0.00513149,0.00369916,9.53582e-05,0.000138959,0.000479675,1,0,0,0,0,0,0
1609045359231533405,259,1609045359231533405,-0.0135838,-0.00274457,0.00425462,0.000122569,0.000105818,0.000480244,1,0,0,0,0,0,0
1609045359436570157,260,1609045359436570157,-0.0155711,-0.00298108,-5.5606e-05,0.000177136,2.91305e-05,0.000441615,1,0,0,0,0,0,0
1609045359436570157,261,1609045359436570157,-0.015619,-0.00347334,-0.00118752,0.000104349,-2.57252e-06,0.000482122,1,0,0,0,0,0,0
1609045359539655059,262,1609045359539655059,-0.014978,-0.00305688,-0.000725627,0.000134545,3.94936e-05,0.000432858,1,0,0,0,0,0,0
1609045359642843858,263,1609045359642843858,-0.0138231,-0.00245147,-0.000152533,0.00010165,3.07667e-05,0.00041696,1,0,0,0,0,0,0
1609045359745853147,264,1609045359745853147,-0.0132128,-0.00397432,0.00137099,8.61637e-05,3.26942e-05,0.000539799,1,0,0,0,0,0,0
1609045359849003418,265,1609045359849003418,-0.0137548,-0.00361685,0.00051136,0.000111402,2.27741e-06,0.000492516,1,0,0,0,0,0,0
1609045359952252140,266,1609045359952252140,-0.0124706,-0.00260517,0.00187364,9.81563e-05,8.18739e-05,0.000455984,1,0,0,0,0,0,0
1609045360055291793,267,1609045360055291793,-0.0117107,-0.00280383,0.00325839,0.000160399,9.16564e-05,0.000421047,1,0,0,0,0,0,0
1609045360158235687,268,1609045360158235687,-0.0102353,-0.0039636,0.00381226,0.000123067,0.00010864,0.000435813,1,0,0,0,0,0,0
1609045360261337455,269,1609045360261337455,-0.0136606,-0.00589728,0.00294013,0.000135233,4.30099e-05,0.000528191,1,0,0,0,0,0,0
1609045360331643381,270,1609045360331643381,-0.0114606,-0.00355223,0.00389651,0.000141584,5.25262e-05,0.000394396,1,0,0,0,0,0,0
1609045360433461210,271,1609045360433461210,-0.0129275,-0.00205359,0.000561146,0.000186869,4.09547e-05,0.000373431,1,0,0,0,0,0,0
1609045360536498368,272,1609045360536498368,-0.0124479,-0.00379014,-0.000558214,0.00012054,2.49293e-05,0.000357694,1,0,0,0,0,0,0
1609045360639825522,273,1609045360639825522,-0.0127428,-0.00368846,-0.00075667,0.000134043,-1.31415e-05,0.000329423,1,0,0,0,0,0,0
1609045360742610443,274,1609045360742610443,-0.0122937,-0.002945,0.000800023,0.000146983,4.61216e-05,0.000395637,1,0,0,0,0,0,0
1609045360845783132,275,1609045360845783132,-0.0144876,-0.0038877,0.000772751,0.000152761,5.3957e-05,0.000372958,1,0,0,0,0,0,0
1609045360948768697,276,1609045360948768697,-0.0151667,-0.00475801,0.00190574,0.000139006,4.45367e-05,0.000429583,1,0,0,0,0,0,0
1609045361051917961,277,1609045361051917961,-0.0148828,-0.00355789,0.00170195,0.00013279,-2.91867e-06,0.000406947,1,0,0,0,0,0,0
1609045361154649397,278,1609045361154649397,-0.0130515,-0.00283519,0.00143755,0.000108441,6.1492e-06,0.00034208,1,0,0,0,0,0,0
1609045361257855997,279,1609045361257855997,-0.0109093,-0.00311103,0.00406758,0.00014095,6.66745e-05,0.000439025,1,0,0,0,0,0,0
1609045361360918005,280,1609045361360918005,-0.0099057,-0.00333077,0.00479686,0.000178684,5.67994e-05,0.000400412,1,0,0,0,0,0,0
1609045361431264984,281,1609045361431264984,-0.00972142,-0.00538477,0.00387137,0.00020049,4.82955e-05,0.000355346,1,0,0,0,0,0,0
1609045361533029100,282,1609045361533029100,-0.0100641,-0.00401657,0.000630209,0.00020517,9.67642e-06,0.000284316,1,0,0,0,0,0,0
1609045361636012600,283,1609045361636012600,-0.0118869,-0.00338165,0.000970272,0.000134892,5.66003e-05,0.000295212,1,0,0,0,0,0,0
1609045361739069057,284,1609045361739069057,-0.0136357,-0.0036473,-0.000328254,0.000141807,-6.49646e-05,0.000327875,1,0,0,0,0,0,0
1609045361842687221,285,1609045361842687221,-0.0109387,-0.00266231,0.000387147,0.000129483,1.81068e-05,0.000353151,1,0,0,0,0,0,0
1609045361945674739,286,1609045361945674739,-0.0115851,-0.00237033,0.00124517,0.000158577,1.88099e-05,0.000322688,1,0,0,0,0,0,0
1609045362048807830,287,1609045362048807830,-0.0119005,-0.00464682,0.0026112,0.00013133,5.14022e-05,0.000333777,1,0,0,0,0,0,0
1609045362151858497,288,1609045362151858497,-0.00972953,-0.00438739,0.00256415,0.000172378,4.91698e-05,0.000353939,1,0,0,0,0,0,0
1609045362255241532,289,1609045362255241532,-0.0107115,-0.00416972,0.00124416,0.000160392,-3.44757e-05,0.00034685,1,0,0,0,0,0,0
1609045362358287092,290,1609045362358287092,-0.00953854,-0.00559237,0.00444979,0.000127474,2.67507e-05,0.000224506,1,0,0,0,0,0,0
1609045362461383926,291,1609045362461383926,-0.00847405,-0.00537737,0.00406107,0.000198999,2.55965e-05,0.000323387,1,0,0,0,0,0,0
1609045362531601590,292,1609045362531601590,-0.00840728,-0.00446286,0.00252095,0.000210003,6.05723e-05,0.000284365,1,0,0,0,0,0,0
1609045362633414294,293,1609045362633414294,-0.00854699,-0.00372771,0.000724802,0.000193279,2.56296e-06,0.000228623,1,0,0,0,0,0,0
1609045362736429576,294,1609045362736429576,-0.00862594,-0.00486949,0.00121102,0.000183943,2.65908e-05,0.000220622,1,0,0,0,0,0,0
1609045362839648578,295,1609045362839648578,-0.00602795,-0.0032028,0.000238367,0.000208101,-8.86543e-06,0.000237023,1,0,0,0,0,0,0
1609045362942562841,296,1609045362942562841,-0.00946627,-0.00341735,-0.000445748,0.00020132,-5.79517e-05,0.000243546,1,0,0,0,0,0,0
1609045363045731340,297,1609045363045731340,-0.00913609,-0.00279121,9.54613e-05,0.000149311,-4.47772e-05,0.00022488,1,0,0,0,0,0,0
1609045363148877600,298,1609045363148877600,-0.00893334,-0.00477053,0.00158581,0.000159649,-3.75068e-06,0.000272256,1,0,0,0,0,0,0
1609045363252388119,299,1609045363252388119,-0.00797267,-0.00551364,0.00248108,0.000180143,-4.36148e-06,0.000186451,1,0,0,0,0,0,0
1609045363355829807,300,1609045363355829807,-0.00713021,-0.00415178,0.00259887,0.000202914,3.52062e-05,0.000253404,1,0,0,0,0,0,0
1609045363457896675,301,1609045363457896675,-0.00827181,-0.00404478,0.0036642,0.000202189,4.4355e-05,0.000301514,1,0,0,0,0,0,0
1609045363561176046,302,1609045363561176046,-0.0072853,-0.00457285,0.00281547,0.000189395,-2.62967e-05,0.000350306,1,0,0,0,0,0,0
1609045363631530930,303,1609045363631530930,-0.00743634,-0.00468462,0.00303476,0.00018852,2.66956e-05,0.000233231,1,0,0,0,0,0,0
1609045363733346105,304,1609045363733346105,-0.00696797,-0.00420358,0.00109227,0.00019681,-3.24394e-05,0.000203599,1,0,0,0,0,0,0
1609045363836479125,305,1609045363836479125,-0.00599586,-0.00364352,0.000731719,0.000191551,-1.7233e-05,0.00024199,1,0,0,0,0,0,0
1609045363939492731,306,1609045363939492731,-0.00436231,-0.00372411,0.00198156,0.000121156,-1.07177e-05,0.000168345,1,0,0,0,0,0,0
1609045364042618385,307,1609045364042618385,-0.00691726,-0.00337815,0.000856622,0.000180888,-4.70664e-05,0.000192528,1,0,0,0,0,0,0
1609045364145671697,308,1609045364145671697,-0.00861044,-0.00292269,-0.000866665,0.00017139,-8.11984e-05,0.000252484,1,0,0,0,0,0,0
1609045364352055733,309,1609045364352055733,-0.00825251,-0.0032616,0.00272608,0.000120971,3.10545e-05,0.000231543,1,0,0,0,0,0,0
1609045364455469109,310,1609045364455469109,-0.0081768,-0.00433963,0.00222951,0.00018582,-1.90542e-05,0.000164701,1,0,0,0,0,0,0
1609045364558759317,311,1609045364558759317,-0.00667374,-0.00396009,0.00229206,0.000125895,-2.43465e-05,0.000239953,1,0,0,0,0,0,0
1609045364558759317,312,1609045364558759317,-0.00646406,-0.00479596,0.00370919,0.00014845,2.48434e-05,0.000221828,1,0,0,0,0,0,0
1609045364661556811,313,1609045364661556811,-0.00713393,-0.00524961,0.00409007,0.00020613,2.95933e-05,0.000222303,1,0,0,0,0,0,0
1609045364731485649,314,1609045364731485649,-0.0080961,-0.00438828,0.00359989,0.000216094,7.95555e-05,0.000202387,1,0,0,0,0,0,0
1609045364833323228,315,1609045364833323228,-0.00821507,-0.00493834,0.000677224,0.000161344,-6.16207e-05,0.00011853,1,0,0,0,0,0,0
1609045364936540105,316,1609045364936540105,-0.00539066,-0.00401889,1.50037e-05,0.000188045,2.25191e-05,0.000215806,1,0,0,0,0,0,0
1609045365038935023,317,1609045365038935023,-0.0062351,-0.00392741,0.00151315,0.000152243,-2.54887e-05,0.000153171,1,0,0,0,0,0,0
1609045365141975416,318,1609045365141975416,-0.00697669,-0.00441441,0.00142557,0.000163207,-4.71943e-05,0.000120178,1,0,0,0,0,0,0
1609045365245730326,319,1609045365245730326,-0.00814489,-0.00351879,0.000716506,0.000152912,-6.19246e-05,0.000162025,1,0,0,0,0,0,0
1609045365348766370,320,1609045365348766370,-0.00880362,-0.00517691,0.00185575,0.000136913,9.02933e-06,0.000247766,1,0,0,0,0,0,0
1609045365452180860,321,1609045365452180860,-0.00690274,-0.00343146,0.00190448,0.000169236,3.97322e-05,0.00017518,1,0,0,0,0,0,0
1609045365555227333,322,1609045365555227333,-0.00773294,-0.00429318,0.00177448,9.60643e-05,-4.69793e-05,0.000253855,1,0,0,0,0,0,0
1609045365658289450,323,1609045365658289450,-0.0059923,-0.00501852,0.00357777,0.000120771,7.36357e-06,0.000244132,1,0,0,0,0,0,0
1609045365761258466,324,1609045365761258466,-0.00628162,-0.00564125,0.00344292,0.00016297,-8.68021e-06,0.000226567,1,0,0,0,0,0,0
1609045365831453296,325,1609045365831453296,-0.00343813,-0.00542165,0.00404248,0.000226733,6.18218e-05,0.000193717,1,0,0,0,0,0,0
1609045365933325881,326,1609045365933325881,-0.00425145,-0.00345999,0.000601531,0.000189839,-6.00861e-05,0.00017318,1,0,0,0,0,0,0
1609045366036532118,327,1609045366036532118,-0.00639349,-0.00378017,0.000689191,0.000154483,-1.41162e-05,0.000125592,1,0,0,0,0,0,0
1609045366140005333,328,1609045366140005333,-0.00652687,-0.00235704,0.00126409,0.000150826,-1.54682e-05,9.09105e-05,1,0,0,0,0,0,0
1609045366242765271,329,1609045366242765271,-0.00495213,-0.00306685,0.000869815,0.000154182,-1.20945e-05,2.61757e-05,1,0,0,0,0,0,0
1609045366345786890,330,1609045366345786890,-0.00434282,-0.00346812,0.000727199,0.000122199,-6.78193e-05,0.000117955,1,0,0,0,0,0,0
1609045366448918126,331,1609045366448918126,-0.00431068,-0.00201473,0.00189167,0.000128771,-3.73109e-07,0.000101018,1,0,0,0,0,0,0
1609045366551988559,332,1609045366551988559,-0.00635768,-0.00379602,0.00343876,0.000128985,5.07391e-06,0.000132627,1,0,0,0,0,0,0
1609045366655180291,333,1609045366655180291,-0.0076813,-0.00558795,0.00261361,0.000167039,6.25223e-06,0.000203815,1,0,0,0,0,0,0
1609045366758187461,334,1609045366758187461,-0.00609805,-0.00486494,0.00270975,0.000134045,-1.29707e-05,0.000247572,1,0,0,0,0,0,0
1609045366861323911,335,1609045366861323911,-0.00476716,-0.004705,0.00313741,0.00017033,-1.48804e-06,0.000142276,1,0,0,0,0,0,0
1609045366931638399,336,1609045366931638399,-0.00384304,-0.00365084,0.0029065,0.000159937,1.45036e-05,0.000208299,1,0,0,0,0,0,0
1609045367033211989,337,1609045367033211989,-0.00631418,-0.00333584,0.000796425,0.000213756,-3.97795e-05,4.46717e-05,1,0,0,0,0,0,0
1609045367136453237,338,1609045367136453237,-0.00491,-0.00262484,-0.000136074,0.000178266,-6.07544e-05,0.000109056,1,0,0,0,0,0,0
1609045367239051652,339,1609045367239051652,-0.00505986,-0.00273755,0.0010163,0.000129171,-6.55415e-05,0.000102584,1,0,0,0,0,0,0
1609045367342326356,340,1609045367342326356,-0.00554468,-0.00441448,0.00288607,0.000160886,4.79449e-06,9.76372e-05,1,0,0,0,0,0,0
1609045367445249321,341,1609045367445249321,-0.00531679,-0.00350647,0.00164602,0.000185738,-2.18563e-05,0.000133852,1,0,0,0,0,0,0
1609045367548366040,342,1609045367548366040,-0.0034568,-0.00349327,0.00401505,0.000114856,3.76986e-05,0.000133958,1,0,0,0,0,0,0
1609045367651268078,343,1609045367651268078,-0.00399577,-0.0041581,0.00456237,0.000131245,1.81986e-05,7.90267e-05,1,0,0,0,0,0,0
1609045367754429549,344,1609045367754429549,-0.00537943,-0.00310043,0.00466999,0.000130266,2.33388e-05,0.000151341,1,0,0,0,0,0,0
1609045367857505083,345,1609045367857505083,-0.00812745,-0.00363484,0.00325389,0.000113114,6.06724e-06,0.000205652,1,0,0,0,0,0,0
1609045367960665580,346,1609045367960665580,-0.00836519,-0.00356415,0.00396014,0.00015808,-1.42048e-07,0.000223989,1,0,0,0,0,0,0
1609045368030850506,347,1609045368030850506,-0.00631599,-0.00518693,0.00470417,0.000194914,6.31534e-05,0.00018059,1,0,0,0,0,0,0
1609045368132719552,348,1609045368132719552,-0.00648538,-0.00341627,0.00191151,0.000170188,-2.98689e-05,3.88941e-05,1,0,0,0,0,0,0
1609045368236078558,349,1609045368236078558,-0.0061476,-0.00382242,-0.000437245,0.000156701,-8.72288e-05,0.000162519,1,0,0,0,0,0,0
1609045368338953723,350,1609045368338953723,-0.00615437,-0.00308846,0.000263589,9.10082e-05,-7.029e-05,5.67462e-05,1,0,0,0,0,0,0
1609045368442005887,351,1609045368442005887,-0.00605066,-0.00285279,0.00100661,0.000157273,-6.3932e-05,0.00012764,1,0,0,0,0,0,0
1609045368545081652,352,1609045368545081652,-0.00452373,-0.00327344,0.000843708,0.000149796,-5.06471e-05,0.000163675,1,0,0,0,0,0,0
1609045368648285711,353,1609045368648285711,-0.00284124,-0.00280557,0.00306114,8.10219e-05,2.44102e-06,4.61073e-05,1,0,0,0,0,0,0
1609045368751024089,354,1609045368751024089,-0.00539276,-0.00581945,0.00262485,0.000142333,1.38071e-05,0.000226356,1,0,0,0,0,0,0
1609045368854365980,355,1609045368854365980,-0.00640596,-0.00571655,0.00158778,8.0097e-05,-4.40818e-05,0.000197426,1,0,0,0,0,0,0
1609045368957562096,356,1609045368957562096,-0.00503606,-0.00584024,0.00302753,0.000125555,1.39679e-05,0.000163173,1,0,0,0,0,0,0
1609045369060560645,357,1609045369060560645,-0.00538684,-0.00481927,0.00393542,0.000124428,-1.50812e-05,0.000147984,1,0,0,0,0,0,0
1609045369130891195,358,1609045369130891195,-0.00601844,-0.00542935,0.00373892,0.000171984,1.37177e-05,0.000159095,1,0,0,0,0,0,0
1609045369232808423,359,1609045369232808423,-0.00658807,-0.00291995,0.000102584,0.00020839,-6.35114e-05,0.000162802,1,0,0,0,0,0,0
1609045369438898967,360,1609045369438898967,-0.00762132,-0.00477446,-0.00191197,0.000147644,-0.000101744,3.48816e-05,1,0,0,0,0,0,0
1609045369438898967,361,1609045369438898967,-0.00914462,-0.00429474,0.000901288,0.000118145,-1.97639e-05,0.000106153,1,0,0,0,0,0,0
1609045369541910640,362,1609045369541910640,-0.00582105,-0.00511651,0.0016635,0.000105786,-1.54404e-05,0.000170235,1,0,0,0,0,0,0
1609045369645150106,363,1609045369645150106,-0.00295067,-0.00422472,0.0011873,8.70802e-05,-4.80958e-05,0.000127229,1,0,0,0,0,0,0
1609045369748201039,364,1609045369748201039,-0.00309082,-0.00406758,0.00197212,5.91757e-05,-3.51212e-05,0.000149089,1,0,0,0,0,0,0
1609045369851355285,365,1609045369851355285,-0.00451259,-0.00564878,0.00257799,7.06909e-05,-1.20668e-05,0.000208072,1,0,0,0,0,0,0
1609045369954454999,366,1609045369954454999,-0.00437912,-0.00728019,0.0015164,0.000108619,1.51124e-05,0.000106643,1,0,0,0,0,0,0
1609045370057595374,367,1609045370057595374,-0.00359154,-0.00698441,0.00300931,7.83438e-05,7.61536e-06,0.000205838,1,0,0,0,0,0,0
1609045370160584494,368,1609045370160584494,-0.00087594,-0.0051685,0.00327228,0.000117372,-5.4328e-06,0.000137987,1,0,0,0,0,0,0
1609045370230849152,369,1609045370230849152,-0.00305488,-0.00500498,0.0021952,9.64913e-05,1.16758e-05,8.34922e-05,1,0,0,0,0,0,0
1609045370333203698,370,1609045370333203698,-0.00276149,-0.00445234,-0.00111748,0.000202169,-3.85335e-05,0.000100207,1,0,0,0,0,0,0
1609045370435946415,371,1609045370435946415,-0.00482812,-0.00436365,-0.00039587,6.96708e-05,-6.52173e-05,9.95946e-05,1,0,0,0,0,0,0
1609045370538863297,372,1609045370538863297,-0.00490467,-0.00540293,-0.000891722,0.000103193,-6.37208e-05,6.32719e-05,1,0,0,0,0,0,0
1609045370642008578,373,1609045370642008578,-0.00272044,-0.00529542,-0.000694891,0.000107516,-4.02802e-05,7.1043e-05,1,0,0,0,0,0,0
1609045370744952522,374,1609045370744952522,-0.00233867,-0.00567683,-0.000349982,0.000134835,1.70937e-05,0.000115634,1,0,0,0,0,0,0
1609045370848251589,375,1609045370848251589,-0.00312306,-0.00594205,0.00231969,4.99721e-05,2.90177e-05,0.000140337,1,0,0,0,0,0,0
1609045370951250560,376,1609045370951250560,-0.00378088,-0.00579441,0.00142555,5.30243e-05,-1.95437e-05,0.000150476,1,0,0,0,0,0,0
1609045371054955745,377,1609045371054955745,-0.00577313,-0.00670084,0.000348839,-1.08675e-06,-5.8028e-05,0.000158538,1,0,0,0,0,0,0
1609045371157604663,378,1609045371157604663,-0.0084501,-0.00834415,0.000309422,5.74358e-05,-3.19546e-06,0.000324872,1,0,0,0,0,0,0
1609045371260588517,379,1609045371260588517,-0.00576074,-0.00525052,0.0022406,8.69523e-05,1.11026e-05,0.000264085,1,0,0,0,0,0,0
1609045371330885593,380,1609045371330885593,-0.00387966,-0.00609024,0.00170834,0.000120245,7.2159e-06,0.000238274,1,0,0,0,0,0,0
1609045371432804354,381,1609045371432804354,-0.00427522,-0.00507748,-0.00132733,0.000115538,-6.06469e-05,0.000154994,1,0,0,0,0,0,0
1609045371535912386,382,1609045371535912386,-0.00537788,-0.00558634,-0.00258179,8.90038e-05,-4.50406e-05,0.00013221,1,0,0,0,0,0,0
1609045371639040208,383,1609045371639040208,-0.00408047,-0.00585446,-0.00173985,5.52021e-05,-4.91241e-05,0.000114066,1,0,0,0,0,0,0
1609045371742160368,384,1609045371742160368,-0.00406035,-0.00531455,-0.00124844,6.30912e-05,-8.58135e-05,0.00011014,1,0,0,0,0,0,0
1609045371844905919,385,1609045371844905919,-0.00191471,-0.00535102,-0.000584656,2.92827e-05,4.30392e-06,0.000100249,1,0,0,0,0,0,0
1609045371948234312,386,1609045371948234312,-0.00377627,-0.00576709,0.000397357,1.15041e-05,-2.8716e-06,0.000196605,1,0,0,0,0,0,0
1609045372051243078,387,1609045372051243078,-0.00621693,-0.00478206,0.000167121,2.97804e-05,-1.85515e-05,0.000255815,1,0,0,0,0,0,0
1609045372154814228,388,1609045372154814228,-0.00733022,-0.00580342,0.000514668,2.8207e-05,-2.29028e-05,0.000191459,1,0,0,0,0,0,0
1609045372257599194,389,1609045372257599194,-0.00734851,-0.00868742,-0.000283852,5.72261e-05,-5.43301e-05,0.000215268,1,0,0,0,0,0,0
1609045372360807574,390,1609045372360807574,-0.00565722,-0.00924876,-0.000151479,2.08004e-05,-4.62492e-05,0.000199815,1,0,0,0,0,0,0
1609045372431073610,391,1609045372431073610,-0.00461483,-0.00942387,-0.000752354,5.30902e-05,-3.54805e-05,0.000218515,1,0,0,0,0,0,0
1609045372532938154,392,1609045372532938154,-0.00319952,-0.00830022,-0.00266606,0.000102887,-4.12652e-05,9.39693e-05,1,0,0,0,0,0,0
1609045372635845623,393,1609045372635845623,-0.00584952,-0.00613199,-0.00348931,8.49109e-05,-3.11022e-06,7.05743e-05,1,0,0,0,0,0,0
1609045372738979615,394,1609045372738979615,-0.00713631,-0.0059391,-0.00216906,1.07217e-05,-5.06066e-05,0.000147267,1,0,0,0,0,0,0
1609045372842013188,395,1609045372842013188,-0.00677372,-0.00745544,-0.0035223,6.8223e-05,-4.15779e-05,0.000216641,1,0,0,0,0,0,0
1609045372945111975,396,1609045372945111975,-0.00507582,-0.00733671,-0.00276988,3.08592e-06,-8.80607e-05,7.05291e-05,1,0,0,0,0,0,0
1609045373048193916,397,1609045373048193916,-0.00175075,-0.0072284,-0.00107847,-2.18604e-05,-4.65465e-05,0.000156731,1,0,0,0,0,0,0
1609045373151260063,398,1609045373151260063,-0.00254805,-0.00755853,-0.00192536,-1.46611e-05,-6.38057e-05,0.000136794,1,0,0,0,0,0,0
1609045373254409419,399,1609045373254409419,-0.00431513,-0.00656737,-0.00151278,-2.1527e-05,1.31736e-06,0.000231265,1,0,0,0,0,0,0
1609045373357430475,400,1609045373357430475,-0.00452482,-0.00699285,0.000843661,2.83676e-06,5.49053e-06,0.000227499,1,0,0,0,0,0,0
1609045373460498893,401,1609045373460498893,-0.00353314,-0.00935086,0.000716133,6.90968e-05,2.40405e-05,0.000211411,1,0,0,0,0,0,0
1609045373530825231,402,1609045373530825231,-0.00384437,-0.00963091,-0.000339577,5.80204e-05,-1.84396e-05,0.000223078,1,0,0,0,0,0,0
1609045373632563937,403,1609045373632563937,-0.00491955,-0.00737432,-0.0035693,0.000110825,-5.60859e-05,3.5222e-05,1,0,0,0,0,0,0
1609045373736071725,404,1609045373736071725,-0.00482343,-0.00726897,-0.00368112,2.84687e-05,-7.23925e-05,0.000104234,1,0,0,0,0,0,0
1609045373838775983,405,1609045373838775983,-0.00283832,-0.00827947,-0.0030153,-5.05052e-06,-4.07209e-05,8.65546e-05,1,0,0,0,0,0,0
1609045373942149158,406,1609045373942149158,-0.0034405,-0.00841929,-0.00271406,5.07025e-05,-8.57651e-05,0.000111085,1,0,0,0,0,0,0
1609045374045190688,407,1609045374045190688,-0.00528253,-0.00717919,-0.00281565,7.94668e-05,-5.78161e-05,0.00017801,1,0,0,0,0,0,0
1609045374148506882,408,1609045374148506882,-0.0068004,-0.00657674,-0.00012195,1.24595e-05,-1.24867e-05,0.000183394,1,0,0,0,0,0,0
1609045374251546982,409,1609045374251546982,-0.00731395,-0.00688926,-0.000215483,3.19254e-05,-4.76025e-05,0.000234979,1,0,0,0,0,0,0
1609045374354596751,410,1609045374354596751,-0.00503893,-0.00583814,0.000471638,2.46297e-05,1.73415e-06,0.000201322,1,0,0,0,0,0,0
1609045374457621354,411,1609045374457621354,-0.00484909,-0.00623337,0.000408674,-5.33609e-06,-6.38497e-05,0.000215285,1,0,0,0,0,0,0
1609045374560672365,412,1609045374560672365,-0.00147618,-0.00510325,0.00129892,3.22512e-05,-4.93753e-06,0.000222088,1,0,0,0,0,0,0
1609045374630982343,413,1609045374630982343,-0.0020325,-0.00768196,0.00100874,9.85649e-05,4.27574e-05,0.000215567,1,0,0,0,0,0,0
1609045374732777584,414,1609045374732777584,-0.00419379,-0.00567324,-0.00345104,0.000154869,-9.63895e-05,2.6312e-05,1,0,0,0,0,0,0
1609045374835876294,415,1609045374835876294,-0.00608258,-0.00724963,-0.0027469,7.25145e-05,-1.47778e-05,0.000111392,1,0,0,0,0,0,0
1609045374938973586,416,1609045374938973586,-0.00712686,-0.00735195,-0.00118213,5.34837e-05,-3.78733e-05,0.000133716,1,0,0,0,0,0,0
1609045375042018598,417,1609045375042018598,-0.00566077,-0.00856483,-0.00195461,5.02707e-05,-7.95804e-05,0.000249603,1,0,0,0,0,0,0
1609045375145104523,418,1609045375145104523,-0.00764876,-0.00724532,-0.00115431,5.26743e-05,-3.85551e-05,8.06983e-05,1,0,0,0,0,0,0
1609045375248273098,419,1609045375248273098,-0.00428587,-0.00569752,0.00217366,-2.3785e-05,2.39291e-06,0.000183773,1,0,0,0,0,0,0
1609045375351145881,420,1609045375351145881,-0.00223617,-0.00564453,0.00288171,4.40887e-05,4.20117e-05,0.000176415,1,0,0,0,0,0,0
1609045375454366173,421,1609045375454366173,-0.00510706,-0.00735926,0.000800294,6.53782e-05,-6.30906e-06,0.000178435,1,0,0,0,0,0,0
1609045375557381087,422,1609045375557381087,-0.00533287,-0.00649571,0.00056546,4.29342e-05,7.29422e-06,0.000246397,1,0,0,0,0,0,0
1609045375660591853,423,1609045375660591853,-0.00720529,-0.00736161,0.00179156,2.8892e-05,-5.01404e-05,0.000269822,1,0,0,0,0,0,0
1609045375730479815,424,1609045375730479815,-0.00698348,-0.0085285,0.00137392,8.03434e-05,1.27362e-05,0.000217985,1,0,0,0,0,0,0
1609045375832367416,425,1609045375832367416,-0.00822905,-0.00684507,-0.00325964,0.000158579,-0.000129223,0.000143019,1,0,0,0,0,0,0
1609045375935706685,426,1609045375935706685,-0.00697948,-0.00606094,-0.00481608,0.000185154,-4.66578e-05,0.000133241,1,0,0,0,0,0,0
1609045376038850677,427,1609045376038850677,-0.00685866,-0.00645623,-0.00182143,5.43342e-05,-7.7362e-05,0.000129243,1,0,0,0,0,0,0
1609045376142024055,428,1609045376142024055,-0.00609009,-0.00525126,-0.00030812,9.72475e-05,-3.90048e-05,0.000198023,1,0,0,0,0,0,0
1609045376245121034,429,1609045376245121034,-0.00654125,-0.00564169,-0.00142499,6.60614e-05,-7.36219e-05,0.000120508,1,0,0,0,0,0,0
1609045376348201880,430,1609045376348201880,-0.00504568,-0.0057103,0.000596016,2.84221e-05,-2.47584e-05,0.000177533,1,0,0,0,0,0,0
1609045376452311710,431,1609045376452311710,-0.00641077,-0.00685593,0.00299373,3.58695e-05,1.05184e-05,0.00019773,1,0,0,0,0,0,0
1609045376554926339,432,1609045376554926339,-0.00718686,-0.00550535,0.00109035,8.90569e-05,-6.22893e-06,0.000161913,1,0,0,0,0,0,0
1609045376657546208,433,1609045376657546208,-0.00551763,-0.00639595,0.000447636,5.80796e-05,-1.0359e-06,0.000187085,1,0,0,0,0,0,0
1609045376760464146,434,1609045376760464146,-0.00500731,-0.00630999,0.00189387,0.000116964,1.70093e-05,0.000213166,1,0,0,0,0,0,0
1609045376830573913,435,1609045376830573913,-0.00580489,-0.00611118,0.00216639,7.16343e-05,-4.09987e-05,0.000194053,1,0,0,0,0,0,0
1609045376932506506,436,1609045376932506506,-0.00674655,-0.00510654,-0.0012102,0.000194744,-6.93874e-05,0.000106084,1,0,0,0,0,0,0
1609045377035521968,437,1609045377035521968,-0.00931897,-0.00338539,-0.0016979,0.000121427,-4.3772e-05,9.3278e-05,1,0,0,0,0,0,0
1609045377138520030,438,1609045377138520030,-0.00669644,-0.00463647,-0.000915684,8.63951e-05,-7.24161e-05,0.000163264,1,0,0,0,0,0,0
1609045377241616026,439,1609045377241616026,-0.00633618,-0.00470933,-0.000521578,8.9569e-05,-8.80299e-05,7.73418e-05,1,0,0,0,0,0,0
1609045377344847224,440,1609045377344847224,-0.00609642,-0.00477264,0.000265883,0.000171484,8.87383e-06,0.000140995,1,0,0,0,0,0,0
1609045377447922137,441,1609045377447922137,-0.00971004,-0.00637329,0.00163716,9.77826e-05,1.6149e-05,0.000225325,1,0,0,0,0,0,0
1609045377550966337,442,1609045377550966337,-0.00662088,-0.00643044,0.00285931,0.000107937,2.35694e-05,4.12346e-05,1,0,0,0,0,0,0
1609045377654294695,443,1609045377654294695,-0.0076258,-0.00505519,0.00218136,8.84816e-05,-1.38413e-05,0.000186155,1,0,0,0,0,0,0
1609045377757139996,444,1609045377757139996,-0.00741728,-0.00582203,0.00478607,0.000102038,4.59821e-05,0.000295874,1,0,0,0,0,0,0
1609045377860249692,445,1609045377860249692,-0.0095154,-0.0079699,0.00420894,0.000146226,2.2117e-05,0.000363263,1,0,0,0,0,0,0
1609045377930523951,446,1609045377930523951,-0.0113118,-0.00656424,0.00352625,0.00012812,8.76508e-07,0.000320371,1,0,0,0,0,0,0
1609045378032251675,447,1609045378032251675,-0.0104061,-0.00527516,-0.000506175,0.000210316,-3.79669e-05,8.39244e-05,1,0,0,0,0,0,0
1609045378135226620,448,1609045378135226620,-0.00806323,-0.00281231,-0.000474686,0.000145383,3.06452e-05,0.0001177,1,0,0,0,0,0,0
1609045378238464914,449,1609045378238464914,-0.00784451,-0.00535207,0.00135542,0.000157558,-5.9941e-06,0.000130374,1,0,0,0,0,0,0
1609045378341476889,450,1609045378341476889,-0.00478458,-0.00444045,0.000684712,0.000159362,-3.67113e-05,7.76551e-05,1,0,0,0,0,0,0
1609045378444743399,451,1609045378444743399,-0.00395438,-0.00455806,0.000923488,0.000144136,-1.97476e-05,0.000114277,1,0,0,0,0,0,0
1609045378547915026,452,1609045378547915026,-0.00269629,-0.00491641,0.00370443,7.5094e-05,3.65268e-05,0.000199397,1,0,0,0,0,0,0
1609045378650939970,453,1609045378650939970,-0.00574346,-0.00534878,0.00399873,0.000156512,5.41779e-05,0.000231899,1,0,0,0,0,0,0
1609045378754015278,454,1609045378754015278,-0.00385453,-0.002848,0.00364522,0.000135447,3.8213e-05,0.000159863,1,0,0,0,0,0,0
1609045378856689252,455,1609045378856689252,-0.00421801,-0.00477403,0.00318407,7.56897e-05,1.49373e-05,0.000270646,1,0,0,0,0,0,0
1609045378960341899,456,1609045378960341899,-0.00672964,-0.00630754,0.00519735,9.2686e-05,3.37025e-05,0.000153544,1,0,0,0,0,0,0
1609045379030528284,457,1609045379030528284,-0.0057739,-0.00403396,0.00519713,0.000123655,4.31293e-05,0.000124983,1,0,0,0,0,0,0
1609045379132334385,458,1609045379132334385,-0.00642582,-0.00326655,-0.000850928,0.000254052,-1.5317e-05,1.22944e-05,1,0,0,0,0,0,0
